timestamp,timestamp_sample,ref_timestamp,ref_lat,ref_lon,x,y,z,delta_xy[0],delta_xy[1],delta_z,vx,vy,vz,z_deriv,delta_vxy[0],delta_vxy[1],delta_vz,ax,ay,az,heading,delta_heading,ref_alt,dist_bottom,eph,epv,evh,evv,vxy_max,vz_max,hagl_min,hagl_max,xy_valid,z_valid,v_xy_valid,v_z_valid,xy_reset_counter,z_reset_counter,vxy_reset_counter,vz_reset_counter,heading_reset_counter,heading_good_for_control,xy_global,z_global,dist_bottom_valid,dist_bottom_sensor_bitfield,dead_reckoning
296462497,296461444,20740449,41.1790081,-8.6036451,0.6627399,2.0699153,-1.21242,0.00023569915,-0.0010364398,-6.15716e-05,-0.012793572,0.02486966,0.031225042,0.0686178,0.0054122694,-0.00391737,-0.021185223,0.02121129,0.0073980703,0.013861986,0.18817773,0.0086743,108.99439,0.10413623,0.33211103,0.31089753,0.13842383,0.09682896,inf,inf,inf,inf,1,1,1,1,2,2,2,2,2,0,1,1,0,0,0
296472747,296471439,20740449,41.1790081,-8.6036451,0.6622156,2.0698514,-1.2115563,0.00023569915,-0.0010364398,-6.15716e-05,-0.012921026,0.024834776,0.031315416,0.06886804,0.0054122694,-0.00391737,-0.021185223,0.013404565,0.008697434,0.009102887,0.18819536,0.0086743,108.99439,0.10359895,0.33295122,0.31155455,0.13887031,0.097011305,inf,inf,inf,inf,1,1,1,1,2,2,2,2,2,0,1,1,0,0,0
296572596,296571392,20740449,41.1790081,-8.6036451,0.65696764,2.0691793,-1.2033153,0.00023569915,-0.0010364398,-6.15716e-05,-0.013259644,0.023589417,0.031958412,0.07061214,0.0054122694,-0.00391737,-0.021185223,0.047976214,-0.060341112,-0.02554997,0.18815653,0.0086743,108.99439,0.10671878,0.32491085,0.30747995,0.13451637,0.095545195,inf,inf,inf,inf,1,1,1,1,2,2,2,2,2,0,1,1,0,0,0
296672510,296671341,20740449,41.1790081,-8.6036451,0.6515728,2.0682719,-1.1946768,0.00023569915,-0.0010364398,-6.15716e-05,-0.014849317,0.023398168,0.03303348,0.072929464,0.0054122694,-0.00391737,-0.021185223,-0.010688975,0.064058445,0.008116166,0.18824047,0.0086743,108.99439,0.09901929,0.33309874,0.31157222,0.13895445,0.09702374,inf,inf,inf,inf,1,1,1,1,2,2,2,2,2,0,1,1,0,0,0
296772523,296771285,20740449,41.1790081,-8.6036451,0.64689267,2.0681303,-1.1877078,0.00023569915,-0.0010364398,-6.15716e-05,-0.014277825,0.024047721,0.033511203,0.07288246,0.0054122694,-0.00391737,-0.021185223,-0.0769058,0.04066593,0.009798878,0.18884695,0.0086743,108.99439,0.10052562,0.32504067,0.3075016,0.13458757,0.095557526,inf,inf,inf,inf,1,1,1,1,2,2,2,2,2,0,1,1,0,0,0
296872456,296871235,20740449,41.1790081,-8.6036451,0.64216983,2.0683243,-1.1814147,0.00023569915,-0.0010364398,-6.15716e-05,-0.015811017,0.020579819,0.03203017,0.07024591,0.0054122694,-0.00391737,-0.021185223,-0.29414567,-0.019696278,-0.25327665,0.18934572,0.0086743,108.99439,0.09362006,0.333233,0.31159437,0.1390263,0.09703633,inf,inf,inf,inf,1,1,1,1,2,2,2,2,2,0,1,1,0,0,0
296972290,296971183,20740449,41.1790081,-8.6036451,0.63825494,2.0687115,-1.1757655,0.00023569915,-0.0010364398,-6.15716e-05,-0.013360233,0.019608913,0.03236748,0.06901672,0.0054122694,-0.00391737,-0.021185223,0.5877562,-0.54306394,-0.21843114,0.18951485,0.0086743,108.99439,0.10408008,0.32511672,0.30749694,0.13458645,0.095551796,inf,inf,inf,inf,1,1,1,1,2,2,2,2,2,0,1,1,0,0,0
297062294,297061138,20740449,41.1790081,-8.6036451,0.6347795,2.067873,-1.1686562,0.00023569915,-0.0010364398,-6.15716e-05,-0.014933823,0.02117092,0.03579128,0.073069766,0.0054122694,-0.00391737,-0.021185223,-0.4238939,-0.05585757,0.8626013,0.18961069,0.0086743,108.99439,0.097154975,0.33246526,0.31092167,0.13857813,0.09684513,inf,inf,inf,inf,1,1,1,1,2,2,2,2,2,0,1,1,0,0,0
297172245,297171082,20740449,41.1790081,-8.6036451,0.63050115,2.0674343,-1.1616806,0.00023569915,-0.0010364398,-6.15716e-05,-0.013544614,0.022726472,0.035115026,0.07147433,0.0054122694,-0.00391737,-0.021185223,0.3988061,0.37471682,0.3459726,0.18980716,0.0086743,108.99439,0.10105181,0.32524568,0.30749795,0.13463916,0.095558845,inf,inf,inf,inf,1,1,1,1,2,2,2,2,2,0,1,1,0,0,0
297272411,297271031,20740449,41.1790081,-8.6036451,0.62555444,2.066962,-1.1547288,0.00023569915,-0.0010364398,-6.15716e-05,-0.015677746,0.02365585,0.033115346,0.06928345,0.0054122694,-0.00391737,-0.021185223,-0.77193004,1.3522412,-0.3580238,0.19019303,0.0086743,108.99439,0.09476471,0.3334393,0.31157985,0.13908495,0.097034484,inf,inf,inf,inf,1,1,1,1,2,2,2,2,2,0,1,1,0,0,0
297372116,297370980,20740449,41.1790081,-8.6036451,0.62144405,2.0670936,-1.1485887,0.00023569915,-0.0010364398,-6.15716e-05,-0.019897094,0.019919947,0.03535532,0.07060884,0.0054122694,-0.00391737,-0.021185223,-1.077693,0.11075361,0.2684645,0.1904869,0.0086743,108.99439,0.10043633,0.3253633,0.30749354,0.13471012,0.09556432,inf,inf,inf,inf,1,1,1,1,2,2,2,2,2,0,1,1,0,0,0
297472059,297470929,20740449,41.1790081,-8.6036451,0.6177879,2.0674727,-1.1419094,0.00023569915,-0.0010364398,-6.15716e-05,-0.01333419,0.01998871,0.03422194,0.069099225,0.0054122694,-0.00391737,-0.021185223,0.8171532,-0.4989168,0.50513,0.19066317,0.0086743,108.99439,0.094287395,0.33356053,0.3115756,0.13914476,0.09703985,inf,inf,inf,inf,1,1,1,1,2,2,2,2,2,0,1,1,0,0,0
297571940,297570878,20740449,41.1790081,-8.6036451,0.6141972,2.0681374,-1.1359663,0.00023569915,-0.0010364398,-6.15716e-05,-0.012849699,0.020913262,0.0364889,0.070258886,0.0054122694,-0.00391737,-0.021185223,0.82838905,-0.5011241,-0.23318557,0.19075638,0.0086743,108.99439,0.101934195,0.32540783,0.30746454,0.13468665,0.09555268,inf,inf,inf,inf,1,1,1,1,2,2,2,2,2,0,1,1,0,0,0
297671878,297670828,20740449,41.1790081,-8.6036451,0.60884297,2.068173,-1.1285985,0.00023569915,-0.0010364398,-6.15716e-05,-0.0167726,0.019629445,0.035433866,0.06941854,0.0054122694,-0.00391737,-0.021185223,-0.5665775,-0.6891046,-0.2440882,0.191048,0.0086743,108.99439,0.09311712,0.33360082,0.3115456,0.13912079,0.09702891,inf,inf,inf,inf,1,1,1,1,2,2,2,2,2,0,1,1,0,0,0
297771870,297770776,20740449,41.1790081,-8.6036451,0.60413545,2.068366,-1.1223085,0.00023569915,-0.0010364398,-6.15716e-05,-0.019623963,0.021440081,0.037199583,0.07039291,0.0054122694,-0.00391737,-0.021185223,-0.32008997,-0.35293084,-0.1552918,0.19123983,0.0086743,108.99439,0.103859305,0.32550815,0.30746195,0.13473763,0.095559575,inf,inf,inf,inf,1,1,1,1,2,2,2,2,2,0,1,1,0,0,0
297871879,297870725,20740449,41.1790081,-8.6036451,0.5994244,2.0680246,-1.1143175,0.00023569915,-0.0010364398,-6.15716e-05,-0.01660464,0.022139879,0.040205993,0.074172966,0.0054122694,-0.00391737,-0.021185223,0.68953,0.22396265,0.93322587,0.19148967,0.0086743,108.99439,0.09316659,0.33370423,0.31154338,0.13917516,0.09703593,inf,inf,inf,inf,1,1,1,1,2,2,2,2,2,0,1,1,0,0,0
297971670,297970674,20740449,41.1790081,-8.6036451,0.5952169,2.0681052,-1.1083716,0.00023569915,-0.0010364398,-6.15716e-05,-0.014457442,0.02290116,0.040167715,0.07280116,0.0054122694,-0.00391737,-0.021185223,0.30396995,0.37316626,0.21448259,0.19171987,0.0086743,108.99439,0.10178685,0.32553738,0.30742937,0.13470027,0.09554893,inf,inf,inf,inf,1,1,1,1,2,2,2,2,2,0,1,1,0,0,0
298071577,298070623,20740449,41.1790081,-8.6036451,0.59011453,2.0677798,-1.1006176,0.00023569915,-0.0010364398,-6.15716e-05,-0.019597936,0.02171262,0.03932311,0.07236629,0.0054122694,-0.00391737,-0.021185223,-0.5939599,0.59888124,-0.25134718,0.19202085,0.0086743,108.99439,0.09427214,0.3337289,0.31150994,0.1391435,0.09702556,inf,inf,inf,inf,1,1,1,1,2,2,2,2,2,0,1,1,0,0,0
298171570,298170572,20740449,41.1790081,-8.6036451,0.58627665,2.0679686,-1.0942445,0.00023569915,-0.0010364398,-6.15716e-05,-0.01794586,0.018930074,0.037184443,0.06933976,0.0054122694,-0.00391737,-0.021185223,0.057981726,-0.6515447,-0.39461616,0.19228709,0.0086743,108.99439,0.09846282,0.32564405,0.3074291,0.13476023,0.09555705,inf,inf,inf,inf,1,1,1,1,2,2,2,2,2,0,1,1,0,0,0
298271481,298270522,20740449,41.1790081,-8.6036451,0.58357817,2.0683467,-1.087723,0.00023569915,-0.0010364398,-6.15716e-05,-0.014652377,0.017599491,0.042334277,0.073735654,0.0054122694,-0.00391737,-0.021185223,1.1190225,-0.904211,0.5066058,0.19248721,0.0086743,108.99439,0.09237492,0.33383936,0.31151012,0.1392124,0.09703345,inf,inf,inf,inf,1,1,1,1,2,2,2,2,2,0,1,1,0,0,0
298371571,298370470,20740449,41.1790081,-8.6036451,0.5806221,2.0690606,-1.0817729,0.00023569915,-0.0010364398,-6.15716e-05,-0.014105693,0.018270947,0.039373364,0.06960114,0.0054122694,-0.00391737,-0.021185223,0.14693803,-0.34784907,0.14875138,0.19268195,0.0086743,108.99439,0.09802055,0.3257411,0.3074293,0.1347974,0.09556477,inf,inf,inf,inf,1,1,1,1,2,2,2,2,2,0,1,1,0,0,0
298471513,298470420,20740449,41.1790081,-8.6036451,0.5765973,2.0697842,-1.0750332,0.00023569915,-0.0010364398,-6.15716e-05,-0.018564608,0.023743978,0.039894417,0.06973033,0.0054122694,-0.00391737,-0.021185223,-0.6273949,1.0185573,-0.3651523,0.19289781,0.0086743,108.99439,0.09220016,0.33393925,0.31151077,0.13925269,0.097041465,inf,inf,inf,inf,1,1,1,1,2,2,2,2,2,0,1,1,0,0,0
298571610,298570373,20740449,41.1790081,-8.6036451,0.573234,2.0698907,-1.069726,0.00023569915,-0.0010364398,-6.15716e-05,-0.01733506,0.024165692,0.03887291,0.06701886,0.0054122694,-0.00391737,-0.021185223,-0.34519434,1.7772946,-0.09398673,0.1932055,0.0086743,108.99439,0.09359884,0.3258487,0.30742988,0.13484882,0.095572494,inf,inf,inf,inf,1,1,1,1,2,2,2,2,2,0,1,1,0,0,0
298671372,298670318,20740449,41.1790081,-8.6036451,0.5702189,2.0682092,-1.064755,0.00023569915,-0.0010364398,-6.15716e-05,-0.0145086525,0.019476674,0.041001957,0.06732915,0.0054122694,-0.00391737,-0.021185223,0.34458628,-0.3411437,0.41305754,0.19340761,0.0086743,108.99439,0.08927071,0.33404997,0.3115118,0.1392974,0.097049356,inf,inf,inf,inf,1,1,1,1,2,2,2,2,2,0,1,1,0,0,0
298771571,298770267,20740449,41.1790081,-8.6036451,0.56734884,2.067762,-1.0606558,0.00023569915,-0.0010364398,-6.15716e-05,-0.013113342,0.01697346,0.04010616,0.06408117,0.0054122694,-0.00391737,-0.021185223,0.07302933,-0.618327,0.14285333,0.19365332,0.0086743,108.99439,0.09374702,0.32588494,0.30740082,0.13480848,0.09556094,inf,inf,inf,inf,1,1,1,1,2,2,2,2,2,0,1,1,0,0,0
298871519,298870220,20740449,41.1790081,-8.6036451,0.56338453,2.0688775,-1.0555362,0.00023569915,-0.0010364398,-6.15716e-05,-0.015994973,0.01662282,0.038783252,0.061596967,0.0054122694,-0.00391737,-0.021185223,-0.46528235,-1.1982985,-0.65844864,0.1938498,0.0086743,108.99439,0.09071159,0.33408123,0.3114717,0.13925433,0.09703453,inf,inf,inf,inf,1,1,1,1,2,2,2,2,2,0,1,1,0,0,0
298971341,298970165,20740449,41.1790081,-8.6036451,0.55996186,2.0702589,-1.05112,0.00023569915,-0.0010364398,-6.15716e-05,-0.015438035,0.022460448,0.03722837,0.05830697,0.0054122694,-0.00391737,-0.021185223,0.20013028,0.69273144,-0.8454284,0.19404815,0.0086743,108.99439,0.09072316,0.32599682,0.3073896,0.13485695,0.095564,inf,inf,inf,inf,1,1,1,1,2,2,2,2,2,0,1,1,0,0,0
299071309,299070114,20740449,41.1790081,-8.6036451,0.55684674,2.0717576,-1.0474349,0.00023569915,-0.0010364398,-6.15716e-05,-0.010980273,0.020944772,0.04156905,0.060433418,0.0054122694,-0.00391737,-0.021185223,0.7547968,0.53815544,1.1233752,0.19422299,0.0086743,108.99439,0.087341905,0.3341964,0.31146058,0.13930602,0.0970383,inf,inf,inf,inf,1,1,1,1,2,2,2,2,2,0,1,1,0,0,0
299171241,299170064,20740449,41.1790081,-8.6036451,0.55371517,2.073344,-1.0443746,0.00023569915,-0.0010364398,-6.15716e-05,-0.012960603,0.021489821,0.040721443,0.057117395,0.0054122694,-0.00391737,-0.021185223,0.62926924,-0.2421731,0.5699238,0.19437943,0.0086743,108.99439,0.09379482,0.32603654,0.30735424,0.13480824,0.09555096,inf,inf,inf,inf,1,1,1,1,2,2,2,2,2,0,1,1,0,0,0
299271151,299270020,20740449,41.1790081,-8.6036451,0.5490569,2.0738933,-1.0397147,0.00023569915,-0.0010364398,-6.15716e-05,-0.01580752,0.021450365,0.03740936,0.053055327,0.0054122694,-0.00391737,-0.021185223,-0.5657828,0.5754246,-0.063557275,0.19461201,0.0086743,108.99439,0.08948934,0.33423105,0.31142423,0.13925257,0.09702479,inf,inf,inf,inf,1,1,1,1,2,2,2,2,2,0,1,1,0,0,0
299371073,299369961,20740449,41.1790081,-8.6036451,0.5456926,2.0747302,-1.0358986,0.00023569915,-0.0010364398,-6.15716e-05,-0.017847942,0.020437242,0.037092812,0.051171623,0.0054122694,-0.00391737,-0.021185223,-0.27579814,-0.49036506,-0.8580931,0.19465367,0.0086743,108.99439,0.0894084,0.32613212,0.3073458,0.1348622,0.09555579,inf,inf,inf,inf,1,1,1,1,2,2,2,2,2,0,1,1,0,0,0
299470988,299469911,20740449,41.1790081,-8.6036451,0.54379267,2.0755854,-1.032694,0.00023569915,-0.0010364398,-6.15716e-05,-0.0152624715,0.022574393,0.03789671,0.050025344,0.0054122694,-0.00391737,-0.021185223,-0.12651461,0.5584353,0.107605316,0.19466034,0.0086743,108.99439,0.08676493,0.33432958,0.31141615,0.13930649,0.09702967,inf,inf,inf,inf,1,1,1,1,2,2,2,2,2,0,1,1,0,0,0
299570995,299569860,20740449,41.1790081,-8.6036451,0.5420786,2.0767643,-1.0305402,0.00023569915,-0.0010364398,-6.15716e-05,-0.010054128,0.017735336,0.041343655,0.05077324,0.0054122694,-0.00391737,-0.021185223,0.59456104,-1.40291,0.580127,0.19457708,0.0086743,108.99439,0.088930964,0.32609698,0.3073133,0.1348129,0.095543794,inf,inf,inf,inf,1,1,1,1,2,2,2,2,2,0,1,1,0,0,0
299670959,299669809,20740449,41.1790081,-8.6036451,0.5398488,2.0778263,-1.027578,0.00023569915,-0.0010364398,-6.15716e-05,-0.012331299,0.022676822,0.038270008,0.046106648,0.0054122694,-0.00391737,-0.021185223,-0.46395767,0.20468311,-0.17620322,0.19458914,0.0086743,108.99439,0.09088051,0.33428788,0.3113828,0.13924137,0.0970178,inf,inf,inf,inf,1,1,1,1,2,2,2,2,2,0,1,1,0,0,0
299770985,299769758,20740449,41.1790081,-8.6036451,0.53761196,2.0786912,-1.0235144,0.00023569915,-0.0010364398,-6.15716e-05,-0.011591543,0.020587979,0.037828393,0.045334898,0.0054122694,-0.00391737,-0.021185223,-0.26238477,-0.7086049,-0.25639373,0.19465077,0.0086743,108.99439,0.096431494,0.32606506,0.3073022,0.13483381,0.095549434,inf,inf,inf,inf,1,1,1,1,2,2,2,2,2,0,1,1,0,0,0
299870798,299869707,20740449,41.1790081,-8.6036451,0.5348164,2.0788643,-1.0184985,0.00023569915,-0.0010364398,-6.15716e-05,-0.012670982,0.023305155,0.03852148,0.04661501,0.0054122694,-0.00391737,-0.021185223,0.5974496,0.13259284,0.17535475,0.19454396,0.0086743,108.99439,0.09090698,0.33425635,0.31137216,0.13927855,0.09702358,inf,inf,inf,inf,1,1,1,1,2,2,2,2,2,0,1,1,0,0,0
299970738,299969656,20740449,41.1790081,-8.6036451,0.5321896,2.0793755,-1.0147475,0.00023569915,-0.0010364398,-6.15716e-05,-0.012707972,0.021627443,0.037398767,0.04490107,0.0054122694,-0.00391737,-0.021185223,-0.09937942,-0.12012598,0.020003356,0.1946374,0.0086743,108.99439,0.09443498,0.3260364,0.30729246,0.13485524,0.09555497,inf,inf,inf,inf,1,1,1,1,2,2,2,2,2,0,1,1,0,0,0
300070729,300069606,20740449,41.1790081,-8.6036451,0.52935785,2.0797536,-1.010339,0.00023569915,-0.0010364398,-6.15716e-05,-0.013496874,0.02351593,0.03618884,0.043769732,0.0054122694,-0.00391737,-0.021185223,-0.1144146,-0.029819705,-0.73032475,0.19454402,0.0086743,108.99439,0.09197104,0.33422813,0.3113629,0.13930279,0.09702927,inf,inf,inf,inf,1,1,1,1,2,2,2,2,2,0,1,1,0,0,0
300170644,300169555,20740449,41.1790081,-8.6036451,0.5269743,2.0805912,-1.0066966,0.00023569915,-0.0010364398,-6.15716e-05,-0.012831588,0.02395689,0.03879883,0.045807112,0.0054122694,-0.00391737,-0.021185223,-0.5994059,1.3123487,0.33371148,0.19468112,0.0086743,108.99439,0.09377372,0.32594803,0.30725884,0.13481107,0.095543385,inf,inf,inf,inf,1,1,1,1,2,2,2,2,2,0,1,1,0,0,0
300270606,300269504,20740449,41.1790081,-8.6036451,0.524814,2.0815725,-1.0030105,0.00023569915,-0.0010364398,-6.15716e-05,-0.016249327,0.026565693,0.03919082,0.045700047,0.0054122694,-0.00391737,-0.021185223,-0.8028525,2.5052814,0.3425045,0.19478174,0.0086743,108.99439,0.09106588,0.3341331,0.31132862,0.13924403,0.09701809,inf,inf,inf,inf,1,1,1,1,2,2,2,2,2,0,1,1,0,0,0
300370530,300369453,20740449,41.1790081,-8.6036451,0.52322996,2.082902,-0.9999157,0.00023569915,-0.0010364398,-6.15716e-05,-0.014552992,0.016977265,0.034732062,0.040331315,0.0054122694,-0.00391737,-0.021185223,-0.47377384,-1.66894,1.0831581,0.19475809,0.0086743,108.99439,0.094264865,0.3258458,0.30722722,0.13475224,0.09553336,inf,inf,inf,inf,1,1,1,1,2,2,2,2,2,0,1,1,0,0,0
300470619,300469402,20740449,41.1790081,-8.6036451,0.522712,2.0842845,-0.9964836,0.00023569915,-0.0010364398,-6.15716e-05,-0.010472223,0.023403848,0.034244444,0.039335545,0.0054122694,-0.00391737,-0.021185223,1.0609535,0.1126537,-1.3413572,0.19492142,0.0086743,108.99439,0.089953005,0.33402446,0.31129643,0.13920934,0.09700737,inf,inf,inf,inf,1,1,1,1,2,2,2,2,2,0,1,1,0,0,0
300570340,300569351,20740449,41.1790081,-8.6036451,0.5217158,2.0857668,-0.99414045,0.00023569915,-0.0010364398,-6.15716e-05,-0.007634396,0.025491944,0.032844085,0.036538802,0.0054122694,-0.00391737,-0.021185223,1.1183653,1.4188831,0.21400622,0.19487368,0.0086743,108.99439,0.092191875,0.3257511,0.30837232,0.13472767,0.0956892,inf,inf,inf,inf,1,1,1,1,2,2,2,2,2,0,1,1,0,0,0
300670403,300669302,20740449,41.1790081,-8.6036451,0.51894695,2.0866756,-0.9927861,0.00023569915,-0.0010364398,-6.15716e-05,-0.013702376,0.029658819,0.03207724,0.03357383,0.0054122694,-0.00391737,-0.021185223,0.61335564,2.1284664,-1.5868,0.19504137,0.0086743,108.99439,0.08846027,0.3339246,0.3124786,0.13917273,0.097172275,inf,inf,inf,inf,1,1,1,1,2,2,2,2,2,0,1,1,0,0,0
300770283,300769250,20740449,41.1790081,-8.6036451,0.5166903,2.0878484,-0.9916193,0.00023569915,-0.0010364398,-6.15716e-05,-0.014241163,0.024090936,0.024386458,0.023947995,0.0054122694,-0.00391737,-0.021185223,-1.1824708,0.64374685,-1.4503129,0.19518057,0.0086743,108.99439,0.09038931,0.32570663,0.30834553,0.13476683,0.09569288,inf,inf,inf,inf,1,1,1,1,2,2,2,2,2,0,1,1,0,0,0
300870190,300869199,20740449,41.1790081,-8.6036451,0.51501536,2.0888655,-0.9902175,0.00023569915,-0.0010364398,-6.15716e-05,-0.007649937,0.015459172,0.03526533,0.033405956,0.0054122694,-0.00391737,-0.021185223,1.8841058,-2.7591732,1.1876489,0.19548513,0.0086743,108.99439,0.090221286,0.33388272,0.31245223,0.13923514,0.09717535,inf,inf,inf,inf,1,1,1,1,2,2,2,2,2,0,1,1,0,0,0
300970186,300969148,20740449,41.1790081,-8.6036451,0.51371425,2.0904753,-0.9910361,0.00023569915,-0.0010364398,-6.15716e-05,-0.013383989,0.018570494,0.02794354,0.023148727,0.0054122694,-0.00391737,-0.021185223,1.5033361,-0.92964184,0.9307746,0.19620186,0.0086743,108.99439,0.091039896,0.32560635,0.3082959,0.13471316,0.09567896,inf,inf,inf,inf,1,1,1,1,2,2,2,2,2,0,1,1,0,0,0
301070153,301069097,20740449,41.1790081,-8.6036451,0.5125965,2.0918012,-0.9932139,0.00023569915,-0.0010364398,-6.15716e-05,-0.018937664,0.009008002,0.011557194,0.0030371451,0.0054122694,-0.00391737,-0.021185223,0.033020694,-3.568136,-2.9545467,0.19864398,0.0086743,108.99439,0.09321767,0.33377817,0.31240192,0.13917823,0.09716245,inf,inf,inf,inf,1,1,1,1,2,2,2,2,2,0,1,1,0,0,0
301170136,301169046,20740449,41.1790081,-8.6036451,0.5107163,2.0915074,-0.99869144,0.00023569915,-0.0010364398,-6.15716e-05,-0.030311652,-0.009767948,0.01520131,0.0014433146,0.0054122694,-0.00391737,-0.021185223,-1.2859985,-2.1898265,2.8731523,0.20548229,0.0086743,108.99439,0.09869522,0.3255552,0.30826947,0.13482216,0.095683545,inf,inf,inf,inf,1,1,1,1,2,2,2,2,2,0,1,1,0,0,0
301270171,301268995,20740449,41.1790081,-8.6036451,0.5086807,2.0877962,-1.00611,0.00023569915,-0.0010364398,-6.15716e-05,-0.018004999,-0.038916644,-0.0046384716,-0.023542924,0.0054122694,-0.00391737,-0.021185223,0.37126333,-1.4807287,0.7731106,0.21754755,0.0086743,108.99439,0.10611373,0.3337316,0.3123761,0.13924858,0.0971663,inf,inf,inf,inf,1,1,1,1,2,2,2,2,2,0,1,1,0,0,0
301370019,301368948,20740449,41.1790081,-8.6036451,0.50643617,2.0817297,-1.0158356,0.00023569915,-0.0010364398,-6.15716e-05,-0.026214654,-0.06657136,-0.027499003,-0.051986538,0.0054122694,-0.00391737,-0.021185223,-0.31498975,-0.7610593,0.56477726,0.22848833,0.0086743,108.99439,0.11583942,0.32544872,0.30822033,0.13482301,0.09567374,inf,inf,inf,inf,1,1,1,1,2,2,2,2,2,0,1,1,0,0,0
301470188,301468894,20740449,41.1790081,-8.6036451,0.50189805,2.0750544,-1.0252533,0.00023569915,-0.0010364398,-6.15716e-05,-0.040536232,-0.072827116,-0.03190116,-0.060117703,0.0054122694,-0.00391737,-0.021185223,-0.45610303,-0.27468422,-0.21092215,0.23021975,0.0086743,108.99439,0.12525707,0.3336231,0.31232646,0.13935532,0.0971616,inf,inf,inf,inf,1,1,1,1,2,2,2,2,2,0,1,1,0,0,0
301569779,301568843,20740449,41.1790081,-8.6036451,0.49679482,2.0681343,-1.0349935,0.00023569915,-0.0010364398,-6.15716e-05,-0.0638534,-0.06292064,-0.05636875,-0.08707311,0.0054122694,-0.00391737,-0.021185223,1.0273566,-2.1953554,0.08811943,0.21854876,0.0086743,108.99439,0.13499731,0.3254156,0.3081998,0.13494751,0.095703214,inf,inf,inf,inf,1,1,1,1,2,2,2,2,2,0,1,1,0,0,0
301669944,301668792,20740449,41.1790081,-8.6036451,0.48994315,2.055536,-1.0469707,0.00023569915,-0.0010364398,-6.15716e-05,-0.1171477,-0.12143549,-0.09827496,-0.12989774,0.0054122694,-0.00391737,-0.021185223,-1.9128169,0.35611346,0.93371415,0.21476397,0.0086743,108.99439,0.1469745,0.33359584,0.3123072,0.13949573,0.09724308,inf,inf,inf,inf,1,1,1,1,2,2,2,2,2,0,1,1,0,0,0
301769908,301768741,20740449,41.1790081,-8.6036451,0.47820693,2.0376894,-1.0628353,0.00023569915,-0.0010364398,-6.15716e-05,-0.15738165,-0.17650332,-0.1527416,-0.18440777,0.0054122694,-0.00391737,-0.021185223,1.381737,-0.12857233,-1.321971,0.23254375,0.0086743,108.99439,0.16283911,0.3253641,0.30818212,0.13521805,0.09579001,inf,inf,inf,inf,1,1,1,1,2,2,2,2,2,0,1,1,0,0,0
301869678,301868691,20740449,41.1790081,-8.6036451,0.46190646,2.0161326,-1.081546,0.00023569915,-0.0010364398,-6.15716e-05,-0.20412329,-0.21052621,-0.19498911,-0.22426853,0.0054122694,-0.00391737,-0.021185223,-2.3003323,1.8268559,0.55673325,0.259805,0.0086743,108.99439,0.18154973,0.33355644,0.31229058,0.13993017,0.09729447,inf,inf,inf,inf,1,1,1,1,2,2,2,2,2,0,1,1,0,0,0
301969632,301968640,20740449,41.1790081,-8.6036451,0.44346288,1.9939297,-1.101547,0.00023569915,-0.0010364398,-6.15716e-05,-0.23416233,-0.22310492,-0.19423886,-0.22039042,0.0054122694,-0.00391737,-0.021185223,-2.3639898,0.66986877,1.3285695,0.2923293,0.0086743,108.99439,0.20155078,0.3253214,0.3081666,0.13562492,0.095824085,inf,inf,inf,inf,1,1,1,1,2,2,2,2,2,0,1,1,0,0,0
302069691,302068589,20740449,41.1790081,-8.6036451,0.42689157,1.9735763,-1.119678,0.00023569915,-0.0010364398,-6.15716e-05,-0.2332688,-0.23031785,-0.21417335,-0.23520283,0.0054122694,-0.00391737,-0.021185223,-0.105597876,2.8634677,1.0422806,0.33060884,0.0086743,108.99439,0.2196818,0.33352485,0.3122764,0.14014299,0.097328,inf,inf,inf,inf,1,1,1,1,2,2,2,2,2,0,1,1,0,0,0
302169533,302168538,20740449,41.1790081,-8.6036451,0.40972745,1.9520078,-1.1406468,0.00023569915,-0.0010364398,-6.15716e-05,-0.2188319,-0.25517404,-0.2218099,-0.23939966,0.0054122694,-0.00391737,-0.021185223,1.6713539,-1.9093667,-1.4427699,0.3699403,0.0086743,108.99439,0.2406506,0.32522792,0.30812812,0.13568439,0.09583955,inf,inf,inf,inf,1,1,1,1,2,2,2,2,2,0,1,1,0,0,0
302269573,302268487,20740449,41.1790081,-8.6036451,0.3937486,1.9299951,-1.16056,0.00023569915,-0.0010364398,-6.15716e-05,-0.21780826,-0.25060913,-0.24283457,-0.25582036,0.0054122694,-0.00391737,-0.021185223,0.29893824,-1.7539326,-0.89087665,0.40649214,0.0086743,108.99439,0.2605638,0.3334296,0.31223845,0.14033118,0.09732807,inf,inf,inf,inf,1,1,1,1,2,2,2,2,2,0,1,1,0,0,0
302369559,302368437,20740449,41.1790081,-8.6036451,0.3782413,1.9066541,-1.1832558,0.00023569915,-0.0010364398,-6.15716e-05,-0.18928634,-0.23532322,-0.26207313,-0.27059472,0.0054122694,-0.00391737,-0.021185223,-0.17640467,2.9067793,-0.670056,0.44515765,0.0086743,108.99439,0.28325957,0.32516757,0.3081021,0.1360663,0.0958563,inf,inf,inf,inf,1,1,1,1,2,2,2,2,2,0,1,1,0,0,0
302469480,302468386,20740449,41.1790081,-8.6036451,0.36352625,1.8827211,-1.207453,0.00023569915,-0.0010364398,-6.15716e-05,-0.16568002,-0.22649622,-0.29890665,-0.3025468,0.0054122694,-0.00391737,-0.021185223,0.108700775,-1.1261276,-0.63426703,0.48501578,0.0086743,108.99439,0.3074568,0.3333774,0.31220418,0.1409674,0.097360924,inf,inf,inf,inf,1,1,1,1,2,2,2,2,2,0,1,1,0,0,0
302569581,302568336,20740449,41.1790081,-8.6036451,0.34884906,1.8594116,-1.2371398,0.00023569915,-0.0010364398,-6.15716e-05,-0.13473807,-0.20948109,-0.3211367,-0.32264796,0.0054122694,-0.00391737,-0.021185223,1.249123,0.8303582,-0.03834798,0.5233735,0.0086743,108.99439,0.3371436,0.32509223,0.30804986,0.1369334,0.09588134,inf,inf,inf,inf,1,1,1,1,2,2,2,2,2,0,1,1,0,0,0
302669466,302668286,20740449,41.1790081,-8.6036451,0.33235064,1.8361878,-1.2686307,0.00023569915,-0.0010364398,-6.15716e-05,-0.12901711,-0.19057551,-0.3364866,-0.3362165,0.0054122694,-0.00391737,-0.021185223,-2.5612938,0.87112975,-0.47764954,0.5597669,0.0086743,108.99439,0.36863452,0.33331466,0.31215364,0.14225046,0.097388536,inf,inf,inf,inf,1,1,1,1,2,2,2,2,2,0,1,1,0,0,0
302769478,302768234,20740449,41.1790081,-8.6036451,0.3190482,1.8152158,-1.3048098,0.00023569915,-0.0010364398,-6.15716e-05,-0.09695282,-0.16910818,-0.38618392,-0.38566926,0.0054122694,-0.00391737,-0.021185223,0.3197846,-0.82698697,-1.6435314,0.5941264,0.0086743,108.99439,0.4048136,0.32500985,0.30799788,0.138372,0.09591635,inf,inf,inf,inf,1,1,1,1,2,2,2,2,2,0,1,1,0,0,0
302869235,302868183,20740449,41.1790081,-8.6036451,0.30752555,1.7970796,-1.3448814,0.00023569915,-0.0010364398,-6.15716e-05,-0.05891214,-0.14475417,-0.39966848,-0.39893642,0.0054122694,-0.00391737,-0.021185223,3.5101252,0.9925707,1.0653294,0.63001,0.0086743,108.99439,0.4448852,0.33324903,0.31210357,0.14437197,0.09742829,inf,inf,inf,inf,1,1,1,1,2,2,2,2,2,0,1,1,0,0,0
302969483,302968132,20740449,41.1790081,-8.6036451,0.29958913,1.7815369,-1.3875736,0.00023569915,-0.0010364398,-6.15716e-05,-0.0529007,-0.11484698,-0.41105866,-0.41168222,0.0054122694,-0.00391737,-0.021185223,-3.6640794,1.8825738,0.5650714,0.6634174,0.0086743,108.99439,0.48757738,0.32485437,0.30791494,0.1406182,0.095942505,inf,inf,inf,inf,1,1,1,1,2,2,2,2,2,0,1,1,0,0,0
303069090,303068081,20740449,41.1790081,-8.6036451,0.29348093,1.7677549,-1.4318184,0.00023569915,-0.0010364398,-6.15716e-05,-0.016025534,-0.09045199,-0.4245914,-0.42661735,0.0054122694,-0.00391737,-0.021185223,1.6025175,-0.64463097,0.6322556,0.69651175,0.0086743,108.99439,0.53182214,0.33310917,0.3120218,0.14711294,0.09747363,inf,inf,inf,inf,1,1,1,1,2,2,2,2,2,0,1,1,0,0,0
303169742,303168031,20740449,41.1790081,-8.6036451,0.29100955,1.7584004,-1.480035,0.00023569915,-0.0010364398,-6.15716e-05,0.01168608,-0.036778808,-0.42578855,-0.43282896,0.0054122694,-0.00391737,-0.021185223,2.6292572,0.40411046,-0.07505752,0.72825575,0.0086743,108.99439,0.5800387,0.32467636,0.30780846,0.14345434,0.09597114,inf,inf,inf,inf,1,1,1,1,2,2,2,2,2,0,1,1,0,0,0
303269158,303267980,20740449,41.1790081,-8.6036451,0.29042554,1.7507058,-1.5297897,0.00023569915,-0.0010364398,-6.15716e-05,0.053153057,0.0070174015,-0.4183044,-0.43189293,0.0054122694,-0.00391737,-0.021185223,-3.305731,1.4753999,-0.50096226,0.7567684,0.0086743,108.99439,0.62979347,0.33294576,0.31191593,0.15063456,0.09753659,inf,inf,inf,inf,1,1,1,1,2,2,2,2,2,0,1,1,0,0,0
303369134,303367929,20740449,41.1790081,-8.6036451,0.2939436,1.7498869,-1.5825156,0.00023569915,-0.0010364398,-6.15716e-05,0.08952214,0.06252382,-0.41527036,-0.43798488,0.0054122694,-0.00391737,-0.021185223,2.4421897,-0.29713762,-0.370344,0.78251094,0.0086743,108.99439,0.6825194,0.32458344,0.3077307,0.14706661,0.09607842,inf,inf,inf,inf,1,1,1,1,2,2,2,2,2,0,1,1,0,0,0
303468814,303467879,20740449,41.1790081,-8.6036451,0.29931685,1.7531922,-1.6361276,0.00023569915,-0.0010364398,-6.15716e-05,0.10178905,0.10590264,-0.42087477,-0.4520986,0.0054122694,-0.00391737,-0.021185223,0.2375768,1.8178278,1.3834682,0.8035562,0.0086743,108.99439,0.73613137,0.33289075,0.31184167,0.1549468,0.097668864,inf,inf,inf,inf,1,1,1,1,2,2,2,2,2,0,1,1,0,0,0
303568983,303567833,20740449,41.1790081,-8.6036451,0.30658433,1.7600108,-1.6906286,0.00023569915,-0.0010364398,-6.15716e-05,0.08502085,0.12893091,-0.4116695,-0.45059988,0.0054122694,-0.00391737,-0.021185223,-1.8048993,-1.3746387,1.6150504,0.8246602,0.0086743,108.99439,0.7906324,0.32448515,0.3076561,0.15124136,0.09622587,inf,inf,inf,inf,1,1,1,1,2,2,2,2,2,0,1,1,0,0,0
303668788,303667777,20740449,41.1790081,-8.6036451,0.3122382,1.7672399,-1.7423514,0.00023569915,-0.0010364398,-6.15716e-05,0.12104258,0.15180875,-0.42505163,-0.4702755,0.0054122694,-0.00391737,-0.021185223,0.22697645,-0.8502742,0.80888647,0.84283555,0.0086743,108.99439,0.8423552,0.3328496,0.31177112,0.15964171,0.09781048,inf,inf,inf,inf,1,1,1,1,2,2,2,2,2,0,1,1,0,0,0
303768767,303767726,20740449,41.1790081,-8.6036451,0.31897777,1.778786,-1.7966034,0.00023569915,-0.0010364398,-6.15716e-05,0.124559715,0.18185739,-0.43762913,-0.48913574,0.0054122694,-0.00391737,-0.021185223,3.2665298,0.21532196,0.05763199,0.855594,0.0086743,108.99439,0.8966072,0.32438633,0.30757946,0.15553194,0.096325316,inf,inf,inf,inf,1,1,1,1,2,2,2,2,2,0,1,1,0,0,0
303868834,303867676,20740449,41.1790081,-8.6036451,0.32323736,1.792752,-1.8547469,0.00023569915,-0.0010364398,-6.15716e-05,0.08551336,0.21041335,-0.45350438,-0.5132403,0.0054122694,-0.00391737,-0.021185223,-1.2193334,-0.14301415,0.16157891,0.8666885,0.0086743,108.99439,0.9547507,0.33282053,0.311699,0.16447048,0.09792145,inf,inf,inf,inf,1,1,1,1,2,2,2,2,2,0,1,1,0,0,0
303968670,303967625,20740449,41.1790081,-8.6036451,0.32797402,1.8105917,-1.915458,0.00023569915,-0.0010364398,-6.15716e-05,0.09557744,0.23362686,-0.43381697,-0.5024894,0.0054122694,-0.00391737,-0.021185223,0.4874019,2.00703,2.644426,0.8788599,0.0086743,108.99439,1.0154617,0.324295,0.30748972,0.15966068,0.09646448,inf,inf,inf,inf,1,1,1,1,2,2,2,2,2,0,1,1,0,0,0
304068713,304067574,20740449,41.1790081,-8.6036451,0.33733943,1.8315767,-1.9733524,0.00023569915,-0.0010364398,-6.15716e-05,0.08648035,0.25013265,-0.43040618,-0.5064426,0.0054122694,-0.00391737,-0.021185223,0.50709474,-1.4605927,-0.18095134,0.8898968,0.0086743,108.99439,1.0733562,0.3328141,0.31161436,0.16861813,0.09807621,inf,inf,inf,inf,1,1,1,1,2,2,2,2,2,0,1,1,0,0,0
304168608,304167523,20740449,41.1790081,-8.6036451,0.34693798,1.8557225,-2.0327408,0.00023569915,-0.0010364398,-6.15716e-05,0.09497017,0.26374236,-0.43941572,-0.52263176,0.0054122694,-0.00391737,-0.021185223,1.3593538,1.5346028,0.4499229,0.90044945,0.0086743,108.99439,1.1327446,0.32428876,0.30742502,0.16313721,0.09661008,inf,inf,inf,inf,1,1,1,1,2,2,2,2,2,0,1,1,0,0,0
304268478,304267474,20740449,41.1790081,-8.6036451,0.35815927,1.8831254,-2.0875838,0.00023569915,-0.0010364398,-6.15716e-05,0.084779054,0.25420335,-0.42369962,-0.5110683,0.0054122694,-0.00391737,-0.021185223,-3.3044622,-0.8773701,-0.59126157,0.90865034,0.0086743,108.99439,1.1875875,0.3329107,0.31154644,0.17231293,0.098226935,inf,inf,inf,inf,1,1,1,1,2,2,2,2,2,0,1,1,0,0,0
304368427,304367431,20740449,41.1790081,-8.6036451,0.36952224,1.9102706,-2.1457324,0.00023569915,-0.0010364398,-6.15716e-05,0.10429484,0.27647537,-0.4447062,-0.53694654,0.0054122694,-0.00391737,-0.021185223,-1.4876583,-0.44097754,1.1488588,0.91010517,0.0086743,108.99439,1.2457361,0.32431084,0.3073402,0.1659868,0.09671018,inf,inf,inf,inf,1,1,1,1,2,2,2,2,2,0,1,1,0,0,0
304468410,304467371,20740449,41.1790081,-8.6036451,0.37924072,1.9363203,-2.2027473,0.00023569915,-0.0010364398,-6.15716e-05,0.1012917,0.27852637,-0.43342438,-0.52955097,0.0054122694,-0.00391737,-0.021185223,-1.0054746,0.35294554,-3.0526402,0.89599746,0.0086743,108.99439,1.3027511,0.33303785,0.31146783,0.17515065,0.09834335,inf,inf,inf,inf,1,1,1,1,2,2,2,2,2,0,1,1,0,0,0
304568372,304567321,20740449,41.1790081,-8.6036451,0.39033777,1.9635931,-2.2579663,0.00023569915,-0.0010364398,-6.15716e-05,0.115221545,0.28390855,-0.39886612,-0.49717042,0.0054122694,-0.00391737,-0.021185223,0.16175638,2.402254,1.4353718,0.8609553,0.0086743,108.99439,1.35797,0.32424963,0.30721164,0.1678421,0.09681184,inf,inf,inf,inf,1,1,1,1,2,2,2,2,2,0,1,1,0,0,0
304668336,304667270,20740449,41.1790081,-8.6036451,0.40526435,1.9909587,-2.3120685,0.00023569915,-0.0010364398,-6.15716e-05,0.11607753,0.26560208,-0.41120976,-0.5113908,0.0054122694,-0.00391737,-0.021185223,-2.0897965,2.5228386,-1.4307816,0.7937876,0.0086743,108.99439,1.4120722,0.33305773,0.3113445,0.17620319,0.098430045,inf,inf,inf,inf,1,1,1,1,2,2,2,2,2,0,1,1,0,0,0
304768339,304767219,20740449,41.1790081,-8.6036451,0.42119595,2.0183263,-2.365616,0.00023569915,-0.0010364398,-6.15716e-05,0.13275996,0.24241439,-0.4354663,-0.5354124,0.0054122694,-0.00391737,-0.021185223,2.9995182,-1.8664314,2.350375,0.67604506,0.0086743,108.99439,1.4656198,0.3242344,0.30709496,0.16808784,0.096879825,inf,inf,inf,inf,1,1,1,1,2,2,2,2,2,0,1,1,0,0,0
304868274,304867168,20740449,41.1790081,-8.6036451,0.43694603,2.0468283,-2.4208632,0.00023569915,-0.0010364398,-6.15716e-05,0.11936097,0.19728057,-0.46466398,-0.56385154,0.0054122694,-0.00391737,-0.021185223,3.232995,-7.5065775,-3.0533364,0.5180346,0.0086743,108.99439,1.5208669,0.3331158,0.31123346,0.17519586,0.09845533,inf,inf,inf,inf,1,1,1,1,2,2,2,2,2,0,1,1,0,0,0
304968336,304967118,20740449,41.1790081,-8.6036451,0.44952247,2.070759,-2.4760816,0.00023569915,-0.0010364398,-6.15716e-05,0.06222402,0.18342619,-0.44036588,-0.537924,0.0054122694,-0.00391737,-0.021185223,-3.3454638,0.07388307,5.2904406,0.33831552,0.0086743,108.99439,1.5760853,0.32418728,0.3069599,0.16529468,0.09683509,inf,inf,inf,inf,1,1,1,1,2,2,2,2,2,0,1,1,0,0,0
305068259,305067068,20740449,41.1790081,-8.6036451,0.45868683,2.0879602,-2.525339,0.00023569915,-0.0010364398,-6.15716e-05,0.005340497,0.15581265,-0.43515012,-0.52669716,0.0054122694,-0.00391737,-0.021185223,-2.16746,2.7727118,1.6227305,0.14046043,0.0086743,108.99439,1.6253426,0.3330767,0.31110176,0.16936421,0.09844548,inf,inf,inf,inf,1,1,1,1,2,2,2,2,2,0,1,1,0,0,0
305168085,305167017,20740449,41.1790081,-8.6036451,0.46075836,2.099075,-2.5727093,0.00023569915,-0.0010364398,-6.15716e-05,-0.08924225,0.09237713,-0.46580893,-0.5503269,0.0054122694,-0.00391737,-0.021185223,-1.9095734,-2.0597253,-0.83962435,-0.07026846,0.0086743,108.99439,1.672713,0.3242684,0.3068712,0.15812832,0.096937455,inf,inf,inf,inf,1,1,1,1,2,2,2,2,2,0,1,1,0,0,0
305268080,305266965,20740449,41.1790081,-8.6036451,0.45740074,2.102328,-2.6193442,0.00023569915,-0.0010364398,-6.15716e-05,-0.15752253,0.029840568,-0.4733302,-0.5500764,0.0054122694,-0.00391737,-0.021185223,2.2939348,-1.5660751,-3.1384299,0.18938082,0.48543033,108.99439,1.719348,0.33307412,0.31101862,0.15970883,0.09853681,inf,inf,inf,inf,1,1,1,1,2,2,2,2,3,0,1,1,0,0,0
305367923,305366915,20740449,41.1790081,-8.6036451,0.44733658,2.0981014,-2.6691692,0.00023569915,-0.0010364398,-6.15716e-05,-0.22714613,-0.045079503,-0.5346439,-0.6032638,0.0054122694,-0.00391737,-0.021185223,1.4582087,-2.885989,-1.0656881,-0.03295644,0.48543033,108.99439,1.7691729,0.32445198,0.30679035,0.15024726,0.09706505,inf,inf,inf,inf,1,1,1,1,2,2,2,2,3,0,1,1,0,0,0
305467936,305466864,20740449,41.1790081,-8.6036451,0.43188584,2.0895708,-2.726629,0.00023569915,-0.0010364398,-6.15716e-05,-0.298512,-0.08155091,-0.6355698,-0.69585776,0.0054122694,-0.00391737,-0.021185223,-1.9311637,-4.5724325,-1.1380103,-0.17611296,0.48543033,108.99439,1.8266327,0.332945,0.31094596,0.15471265,0.09871622,inf,inf,inf,inf,1,1,1,1,2,2,2,2,3,0,1,1,0,0,0
305567748,305566813,20740449,41.1790081,-8.6036451,0.40696207,2.0793815,-2.7935693,0.00023569915,-0.0010364398,-6.15716e-05,-0.3542502,-0.09315708,-0.6798426,-0.73463196,0.0054122694,-0.00391737,-0.021185223,-2.746826,2.003573,0.42566487,-0.26485118,0.48543033,108.99439,1.893573,0.32445675,0.30667618,0.14933105,0.09721625,inf,inf,inf,inf,1,1,1,1,2,2,2,2,3,0,1,1,0,0,0
305667758,305666763,20740449,41.1790081,-8.6036451,0.37257478,2.0717993,-2.861304,0.00023569915,-0.0010364398,-6.15716e-05,-0.3905171,-0.105762504,-0.68302196,-0.7319309,0.0054122694,-0.00391737,-0.021185223,-0.58636385,1.2436877,0.21277893,-0.32242537,0.48543033,108.99439,1.9613078,0.33259293,0.31083864,0.15681301,0.09882195,inf,inf,inf,inf,1,1,1,1,2,2,2,2,3,0,1,1,0,0,0
305767704,305766712,20740449,41.1790081,-8.6036451,0.3344583,2.0635352,-2.9300508,0.00023569915,-0.0010364398,-6.15716e-05,-0.3994795,-0.1248321,-0.68269455,-0.72718924,0.0054122694,-0.00391737,-0.021185223,2.0272276,-1.1019175,0.4124627,-0.36386734,0.48543033,108.99439,2.0300546,0.324274,0.3065616,0.15322262,0.09726278,inf,inf,inf,inf,1,1,1,1,2,2,2,2,3,0,1,1,0,0,0
305867719,305866663,20740449,41.1790081,-8.6036451,0.29263765,2.0577462,-2.9937947,0.00023569915,-0.0010364398,-6.15716e-05,-0.4285561,-0.15044989,-0.6526961,-0.69035846,0.0054122694,-0.00391737,-0.021185223,0.20926599,4.125789,1.1699617,-0.4435118,0.48543033,108.99439,2.0937984,0.3321152,0.3107289,0.16291153,0.09880274,inf,inf,inf,inf,1,1,1,1,2,2,2,2,3,0,1,1,0,0,0
305967609,305966611,20740449,41.1790081,-8.6036451,0.24696136,2.0502064,-3.0568397,0.00023569915,-0.0010364398,-6.15716e-05,-0.43044126,-0.18309012,-0.6812171,-0.7127511,0.0054122694,-0.00391737,-0.021185223,2.6720061,-0.744459,-4.5306716,-0.58382535,0.48543033,108.99439,2.1568434,0.3239489,0.3064868,0.16048539,0.09721897,inf,inf,inf,inf,1,1,1,1,2,2,2,2,3,0,1,1,0,0,0
306067678,306066560,20740449,41.1790081,-8.6036451,0.19670488,2.0473354,-3.124431,0.00023569915,-0.0010364398,-6.15716e-05,-0.4247969,-0.1743574,-0.7566891,-0.7822112,0.0054122694,-0.00391737,-0.021185223,1.4908423,-1.282836,-0.61843336,-0.7323848,0.48543033,108.99439,2.2244346,0.3316142,0.31064692,0.17235117,0.098731376,inf,inf,inf,inf,1,1,1,1,2,2,2,2,3,0,1,1,0,0,0
306167480,306166510,20740449,41.1790081,-8.6036451,0.14780697,2.0416076,-3.205805,0.00023569915,-0.0010364398,-6.15716e-05,-0.39470336,-0.1590418,-0.9255836,-0.9455335,0.0054122694,-0.00391737,-0.021185223,1.6273699,3.4570475,-0.28757718,-0.82168186,0.48543033,108.99439,2.3058088,0.3234863,0.3063679,0.16875021,0.09708288,inf,inf,inf,inf,1,1,1,1,2,2,2,2,3,0,1,1,0,0,0
306267473,306266459,20740449,41.1790081,-8.6036451,0.09271081,2.0321832,-3.296267,0.00023569915,-0.0010364398,-6.15716e-05,-0.38170514,-0.13823536,-0.9781943,-0.990532,0.0054122694,-0.00391737,-0.021185223,3.4870074,2.1776395,-0.2581729,-0.8766758,0.48543033,108.99439,2.3962708,0.3310668,0.3105261,0.1818366,0.09855463,inf,inf,inf,inf,1,1,1,1,2,2,2,2,3,1,1,1,0,0,0
306368117,306366409,20740449,41.1790081,-8.6036451,0.040638156,2.025794,-3.3879597,0.00023569915,-0.0010364398,-6.15716e-05,-0.3859901,-0.08476442,-0.937898,-0.9439886,0.0054122694,-0.00391737,-0.021185223,-2.2378166,-0.05647259,0.7535818,-0.9130923,0.48543033,108.99439,2.4879634,0.32294223,0.3062102,0.17621896,0.096867405,inf,inf,inf,inf,1,1,1,1,2,2,2,2,3,1,1,1,0,0,0
306467326,306466358,20740449,41.1790081,-8.6036451,-0.01727892,2.0271237,-3.4689708,0.00023569915,-0.0010364398,-6.15716e-05,-0.36360306,-0.045228746,-0.8926,-0.8877554,0.0054122694,-0.00391737,-0.021185223,-0.7555362,-1.5878645,0.7566385,-0.93859106,0.48543033,108.99439,2.5689745,0.33051497,0.31036243,0.18837763,0.09832683,inf,inf,inf,inf,1,1,1,1,2,2,2,2,3,1,1,1,0,0,0
306567496,306566311,20740449,41.1790081,-8.6036451,-0.067935795,2.0314593,-3.5491107,0.00023569915,-0.0010364398,-6.15716e-05,-0.32691106,-0.00041200727,-0.8794392,-0.86702406,0.0054122694,-0.00391737,-0.021185223,-1.0127631,-2.4225135,0.49147144,-0.9579141,0.48543033,108.99439,2.6491144,0.32243946,0.30605978,0.1811907,0.096668296,inf,inf,inf,inf,1,1,1,1,2,2,2,2,3,1,1,1,0,0,0
306667365,306666256,20740449,41.1790081,-8.6036451,-0.11035925,2.038054,-3.6236198,0.00023569915,-0.0010364398,-6.15716e-05,-0.26500884,0.053176746,-0.77538157,-0.75648725,0.0054122694,-0.00391737,-0.021185223,2.9317753,1.7193575,1.6830178,-0.9711645,0.48543033,108.99439,2.7236235,0.33009177,0.31020513,0.19415434,0.09814047,inf,inf,inf,inf,1,1,1,1,2,2,2,2,3,1,1,1,0,0,0
306767320,306766205,20740449,41.1790081,-8.6036451,-0.14936052,2.0434988,-3.6860387,0.00023569915,-0.0010364398,-6.15716e-05,-0.23851296,0.075663015,-0.5796573,-0.5568468,0.0054122694,-0.00391737,-0.021185223,0.9619522,0.035458833,3.2931485,-0.98428684,0.48543033,108.99439,2.7860425,0.3220106,0.3059154,0.18580586,0.09656599,inf,inf,inf,inf,1,1,1,1,2,2,2,2,3,1,1,1,0,0,0
306867475,306866155,20740449,41.1790081,-8.6036451,-0.18950582,2.0437462,-3.7242022,0.00023569915,-0.0010364398,-6.15716e-05,-0.19688822,0.08934399,-0.30325252,-0.27784064,0.0054122694,-0.00391737,-0.021185223,3.011133,2.0636585,1.1938123,-0.99753046,0.48543033,108.99439,2.8242059,0.32981145,0.31005636,0.19757383,0.0980876,inf,inf,inf,inf,1,1,1,1,2,2,2,2,3,1,1,1,0,0,0
306967989,306966104,20740449,41.1790081,-8.6036451,-0.22242768,2.0465,-3.7368073,0.00023569915,-0.0010364398,-6.15716e-05,-0.1706887,0.11296864,-0.028664794,-0.0035884925,0.0054122694,-0.00391737,-0.021185223,-1.7204357,2.12362,3.4140491,-1.0059022,0.48543033,108.99439,2.836811,0.32155645,0.30568954,0.18677008,0.09652423,inf,inf,inf,inf,1,1,1,1,2,2,2,2,3,1,1,1,0,0,0
307067251,307066056,20740449,41.1790081,-8.6036451,-0.24842034,2.0498726,-3.7379928,0.00023569915,-0.0010364398,-6.15716e-05,-0.10793998,0.11723868,0.10850664,0.12406031,0.0054122694,-0.00391737,-0.021185223,1.8279083,1.2514524,2.0708091,-1.0131998,0.48543033,108.99439,2.8379965,0.32947743,0.3098254,0.19786781,0.0980779,inf,inf,inf,inf,1,1,1,1,2,2,2,2,3,1,1,1,0,0,0
307167119,307166002,20740449,41.1790081,-8.6036451,-0.2664739,2.0550027,-3.730973,0.00023569915,-0.0010364398,-6.15716e-05,-0.065995425,0.14139548,0.1433774,0.14987937,0.0054122694,-0.00391737,-0.021185223,-3.162602,-1.085984,-0.57155293,-1.017758,0.48543033,108.99439,2.8309767,0.32116032,0.3054683,0.18790981,0.096570574,inf,inf,inf,inf,1,1,1,1,2,2,2,2,3,1,1,1,0,0,0
307267164,307265952,20740449,41.1790081,-8.6036451,-0.2794754,2.0574915,-3.7320938,0.00023569915,-0.0010364398,-6.15716e-05,0.006170722,0.1582062,0.09839255,0.09084076,0.0054122694,-0.00391737,-0.021185223,1.9583638,2.84997,1.3424444,-1.0194385,0.48543033,108.99439,2.8320975,0.32925764,0.30960363,0.20041631,0.09816459,inf,inf,inf,inf,1,1,1,1,2,2,2,2,3,1,1,1,0,0,0
307367021,307365901,20740449,41.1790081,-8.6036451,-0.28360638,2.0620983,-3.7375264,0.00023569915,-0.0010364398,-6.15716e-05,0.054818925,0.15246356,0.024389256,0.0070452644,0.0054122694,-0.00391737,-0.021185223,-1.2468178,-2.6730726,1.3728362,-1.0191431,0.48543033,108.99439,2.8375301,0.32077557,0.3052302,0.1904948,0.09667857,inf,inf,inf,inf,1,1,1,1,2,2,2,2,3,1,1,1,0,0,0
307466906,307465851,20740449,41.1790081,-8.6036451,-0.2809652,2.0644298,-3.7447674,0.00023569915,-0.0010364398,-6.15716e-05,0.11542379,0.1889957,-0.018660503,-0.043077238,0.0054122694,-0.00391737,-0.021185223,0.00093600305,1.3164544,-2.9241607,-1.0194731,0.48543033,108.99439,2.8447711,0.3290991,0.3093694,0.2030508,0.09829266,inf,inf,inf,inf,1,1,1,1,2,2,2,2,3,1,1,1,0,0,0
307566808,307565800,20740449,41.1790081,-8.6036451,-0.27091327,2.067426,-3.7591605,0.00023569915,-0.0010364398,-6.15716e-05,0.1723666,0.19119464,-0.147662,-0.17649013,0.0054122694,-0.00391737,-0.021185223,1.4969049,-0.023142513,-3.748805,-1.0156634,0.48543033,108.99439,2.8591642,0.32053354,0.305008,0.19215748,0.096827455,inf,inf,inf,inf,1,1,1,1,2,2,2,2,3,1,1,1,0,0,0
307666702,307665749,20740449,41.1790081,-8.6036451,-0.25423184,2.06599,-3.786168,0.00023569915,-0.0010364398,-6.15716e-05,0.22027758,0.18291359,-0.25873032,-0.2904529,0.0054122694,-0.00391737,-0.021185223,2.209452,1.2294883,0.94242686,-1.0138695,0.48543033,108.99439,2.8861718,0.32910073,0.30915555,0.20453079,0.098457016,inf,inf,inf,inf,1,1,1,1,2,2,2,2,3,1,1,1,0,0,0
307766860,307765699,20740449,41.1790081,-8.6036451,-0.23228195,2.0670443,-3.818472,0.00023569915,-0.0010364398,-6.15716e-05,0.24109861,0.18129495,-0.25849324,-0.29217616,0.0054122694,-0.00391737,-0.021185223,-1.1816263,-1.9756678,-0.55733204,-1.0111581,0.48543033,108.99439,2.9184756,0.32025346,0.3047462,0.19219215,0.09695801,inf,inf,inf,inf,1,1,1,1,2,2,2,2,3,1,1,1,0,0,0
307866664,307865648,20740449,41.1790081,-8.6036451,-0.20579597,2.0649915,-3.844768,0.00023569915,-0.0010364398,-6.15716e-05,0.26231152,0.19560365,-0.22903784,-0.26063728,0.0054122694,-0.00391737,-0.021185223,-0.06796324,2.1777062,-0.57035714,-1.0123073,0.48543033,108.99439,2.9447718,0.3290186,0.30889288,0.20251378,0.09858964,inf,inf,inf,inf,1,1,1,1,2,2,2,2,3,1,1,1,0,0,0
307967598,307965597,20740449,41.1790081,-8.6036451,-0.17558151,2.0644467,-3.871891,0.00023569915,-0.0010364398,-6.15716e-05,0.29011413,0.18319303,-0.21910144,-0.25024894,0.0054122694,-0.00391737,-0.021185223,2.0088205,2.6516836,2.8267624,-1.0126125,0.48543033,108.99439,2.9718947,0.3200993,0.3044928,0.18960373,0.0970987,inf,inf,inf,inf,1,1,1,1,2,2,2,2,3,1,1,1,0,0,0
308066618,308065547,20740449,41.1790081,-8.6036451,-0.14170328,2.06245,-3.8986979,0.00023569915,-0.0010364398,-6.15716e-05,0.28612846,0.1632197,-0.24503827,-0.2758551,0.0054122694,-0.00391737,-0.021185223,-0.6130284,-2.8533344,0.9144423,-1.0103478,0.48543033,108.99439,2.9987016,0.32902163,0.308651,0.19920506,0.09873477,inf,inf,inf,inf,1,1,1,1,2,2,2,2,3,1,1,1,0,0,0
308166673,308165496,20740449,41.1790081,-8.6036451,-0.10796156,2.0624142,-3.9276206,0.00023569915,-0.0010364398,-6.15716e-05,0.2812652,0.17752764,-0.2564194,-0.28855446,0.0054122694,-0.00391737,-0.021185223,-2.0548425,1.6210133,-1.1004509,-1.0073929,0.48543033,108.99439,3.0276244,0.31989563,0.3042206,0.18606968,0.09721186,inf,inf,inf,inf,1,1,1,1,2,2,2,2,3,1,1,1,0,0,0
308267357,308265446,20740449,41.1790081,-8.6036451,-0.07475879,2.057326,-3.9556572,0.00023569915,-0.0010364398,-6.15716e-05,0.29355147,0.17702077,-0.2400961,-0.27289206,0.0054122694,-0.00391737,-0.021185223,1.8038095,1.3311298,0.57383096,-1.007459,0.48543033,108.99439,3.055661,0.32892016,0.3083898,0.19497803,0.09884794,inf,inf,inf,inf,1,1,1,1,2,2,2,2,3,1,1,1,0,0,0
308366537,308365395,20740449,41.1790081,-8.6036451,-0.041444037,2.0558887,-3.9844074,0.00023569915,-0.0010364398,-6.15716e-05,0.26753047,0.17616977,-0.21224283,-0.24635617,0.0054122694,-0.00391737,-0.021185223,-3.2347398,-0.13898806,1.887472,-1.0053868,0.48543033,108.99439,3.0844111,0.31976417,0.30398425,0.1828737,0.0973342,inf,inf,inf,inf,1,1,1,1,2,2,2,2,3,1,1,1,0,0,0
308466490,308465344,20740449,41.1790081,-8.6036451,-0.005029883,2.0557528,-4.010664,0.00023569915,-0.0010364398,-6.15716e-05,0.29261476,0.18934599,-0.19413659,-0.2292675,0.0054122694,-0.00391737,-0.021185223,2.6218178,2.644983,0.4757703,-1.0038856,0.48543033,108.99439,3.1106677,0.328874,0.3081663,0.19093205,0.098979965,inf,inf,inf,inf,1,1,1,1,2,2,2,2,3,1,1,1,0,0,0
308567139,308565293,20740449,41.1790081,-8.6036451,0.030163623,2.059236,-4.0367956,0.00023569915,-0.0010364398,-6.15716e-05,0.26659134,0.19438441,-0.1986317,-0.23571752,0.0054122694,-0.00391737,-0.021185223,-3.6807694,0.61795646,-0.42792907,-1.0003066,0.48543033,108.99439,3.1367993,0.31963333,0.303755,0.17954502,0.09745776,inf,inf,inf,inf,1,1,1,1,2,2,2,2,3,1,1,1,0,0,0
308666380,308665243,20740449,41.1790081,-8.6036451,0.06490527,2.0636926,-4.062258,0.00023569915,-0.0010364398,-6.15716e-05,0.2553642,0.21728328,-0.20580918,-0.242787,0.0054122694,-0.00391737,-0.021185223,1.8677152,3.0407753,2.2959666,-0.9978277,0.48543033,108.99439,3.1622615,0.32879704,0.30795014,0.18742119,0.099106975,inf,inf,inf,inf,1,1,1,1,2,2,2,2,3,1,1,1,0,0,0
308766401,308765192,20740449,41.1790081,-8.6036451,0.098556794,2.074078,-4.088045,0.00023569915,-0.0010364398,-6.15716e-05,0.23150317,0.22661786,-0.23188809,-0.2690863,0.0054122694,-0.00391737,-0.021185223,-2.5903049,-1.0022284,-1.2392088,-0.9957067,0.48543033,108.99439,3.1880488,0.31951165,0.30353817,0.17658047,0.09757926,inf,inf,inf,inf,1,1,1,1,2,2,2,2,3,1,1,1,0,0,0
308866967,308865142,20740449,41.1790081,-8.6036451,0.13334613,2.087965,-4.1120276,0.00023569915,-0.0010364398,-6.15716e-05,0.23897947,0.23750879,-0.15487584,-0.19278182,0.0054122694,-0.00391737,-0.021185223,1.3018385,-0.5027516,1.6912198,-0.9957898,0.48543033,108.99439,3.2120314,0.32871273,0.3077467,0.18431024,0.09922736,inf,inf,inf,inf,1,1,1,1,2,2,2,2,3,1,1,1,0,0,0
308966226,308965091,20740449,41.1790081,-8.6036451,0.1659147,2.1049798,-4.1307535,0.00023569915,-0.0010364398,-6.15716e-05,0.20968635,0.24369435,-0.06091176,-0.10264995,0.0054122694,-0.00391737,-0.021185223,-2.3673275,-1.358011,1.5861514,-0.9999986,0.48543033,108.99439,3.2307572,0.31935668,0.30330503,0.17341249,0.097669035,inf,inf,inf,inf,1,1,1,1,2,2,2,2,3,1,1,1,0,0,0
309066186,309065040,20740449,41.1790081,-8.6036451,0.19917962,2.1202872,-4.139104,0.00023569915,-0.0010364398,-6.15716e-05,0.20884065,0.25691548,0.043291043,-0.0010015327,0.0054122694,-0.00391737,-0.021185223,-1.1253779,1.2289511,-0.5507101,-1.0021198,0.48543033,108.99439,3.2391076,0.3285476,0.30752546,0.18037584,0.099327885,inf,inf,inf,inf,1,1,1,1,2,2,2,2,3,1,1,1,0,0,0
309166370,309164989,20740449,41.1790081,-8.6036451,0.23017046,2.1389582,-4.136191,0.00023569915,-0.0010364398,-6.15716e-05,0.20976934,0.26741937,0.1262669,0.08057195,0.0054122694,-0.00391737,-0.021185223,1.8353473,2.793495,0.3905732,-1.0051355,0.48543033,108.99439,3.2361946,0.3192036,0.30307668,0.16996382,0.097766206,inf,inf,inf,inf,1,1,1,1,2,2,2,2,3,1,1,1,0,0,0
309266099,309264939,20740449,41.1790081,-8.6036451,0.2616267,2.1589074,-4.132438,0.00023569915,-0.0010364398,-6.15716e-05,0.18300056,0.25495183,0.048672177,0.0028448796,0.0054122694,-0.00391737,-0.021185223,-1.1555558,-0.021327002,-1.3232336,-1.0089434,0.48543033,108.99439,3.232442,0.32836816,0.3073092,0.17657223,0.09941242,inf,inf,inf,inf,1,1,1,1,2,2,2,2,3,1,1,1,0,0,0
309366125,309364888,20740449,41.1790081,-8.6036451,0.28918213,2.1808674,-4.132249,0.00023569915,-0.0010364398,-6.15716e-05,0.16400756,0.2264813,0.029064016,-0.016183034,0.0054122694,-0.00391737,-0.021185223,-0.7655241,-2.9546213,0.052265096,-1.0101537,0.48543033,108.99439,3.2322526,0.31899825,0.30285928,0.16716379,0.097846806,inf,inf,inf,inf,1,1,1,1,2,2,2,2,3,1,1,1,0,0,0
309466138,309464839,20740449,41.1790081,-8.6036451,0.3154313,2.2055533,-4.130258,0.00023569915,-0.0010364398,-6.15716e-05,0.13963564,0.23457558,0.015772348,-0.025873596,0.0054122694,-0.00391737,-0.021185223,1.4035268,2.5439847,-0.06272939,-1.0120058,0.48543033,108.99439,3.2302618,0.32815525,0.30710375,0.17363071,0.0994906,inf,inf,inf,inf,1,1,1,1,2,2,2,2,3,1,1,1,0,0,0
309565938,309564787,20740449,41.1790081,-8.6036451,0.33679348,2.2313294,-4.1307,0.00023569915,-0.0010364398,-6.15716e-05,0.09333736,0.22656491,-0.017905356,-0.05647949,0.0054122694,-0.00391737,-0.021185223,-3.2067425,-1.1505489,-1.8543149,-1.0127795,0.48543033,108.99439,3.2307038,0.3188006,0.30377993,0.16457199,0.09807383,inf,inf,inf,inf,1,1,1,1,2,2,2,2,3,1,1,1,0,0,0
309665798,309664737,20740449,41.1790081,-8.6036451,0.35547838,2.2593596,-4.131433,0.00023569915,-0.0010364398,-6.15716e-05,0.08707065,0.22008719,-0.03729196,-0.07109072,0.0054122694,-0.00391737,-0.021185223,1.6456385,1.0146301,-0.11244831,-1.011738,0.48543033,108.99439,3.2314367,0.3279405,0.30807474,0.17118795,0.099741526,inf,inf,inf,inf,1,1,1,1,2,2,2,2,3,1,1,1,0,0,0
309765855,309764686,20740449,41.1790081,-8.6036451,0.37041438,2.2871852,-4.1358676,0.00023569915,-0.0010364398,-6.15716e-05,0.062361386,0.20669052,-0.03740845,-0.06977524,0.0054122694,-0.00391737,-0.021185223,0.34345403,-0.6281939,-2.7644653,-1.0067989,0.48543033,108.99439,3.2358713,0.3186001,0.3035664,0.1622923,0.09813735,inf,inf,inf,inf,1,1,1,1,2,2,2,2,3,1,1,1,0,0,0
309865831,309864635,20740449,41.1790081,-8.6036451,0.38489905,2.317934,-4.1372313,0.00023569915,-0.0010364398,-6.15716e-05,0.040206492,0.16667156,-0.005368393,-0.034567613,0.0054122694,-0.00391737,-0.021185223,0.66711676,-3.4764774,0.081588805,-1.0054282,0.48543033,108.99439,3.237235,0.32771626,0.30787238,0.16843785,0.09979884,inf,inf,inf,inf,1,1,1,1,2,2,2,2,3,1,1,1,0,0,0
309965708,309964585,20740449,41.1790081,-8.6036451,0.3961238,2.3450303,-4.139356,0.00023569915,-0.0010364398,-6.15716e-05,0.031982172,0.1559794,-0.01718321,-0.04559825,0.0054122694,-0.00391737,-0.021185223,0.77232045,2.3495615,-1.0201432,-1.0055897,0.48543033,108.99439,3.2393599,0.31838378,0.30336133,0.15993589,0.09819496,inf,inf,inf,inf,1,1,1,1,2,2,2,2,3,1,1,1,0,0,0
310065724,310064534,20740449,41.1790081,-8.6036451,0.40590286,2.3717158,-4.144423,0.00023569915,-0.0010364398,-6.15716e-05,0.012894331,0.11670057,-0.10057582,-0.1255748,0.0054122694,-0.00391737,-0.021185223,1.8955927,1.1905843,-0.056524914,-1.0057237,0.48543033,108.99439,3.2444267,0.3274628,0.30767825,0.16576256,0.09985486,inf,inf,inf,inf,1,1,1,1,2,2,2,2,3,1,1,1,0,0,0
310165537,310164483,20740449,41.1790081,-8.6036451,0.41288096,2.394154,-4.154514,0.00023569915,-0.0010364398,-6.15716e-05,0.009303948,0.10903674,-0.12284563,-0.14314562,0.0054122694,-0.00391737,-0.021185223,0.8827594,3.9814024,1.9495703,-1.0032972,0.48543033,108.99439,3.2545176,0.31815073,0.30317014,0.15787932,0.098252386,inf,inf,inf,inf,1,1,1,1,2,2,2,2,3,1,1,1,0,0,0
310265429,310264433,20740449,41.1790081,-8.6036451,0.41723496,2.4186654,-4.1587133,0.00023569915,-0.0010364398,-6.15716e-05,-0.018564455,0.069060564,-0.13353762,-0.14378741,0.0054122694,-0.00391737,-0.021185223,-2.120711,-2.5778205,-3.1300564,-1.0031509,0.48543033,108.99439,3.258717,0.3272052,0.3074979,0.16354834,0.09990699,inf,inf,inf,inf,1,1,1,1,2,2,2,2,3,1,1,1,0,0,0
310375548,310374377,20740449,41.1790081,-8.6036451,0.4164692,2.4420319,-4.1620226,0.00023569915,-0.0010364398,-6.15716e-05,-0.04034366,0.0319149,-0.08899723,-0.090016946,0.0054122694,-0.00391737,-0.021185223,-0.061543673,-3.9528491,-0.67204034,-1.004731,0.48543033,108.99439,3.2620263,0.31885317,0.30254725,0.1564739,0.0983438,inf,inf,inf,inf,1,1,1,1,2,2,2,2,3,1,1,1,0,0,0
310465329,310464332,20740449,41.1790081,-8.6036451,0.41167447,2.4609368,-4.1623087,0.00023569915,-0.0010364398,-6.15716e-05,-0.06951944,0.024624545,-0.098888636,-0.09243946,0.0054122694,-0.00391737,-0.021185223,-2.9337204,0.19377115,-1.1622267,-1.0090268,0.48543033,108.99439,3.2623124,0.32700405,0.30735993,0.1616143,0.099981,inf,inf,inf,inf,1,1,1,1,2,2,2,2,3,1,1,1,0,0,0
310565290,310564281,20740449,41.1790081,-8.6036451,0.40334594,2.4764645,-4.1646795,0.00023569915,-0.0010364398,-6.15716e-05,-0.07296934,-0.010017871,-0.07308124,-0.061558917,0.0054122694,-0.00391737,-0.021185223,1.9370233,-1.3190947,1.5286777,-1.0103517,0.48543033,108.99439,3.2646832,0.3177277,0.3028518,0.15405966,0.09836741,inf,inf,inf,inf,1,1,1,1,2,2,2,2,3,1,1,1,0,0,0
310665345,310664230,20740449,41.1790081,-8.6036451,0.3907009,2.491103,-4.1652255,0.00023569915,-0.0010364398,-6.15716e-05,-0.07352936,-0.02649209,-0.09336761,-0.07628762,0.0054122694,-0.00391737,-0.021185223,-0.0046807686,0.15701827,-2.3890128,-1.0112808,0.48543033,108.99439,3.2652292,0.32670325,0.30720168,0.1593755,0.10002741,inf,inf,inf,inf,1,1,1,1,2,2,2,2,3,1,1,1,0,0,0
310765267,310764180,20740449,41.1790081,-8.6036451,0.377114,2.5008159,-4.1685143,0.00023569915,-0.0010364398,-6.15716e-05,-0.08742993,-0.07198689,-0.09505114,-0.07508469,0.0054122694,-0.00391737,-0.021185223,-2.0764892,-2.058221,-0.4501297,-1.0137748,0.48543033,108.99439,3.268518,0.31749046,0.3026937,0.15205286,0.09839683,inf,inf,inf,inf,1,1,1,1,2,2,2,2,3,1,1,1,0,0,0
310865431,310864129,20740449,41.1790081,-8.6036451,0.3602125,2.511157,-4.1724224,0.00023569915,-0.0010364398,-6.15716e-05,-0.08249497,-0.07093831,-0.07384922,-0.051295266,0.0054122694,-0.00391737,-0.021185223,2.695555,1.4334433,1.612142,-1.0181943,0.48543033,108.99439,3.2724261,0.32642117,0.30705342,0.15746193,0.100060515,inf,inf,inf,inf,1,1,1,1,2,2,2,2,3,1,1,1,0,0,0
310965143,310964078,20740449,41.1790081,-8.6036451,0.3446235,2.5169563,-4.1787233,0.00023569915,-0.0010364398,-6.15716e-05,-0.07384978,-0.09732582,-0.10988466,-0.086315855,0.0054122694,-0.00391737,-0.021185223,0.84797025,1.2089515,-2.4651127,-1.0192686,0.48543033,108.99439,3.278727,0.31724805,0.30254453,0.1501989,0.09842766,inf,inf,inf,inf,1,1,1,1,2,2,2,2,3,1,1,1,0,0,0
311075166,311074023,20740449,41.1790081,-8.6036451,0.3270012,2.523372,-4.185377,0.00023569915,-0.0010364398,-6.15716e-05,-0.087344974,-0.13336806,-0.12430174,-0.09819815,0.0054122694,-0.00391737,-0.021185223,-2.0749516,-2.4484222,0.123312324,-1.0194054,0.48543033,108.99439,3.2853808,0.32705823,0.30641776,0.15583245,0.10010309,inf,inf,inf,inf,1,1,1,1,2,2,2,2,3,1,1,1,0,0,0
311165046,311163977,20740449,41.1790081,-8.6036451,0.31276736,2.5236523,-4.1940126,0.00023569915,-0.0010364398,-6.15716e-05,-0.06736661,-0.15112545,-0.12167911,-0.09616995,0.0054122694,-0.00391737,-0.021185223,1.520971,1.2284883,0.49527124,-1.0215403,0.48543033,108.99439,3.2940164,0.31699738,0.3024033,0.14867388,0.098451175,inf,inf,inf,inf,1,1,1,1,2,2,2,2,3,1,1,1,0,0,0
311275202,311273922,20740449,41.1790081,-8.6036451,0.29057515,2.5223124,-4.2023125,0.00023569915,-0.0010364398,-6.15716e-05,-0.07428345,-0.17290205,-0.10217898,-0.07629141,0.0054122694,-0.00391737,-0.021185223,-0.6895674,-1.7347281,0.0883171,-1.023037,0.48543033,108.99439,3.3023162,0.32675746,0.30628747,0.1541316,0.10012828,inf,inf,inf,inf,1,1,1,1,2,2,2,2,3,1,1,1,0,0,0
311364987,311363876,20740449,41.1790081,-8.6036451,0.27451244,2.5183032,-4.209597,0.00023569915,-0.0010364398,-6.15716e-05,-0.0526043,-0.16567104,-0.121576175,-0.095968656,0.0054122694,-0.00391737,-0.021185223,1.3545976,1.9445268,1.3948486,-1.024786,0.48543033,108.99439,3.3096008,0.3167408,0.30226398,0.1470924,0.09846573,inf,inf,inf,inf,1,1,1,1,2,2,2,2,3,1,1,1,0,0,0
311464886,311463825,20740449,41.1790081,-8.6036451,0.2546745,2.5135589,-4.218862,0.00023569915,-0.0010364398,-6.15716e-05,-0.058353357,-0.16756791,-0.14944628,-0.123326376,0.0054122694,-0.00391737,-0.021185223,-3.1673996,-1.0335253,-1.5875462,-1.027657,0.48543033,108.99439,3.3188658,0.32553446,0.30664045,0.15185715,0.10011377,inf,inf,inf,inf,1,1,1,1,2,2,2,2,3,1,1,1,0,0,0
311564941,311563775,20740449,41.1790081,-8.6036451,0.23719648,2.50693,-4.2300167,0.00023569915,-0.0010364398,-6.15716e-05,-0.031604975,-0.16104794,-0.109837726,-0.085701466,0.0054122694,-0.00391737,-0.021185223,1.6236749,-0.7699277,-0.084289506,-1.0278997,0.48543033,108.99439,3.3300204,0.31647336,0.30211043,0.14550237,0.098473355,inf,inf,inf,inf,1,1,1,1,2,2,2,2,3,1,1,1,0,0,0
311664761,311663724,20740449,41.1790081,-8.6036451,0.2164848,2.5000646,-4.2352633,0.00023569915,-0.0010364398,-6.15716e-05,-0.016037432,-0.16333356,-0.056495283,-0.03326627,0.0054122694,-0.00391737,-0.021185223,0.5903157,1.6477767,1.289892,-1.0274035,0.48543033,108.99439,3.335267,0.3252202,0.30649468,0.15011376,0.10012224,inf,inf,inf,inf,1,1,1,1,2,2,2,2,3,1,1,1,0,0,0
311764710,311763674,20740449,41.1790081,-8.6036451,0.20079891,2.489739,-4.239131,0.00023569915,-0.0010364398,-6.15716e-05,-0.003483524,-0.19135988,-0.059592877,-0.03745842,0.0054122694,-0.00391737,-0.021185223,-1.7581205,-2.0058959,-2.4555187,-1.0285618,0.48543033,108.99439,3.3391347,0.31620708,0.30195695,0.14383365,0.09846409,inf,inf,inf,inf,1,1,1,1,2,2,2,2,3,1,1,1,0,0,0
311864657,311863626,20740449,41.1790081,-8.6036451,0.18514334,2.4782445,-4.243294,0.00023569915,-0.0010364398,-6.15716e-05,0.028795524,-0.20339744,-0.05298249,-0.031357843,0.0054122694,-0.00391737,-0.021185223,3.1969311,1.24366,1.7984556,-1.0293635,0.48543033,108.99439,3.3432975,0.3249006,0.30634812,0.14863326,0.10011044,inf,inf,inf,inf,1,1,1,1,2,2,2,2,3,1,1,1,0,0,0
311974522,311973567,20740449,41.1790081,-8.6036451,0.17153522,2.4612842,-4.2482867,0.00023569915,-0.0010364398,-6.15716e-05,0.04589286,-0.21915446,-0.07438768,-0.05283602,0.0054122694,-0.00391737,-0.021185223,1.3720132,1.8986113,1.0579027,-1.0295198,0.48543033,108.99439,3.3482904,0.31674373,0.30246112,0.1431708,0.09863593,inf,inf,inf,inf,1,1,1,1,2,2,2,2,3,1,1,1,0,0,0
312064695,312063522,20740449,41.1790081,-8.6036451,0.15894675,2.4450662,-4.255167,0.00023569915,-0.0010364398,-6.15716e-05,0.05413097,-0.21870638,-0.13180995,-0.1088737,0.0054122694,-0.00391737,-0.021185223,-1.6219069,-0.8101798,-3.1861756,-1.0298522,0.48543033,108.99439,3.3551707,0.32455245,0.30620039,0.14750604,0.10008041,inf,inf,inf,inf,1,1,1,1,2,2,2,2,3,1,1,1,0,0,0
312164553,312163472,20740449,41.1790081,-8.6036451,0.14948192,2.4260921,-4.2688494,0.00023569915,-0.0010364398,-6.15716e-05,0.08394744,-0.22133924,-0.17856665,-0.15591674,0.0054122694,-0.00391737,-0.021185223,0.07070428,-1.5921744,0.109111056,-1.024782,0.48543033,108.99439,3.368853,0.31557006,0.30164737,0.14175569,0.09841451,inf,inf,inf,inf,1,1,1,1,2,2,2,2,3,1,1,1,0,0,0
312264475,312263420,20740449,41.1790081,-8.6036451,0.141329,2.4073062,-4.288407,0.00023569915,-0.0010364398,-6.15716e-05,0.097109415,-0.22232717,-0.2864068,-0.26288962,0.0054122694,-0.00391737,-0.021185223,-1.7571197,-1.5187985,-2.8520052,-1.0192505,0.48543033,108.99439,3.3884106,0.3241807,0.3060509,0.14652452,0.10004602,inf,inf,inf,inf,1,1,1,1,2,2,2,2,3,1,1,1,0,0,0
