timestamp,position[0],position[1],position[2],velocity[0],velocity[1],velocity[2],acceleration[0],acceleration[1],acceleration[2],jerk[0],jerk[1],jerk[2],yaw,yawspeed
783498171,nan,nan,nan,0.009342289,-0.0052085556,0.7,-0.20177785,0.11249612,0.0,nan,nan,0.0,nan,1e-45
783524777,nan,nan,nan,0.007973982,-0.003954352,0.7,-0.20892465,0.103607155,0.0,nan,nan,0.0,nan,1e-45
783723195,nan,nan,nan,0.00047297863,-0.0051730294,0.7,-0.015722357,0.17195748,0.0,nan,nan,0.0,nan,1e-45
783921397,nan,nan,nan,-0.014027234,-0.008566938,0.7,0.23640685,0.14438221,0.0,nan,nan,0.0,nan,1e-45
784124183,nan,nan,nan,-0.027115764,-0.012866651,0.7,0.3274999,0.15540136,0.0,nan,nan,0.0,nan,1e-45
784318218,nan,nan,nan,-0.04448593,-0.015554424,0.7,0.42071673,0.14710285,0.0,nan,nan,0.0,nan,1e-45
784520954,nan,nan,nan,-0.061736528,-0.022408346,0.7,0.49675637,0.18030635,0.0,nan,nan,0.0,nan,1e-45
784696834,nan,nan,nan,-0.07557682,-0.024800248,0.7,0.5399539,0.17718382,0.0,nan,nan,0.0,nan,1e-45
784922192,nan,nan,nan,-0.091035254,-0.024936946,0.7,0.5939462,0.16269745,0.0,nan,nan,0.0,nan,1e-45
785120490,nan,nan,nan,-0.10272854,-0.030471254,0.7,0.62746555,0.18611829,0.0,nan,nan,0.0,nan,1e-45
785318863,nan,nan,nan,-0.11240704,-0.024545988,0.7,0.66156393,0.14446373,0.0,nan,nan,0.0,nan,1e-45
785517316,nan,nan,nan,-0.12503321,-0.035923846,0.7,0.69005233,0.19826198,0.0,nan,nan,0.0,nan,1e-45
785724753,nan,nan,nan,-0.11833393,-0.038021874,0.7,0.685242,0.2201751,0.0,nan,nan,0.0,nan,1e-45
785922861,nan,nan,nan,-0.12668154,-0.03715103,0.7,0.6932125,0.20329371,0.0,nan,nan,0.0,nan,1e-45
786121333,nan,nan,nan,-0.13361193,-0.04135649,0.7,0.70976996,0.21969289,0.0,nan,nan,0.0,nan,1e-45
786319826,nan,nan,nan,-0.12883396,-0.040932536,0.69341844,0.697021,0.22145432,-0.146552,nan,nan,-8.0,nan,1e-45
786517924,nan,nan,nan,-0.13206679,-0.04315805,0.6770227,0.70384675,0.23000978,-0.144416,nan,nan,-8.0,nan,1e-45
786716753,nan,nan,nan,-0.13097586,-0.040243562,0.66067195,0.70392233,0.21628678,-0.14792,nan,nan,-8.0,nan,1e-45
786923741,nan,nan,nan,-0.12635277,-0.046103567,0.6430248,0.70122945,0.2558644,-0.21728,nan,nan,-8.0,nan,1e-45
787122106,nan,nan,nan,-0.13185178,-0.045498036,0.62658,0.6978559,0.2408088,-0.129016,nan,nan,-8.0,nan,1e-45
787320469,nan,nan,nan,-0.12546255,-0.043096837,0.61051315,0.6852538,0.23538712,-0.145408,nan,nan,-8.0,nan,1e-45
787518742,nan,nan,nan,-0.122667715,-0.049758278,0.5942067,0.67007244,0.27180457,-0.14236,nan,nan,-8.0,nan,1e-45
787716885,nan,nan,nan,-0.11464367,-0.038956754,0.5778855,0.6564186,0.22305584,-0.143424,nan,nan,-8.0,nan,1e-45
787924365,nan,nan,nan,-0.10322718,-0.03703268,0.55963224,0.6389365,0.22921802,-0.215976,nan,nan,-8.0,nan,1e-45
788122713,nan,nan,nan,-0.108227715,-0.040465303,0.5433933,0.6342687,0.23714697,-0.139712,nan,nan,-8.0,nan,1e-45
788321308,nan,nan,nan,-0.07498225,-0.02579412,0.5165244,0.5331305,0.18339851,-0.505944,nan,nan,-8.0,nan,1e-45
788519444,nan,nan,nan,-0.006332892,-0.002178534,0.25932667,0.17755643,0.061079953,-2.090728,nan,nan,-8.0,nan,1e-45
788717784,-4.337253,-2.9612315,nan,0.0,0.0,-0.3128835,0.0,0.0,-3.6778402,nan,nan,-8.0,nan,1e-45
788920580,-4.337253,-2.9612315,nan,0.0,0.0,-0.93858856,0.0,0.0,-2.2825253,nan,nan,8.0,nan,1e-45
789123653,-4.337253,-2.9612315,nan,0.0,0.0,-1.2371427,0.0,0.0,-0.65806925,nan,nan,8.0,nan,1e-45
789323295,-4.337253,-2.9612315,nan,0.0,0.0,-1.2642086,0.0,0.0,0.0,nan,nan,0.0,nan,1e-45
789520028,-4.337253,-2.9612315,nan,0.0,0.0,-1.2642086,0.0,0.0,0.0,nan,nan,0.0,nan,1e-45
789718556,-4.337253,-2.9612315,nan,0.0,0.0,-1.2642086,0.0,0.0,0.0,nan,nan,0.0,nan,1e-45
789916820,-4.337253,-2.9612315,nan,0.0,0.0,-1.2439833,0.0,0.0,0.568864,nan,nan,8.0,nan,1e-45
790124672,-4.337253,-2.9612315,nan,0.0,0.0,-1.214572,0.0,0.0,-0.66184986,nan,nan,-8.0,nan,1e-45
790322623,-4.337253,-2.9612315,nan,0.0,0.0,-1.3110014,0.0,0.0,0.13543649,nan,nan,8.0,nan,1e-45
790521014,-4.337253,-2.9612315,nan,0.0,0.0,-1.3121479,0.0,0.0,0.0,nan,nan,0.0,nan,1e-45
790719581,-4.337253,-2.9612315,nan,0.0,0.0,-1.3121479,0.0,0.0,0.0,nan,nan,0.0,nan,1e-45
790917576,-4.337253,-2.9612315,nan,0.0,0.0,-1.2957737,0.0,0.0,0.37003395,nan,nan,8.0,nan,1e-45
791125033,-4.337253,-2.9612315,nan,0.0,0.0,-1.0468581,0.0,0.0,2.029674,nan,nan,8.0,nan,1e-45
791323220,-4.337253,-2.9612315,nan,0.0,0.0,-0.56902283,0.0,0.0,1.9998101,nan,nan,-8.0,nan,1e-45
791521637,-4.337253,-2.9612315,nan,0.0,0.0,-0.32971153,0.0,0.0,0.41262627,nan,nan,-8.0,nan,1e-45
791720043,-4.337253,-2.9612315,nan,0.0,0.0,-0.4053214,0.0,0.0,-1.1747417,nan,nan,-8.0,nan,1e-45
791922866,-4.337253,-2.9612315,nan,0.0,0.0,-0.6642076,0.0,0.0,-0.6590989,nan,nan,8.0,nan,1e-45
792116759,-4.337253,-2.9612315,nan,0.0,0.0,-0.6913582,0.0,0.0,0.0,nan,nan,0.0,nan,1e-45
792324272,-4.337253,-2.9612315,nan,0.0,0.0,-0.6913582,0.0,0.0,0.0,nan,nan,0.0,nan,1e-45
792522675,-4.337253,-2.9612315,nan,0.0,0.0,-0.6913582,0.0,0.0,0.0,nan,nan,0.0,nan,1e-45
792722373,-4.337253,-2.9612315,nan,0.0,0.0,-0.6913582,0.0,0.0,0.0,nan,nan,0.0,nan,1e-45
792919190,-4.337253,-2.9612315,nan,0.0,0.0,-0.6913582,0.0,0.0,0.0,nan,nan,0.0,nan,1e-45
793117674,-4.337253,-2.9612315,nan,0.0,0.0,-0.6913582,0.0,0.0,0.0,nan,nan,0.0,nan,1e-45
793297891,-4.337253,-2.9612315,nan,0.0,0.0,-0.688759,0.0,0.0,-0.00083200634,nan,nan,-8.0,nan,1e-45
793524029,-4.337253,-2.9612315,nan,0.0,0.0,-0.6913582,0.0,0.0,0.0,nan,nan,0.0,nan,1e-45
793722029,-4.337253,-2.9612315,nan,0.0,0.0,-0.6913582,0.0,0.0,0.0,nan,nan,0.0,nan,1e-45
793920188,-4.337253,-2.9612315,nan,0.0,0.0,-0.68683445,0.0,0.0,-0.099976614,nan,nan,-8.0,nan,1e-45
794118201,-4.337253,-2.9612315,nan,0.0,0.0,-0.6913582,0.0,0.0,0.0,nan,nan,0.0,nan,1e-45
794317743,-4.337253,-2.9612315,nan,0.0,0.0,-0.62581265,0.0,0.0,0.2631128,nan,nan,-8.0,nan,1e-45
794523945,-4.337253,-2.9612315,nan,0.0,0.0,-0.6214859,0.0,0.0,0.0,nan,nan,0.0,nan,1e-45
794723263,-4.337253,-2.9612315,nan,0.0,0.0,-0.4625816,0.0,0.0,1.594512,nan,nan,8.0,0.89834756,1e-45
794920775,-4.337253,-2.9612315,nan,0.0,0.0,-0.3019485,0.0,0.0,0.023190796,nan,nan,-8.0,0.89834756,1e-45
795119053,-4.337253,-2.9612315,nan,0.0,0.0,-0.30203187,0.0,0.0,0.043266594,nan,nan,-8.0,0.89834756,1e-45
795322648,-4.337253,-2.9612315,nan,0.0,0.0,-0.27089274,0.0,0.0,0.70562655,nan,nan,8.0,0.89834756,1e-45
795524888,-4.337253,-2.9612315,nan,0.0,0.0,-0.23955896,0.0,0.0,0.0,nan,nan,0.0,0.89834756,1e-45
795718667,-4.337253,-2.9612315,nan,0.0,0.0,-0.23955896,0.0,0.0,0.0,nan,nan,0.0,0.89834756,1e-45
795923028,-4.337253,-2.9612315,nan,0.0,0.0,-0.23955896,0.0,0.0,0.0,nan,nan,0.0,0.89834756,1e-45
796119936,-4.337253,-2.9612315,nan,0.0,0.0,-0.24477902,0.0,0.0,-0.289,nan,nan,-8.0,0.89834756,1e-45
796319619,-4.337253,-2.9612315,nan,0.0,0.0,-0.4127376,0.0,0.0,-0.63114864,nan,nan,8.0,0.89834756,1e-45
796516700,-4.337253,-2.9612315,nan,0.0,0.0,-0.40358645,0.0,0.0,0.72308314,nan,nan,8.0,0.89834756,1e-45
796723956,-4.337253,-2.9612315,nan,0.0,0.0,-0.243456,0.0,0.0,0.10720649,nan,nan,-8.0,0.89834756,1e-45
796922541,-4.337253,-2.9612315,nan,0.0,0.0,-0.20669,0.0,0.0,0.7441148,nan,nan,-8.0,0.89834756,1e-45
797120559,-4.337253,-2.9612315,nan,0.0,0.0,-0.17208332,0.0,0.0,0.0,nan,nan,0.0,0.89834756,1e-45
797318890,-4.337253,-2.9612315,nan,0.0,0.0,-0.13632442,0.0,0.0,0.46860945,nan,nan,-8.0,0.89834756,1e-45
797517262,-4.337253,-2.9612315,nan,0.0,0.0,-0.122599766,0.0,0.0,0.0,nan,nan,0.0,0.89834756,1e-45
797724584,-4.337253,-2.9612315,nan,0.0,0.0,-0.1240585,0.0,0.0,0.09039199,nan,nan,8.0,0.89834756,1e-45
797922909,-4.337253,-2.9612315,nan,0.0,0.0,-0.122599766,0.0,0.0,0.0,nan,nan,0.0,0.89834756,1e-45
798121327,-4.337253,-2.9612315,nan,0.0,0.0,-0.122599766,0.0,0.0,0.0,nan,nan,0.0,0.89834756,1e-45
798319663,-4.337253,-2.9612315,nan,0.0,0.0,-0.122599766,0.0,0.0,0.0,nan,nan,0.0,0.89834756,1e-45
798517984,-4.337253,-2.9612315,nan,0.0,0.0,-0.122599766,0.0,0.0,0.0,nan,nan,0.0,0.89834756,1e-45
798716582,-4.337253,-2.9612315,nan,0.0,0.0,-0.122599766,0.0,0.0,0.0,nan,nan,0.0,0.89834756,1e-45
798919197,-4.337253,-2.9612315,nan,0.0,0.0,-0.122599766,0.0,0.0,0.0,nan,nan,0.0,nan,-0.12100211
799122088,-4.337253,-2.9612315,nan,0.0,0.0,-0.182305,0.0,0.0,0.14272018,nan,nan,-8.0,nan,-0.27480766
799324840,-4.337253,-2.9612315,nan,0.0,0.0,-0.17804104,0.0,0.0,0.0,nan,nan,0.0,nan,-0.31396148
799518731,-4.337253,-2.9612315,nan,0.0,0.0,-0.18103062,0.0,0.0,0.004580766,nan,nan,8.0,nan,-0.29694065
799717034,-4.337253,-2.9612315,nan,0.0,0.0,-0.17958325,0.0,0.0,-0.13996,nan,nan,-8.0,nan,-0.29473925
799919867,-4.337253,-2.9612315,nan,0.0,0.0,-0.18218398,0.0,0.0,0.13576744,nan,nan,-8.0,nan,-0.2984344
800122719,-4.337253,-2.9612315,nan,0.0,0.0,-0.18103191,0.0,0.0,0.0,nan,nan,0.0,nan,-0.29882303
800321215,-4.337253,-2.9612315,nan,0.0,0.0,-0.1797933,0.0,0.0,0.140776,nan,nan,8.0,nan,-0.29886374
800520708,-4.337253,-2.9612315,nan,0.0,0.0,-0.1810319,0.0,0.0,0.0,nan,nan,0.0,nan,-0.2988682
800717930,-4.337253,-2.9612315,nan,0.0,0.0,-0.18103191,0.0,0.0,0.0,nan,nan,0.0,nan,-0.29883155
800925797,-4.337253,-2.9612315,nan,0.0,0.0,-0.18103191,0.0,0.0,0.0,nan,nan,0.0,nan,-0.29886505
801123910,-4.337253,-2.9612315,nan,0.0,0.0,-0.18103191,0.0,0.0,0.0,nan,nan,0.0,nan,-0.29886836
801321936,-4.337253,-2.9612315,nan,0.0,0.0,-0.18103191,0.0,0.0,0.0,nan,nan,0.0,nan,-0.29679924
801520591,-4.337253,-2.9612315,nan,0.0,0.0,-0.18079372,0.0,0.0,0.014375985,nan,nan,8.0,nan,-0.2906564
801719879,-4.337253,-2.9612315,nan,0.0,0.0,-0.18103191,0.0,0.0,0.0,nan,nan,0.0,nan,-0.28974062
801916934,-4.337253,-2.9612315,nan,0.0,0.0,-0.18103191,0.0,0.0,0.0,nan,nan,0.0,nan,-0.2846404
802124460,-4.337253,-2.9612315,nan,0.0,0.0,-0.18103191,0.0,0.0,0.0,nan,nan,0.0,nan,-0.28364
802322591,-4.337253,-2.9612315,nan,0.0,0.0,-0.18103191,0.0,0.0,0.0,nan,nan,0.0,nan,-0.28273654
802520941,-4.337253,-2.9612315,nan,0.0,0.0,-0.18103191,0.0,0.0,0.0,nan,nan,0.0,nan,-0.28321156
802719556,-4.337253,-2.9612315,nan,0.0,0.0,-0.18103191,0.0,0.0,0.0,nan,nan,0.0,nan,-0.28255934
802918167,-4.337253,-2.9612315,nan,0.0,0.0,-0.18103191,0.0,0.0,0.0,nan,nan,0.0,nan,-0.2834223
803125102,-4.337253,-2.9612315,nan,0.0,0.0,-0.18103191,0.0,0.0,0.0,nan,nan,0.0,nan,-0.28351766
803323417,-4.337253,-2.9612315,nan,0.0,0.0,-0.18103191,0.0,0.0,0.0,nan,nan,0.0,nan,-0.2833913
803517929,-4.337253,-2.9612315,nan,0.0,0.0,-0.18103191,0.0,0.0,0.0,nan,nan,0.0,nan,-0.2832186
803720100,-4.337253,-2.9612315,nan,0.0,0.0,-0.18103191,0.0,0.0,0.0,nan,nan,0.0,nan,-0.28349552
803919299,-4.337253,-2.9612315,nan,0.0,0.0,-0.18103191,0.0,0.0,0.0,nan,nan,0.0,nan,-0.28352475
804116891,-4.337253,-2.9612315,nan,0.0,0.0,-0.18103191,0.0,0.0,0.0,nan,nan,0.0,nan,-0.28352794
804324101,-4.337253,-2.9612315,nan,0.0,0.0,-0.18103191,0.0,0.0,0.0,nan,nan,0.0,nan,-0.28352827
804522710,-4.337253,-2.9612315,nan,0.0,0.0,-0.18103191,0.0,0.0,0.0,nan,nan,0.0,nan,-0.28352833
804720829,-4.337253,-2.9612315,nan,0.0,0.0,-0.18103191,0.0,0.0,0.0,nan,nan,0.0,nan,-0.28352833
804919347,-4.337253,-2.9612315,nan,0.0,0.0,-0.17908122,0.0,0.0,0.12900694,nan,nan,-8.0,nan,-0.28352833
805117527,-4.337253,-2.9612315,nan,0.0,0.0,-0.12611446,0.0,0.0,0.88171387,nan,nan,-8.0,nan,-0.19163254
805324918,-4.337253,-2.9612315,nan,0.0,0.0,-0.036114533,0.0,0.0,0.0,nan,nan,0.0,nan,-0.13864349
805523409,-4.337253,-2.9612315,nan,0.0,0.0,-0.036114533,0.0,0.0,0.0,nan,nan,0.0,nan,-0.24160795
805721749,-4.337253,-2.9612315,nan,0.0,0.0,-0.036114533,0.0,0.0,0.0,nan,nan,0.0,nan,-0.27163908
805924393,-4.337253,-2.9612315,nan,0.0,0.0,-0.036114533,0.0,0.0,0.0,nan,nan,0.0,nan,-0.34912696
806118722,-4.337253,-2.9612315,nan,0.0,0.0,-0.036114533,0.0,0.0,0.0,nan,nan,0.0,nan,-0.37846065
806316702,-4.337253,-2.9612315,nan,0.0,0.0,-0.036114533,0.0,0.0,0.0,nan,nan,0.0,nan,-0.3817385
806523976,-4.337253,-2.9612315,nan,0.0,0.0,-0.036114533,0.0,0.0,0.0,nan,nan,0.0,nan,-0.38226563
806704312,-4.337253,-2.9612315,nan,0.0,0.0,-0.036114533,0.0,0.0,0.0,nan,nan,0.0,nan,-0.38194734
806920723,-4.337253,-2.9612315,nan,0.0,0.0,-0.036114533,0.0,0.0,0.0,nan,nan,0.0,nan,-0.38239288
807118935,-4.337253,-2.9612315,nan,0.0,0.0,-0.036114533,0.0,0.0,0.0,nan,nan,0.0,nan,-0.3818182
807317798,-4.337253,-2.9612315,nan,0.0,0.0,-0.036114533,0.0,0.0,0.0,nan,nan,0.0,nan,-0.38197067
807524757,-4.337253,-2.9612315,nan,0.0,0.0,-0.036114533,0.0,0.0,0.0,nan,nan,0.0,nan,-0.3818275
807723043,-4.337253,-2.9612315,nan,0.0,0.0,-0.036114533,0.0,0.0,0.0,nan,nan,0.0,nan,-0.38205406
807922241,-4.337253,-2.9612315,nan,0.0,0.0,-0.036114533,0.0,0.0,0.0,nan,nan,0.0,nan,-0.38231742
808119973,-4.337253,-2.9612315,nan,0.0,0.0,-0.036114533,0.0,0.0,0.0,nan,nan,0.0,nan,-0.38340887
808318189,-4.337253,-2.9612315,nan,0.0,0.0,-0.036114533,0.0,0.0,0.0,nan,nan,0.0,nan,-0.3821945
808517717,-4.337253,-2.9612315,nan,0.0,0.0,-0.036114533,0.0,0.0,0.0,nan,nan,0.0,nan,-0.383137
808723792,-4.337253,-2.9612315,nan,0.0,0.0,-0.036114533,0.0,0.0,0.0,nan,nan,0.0,nan,-0.3816687
808922330,-4.337253,-2.9612315,nan,0.0,0.0,-0.036114533,0.0,0.0,0.0,nan,nan,0.0,nan,-0.38183323
809121528,-4.337253,-2.9612315,nan,0.0,0.0,-0.036114533,0.0,0.0,0.0,nan,nan,0.0,nan,-0.38166842
809318876,-4.337253,-2.9612315,nan,0.0,0.0,-0.036114533,0.0,0.0,0.0,nan,nan,0.0,nan,-0.3817066
809517263,-4.337253,-2.9612315,nan,0.0,0.0,-0.036114533,0.0,0.0,0.0,nan,nan,0.0,nan,-0.38226432
809716811,-4.337253,-2.9612315,nan,0.0,0.0,-0.036114533,0.0,0.0,0.0,nan,nan,0.0,nan,-0.38105178
809922851,-4.337253,-2.9612315,nan,0.0,0.0,-0.036114533,0.0,0.0,0.0,nan,nan,0.0,nan,-0.38144514
810121465,-4.337253,-2.9612315,nan,0.0,0.0,-0.036114533,0.0,0.0,0.0,nan,nan,0.0,nan,-0.38212544
810319643,-4.337253,-2.9612315,nan,0.0,0.0,-0.036114533,0.0,0.0,0.0,nan,nan,0.0,nan,-0.38083273
810517975,-4.337253,-2.9612315,nan,0.0,0.0,-0.036114533,0.0,0.0,0.0,nan,nan,0.0,nan,-0.38060609
810717111,-4.337253,-2.9612315,nan,0.0,0.0,-0.036114533,0.0,0.0,0.0,nan,nan,0.0,nan,-0.36842453
810920053,-4.337253,-2.9612315,nan,0.0,0.0,-0.030631041,0.0,0.0,0.0,nan,nan,0.0,nan,-0.06847215
811122064,-4.337253,-2.9612315,nan,0.0,0.0,-0.030631043,0.0,0.0,0.0,nan,nan,0.0,nan,-0.0072219144
811320720,-4.337253,-2.9612315,nan,0.0,0.0,-0.030631043,0.0,0.0,0.0,nan,nan,0.0,nan,-0.0007906698
811518643,-4.337253,-2.9612315,nan,0.0,0.0,-0.030631043,0.0,0.0,0.0,nan,nan,0.0,nan,-8.737394e-05
811717161,-4.337253,-2.9612315,nan,0.0,0.0,-0.030631043,0.0,0.0,0.0,nan,nan,0.0,nan,-9.571462e-06
811924527,nan,nan,nan,-0.3035832,-0.38419643,-0.030631043,0.7756092,-0.10447842,0.0,nan,nan,0.0,nan,-9.633663e-07
812122898,nan,nan,nan,-0.09679183,-0.5208881,-0.030631043,0.9289329,-0.63376534,0.0,nan,nan,0.0,-2.7973778,-1.06291736e-07
812321215,nan,nan,nan,0.017109402,-0.53517824,-0.030631043,0.4795832,-0.19970974,0.0,nan,nan,0.0,-2.7973778,-1.1658995e-08
812519392,nan,nan,nan,0.092731185,-0.5925382,-0.030631043,0.12906276,0.24670488,0.0,nan,nan,0.0,-2.7973778,-1.2847916e-09
812718001,nan,nan,nan,0.1103491,-0.5360696,-0.030631043,0.28183514,-0.28588194,0.0,nan,nan,0.0,-2.7973778,-1.4070478e-10
812926797,nan,nan,nan,0.14806719,-0.56420434,-0.030631043,0.03860485,0.1481742,0.0,nan,nan,0.0,-2.7973778,-1.4003751e-11
813123529,nan,nan,nan,0.19917566,-0.6620259,-0.030631043,0.23434511,-0.46553713,0.0,nan,nan,0.0,-2.7973778,-1.5662658e-12
813321843,nan,nan,nan,0.1852592,-0.5927081,-0.030631043,-0.2991433,0.9570627,0.0,nan,nan,0.0,-2.7973778,-1.7252944e-13
813520314,nan,nan,nan,0.12774447,-0.40869865,-0.030631043,-0.27745166,0.88766366,0.0,nan,nan,0.0,-2.7973778,-1.8896438e-14
813718534,nan,nan,nan,0.07701881,-0.24640979,-0.029592527,-0.23401798,0.74870443,-0.12890406,nan,nan,8.0,-2.7973778,-2.0813632e-15
813916970,nan,nan,nan,0.036787584,-0.1176962,-0.030631043,-0.17341085,0.5548013,0.0,nan,nan,0.0,-2.7973778,-2.285118e-16
814116794,nan,nan,nan,0.009989928,-0.031961236,-0.030631043,-0.09812827,0.31394628,0.0,nan,nan,0.0,-2.7973778,-2.4867762e-17
814322799,-3.2353263,-3.199244,nan,0.0,0.0,-0.030631043,0.0,0.0,0.0,nan,nan,0.0,-2.7973778,-2.5325636e-18
814522479,nan,nan,nan,-0.024287771,-0.03036663,-0.030631043,0.2262176,-0.4616177,0.0,nan,nan,0.0,-2.7973778,-2.753013e-19
814719743,nan,nan,nan,0.085648075,-0.28034228,-0.030631043,0.8341525,-1.9176962,0.0,nan,nan,0.0,-2.7973778,-3.059346e-20
814917639,nan,nan,nan,0.3071667,-0.80488074,-0.030631043,1.0990264,-2.8573,0.0,nan,nan,0.0,-2.7973778,-3.3899833e-21
815120480,nan,nan,nan,0.46418208,-1.2151774,-0.030631043,0.51365334,-1.3437995,0.0,nan,nan,0.0,-2.7973778,-3.565151e-22
815323312,nan,nan,nan,0.5035164,-1.3180248,-0.030631043,-0.065517925,0.17191541,0.0,nan,nan,0.0,-2.7973778,-3.7517303e-23
815521762,nan,nan,nan,0.42952862,-1.1211779,-0.030631043,-0.62022674,1.6590071,0.0,nan,nan,0.0,-2.7973778,-4.1231606e-24
815720170,nan,nan,nan,0.3206722,-0.83507216,-0.030631043,-0.6664208,1.7751937,0.0,nan,nan,0.0,-2.7973778,-4.52868e-25
815918675,nan,nan,nan,0.18540442,-0.47345,-0.030631043,-0.4778691,1.2556659,0.0,nan,nan,0.0,-2.7973778,-4.9705358e-26
816116701,nan,nan,nan,0.08353858,-0.20409133,-0.030631043,-0.5713842,1.5233657,0.0,nan,nan,0.0,-2.7973778,-5.4697747e-27
816324463,nan,nan,nan,0.024110692,-0.05408295,-0.030631043,-0.13671017,0.30735955,0.0,nan,nan,0.0,-2.7973778,-5.4812115e-28
816522513,nan,nan,nan,-0.03603395,0.100997895,-0.030631043,-0.19875519,0.5129044,0.0,nan,nan,0.0,-2.7973778,-6.0859464e-29
816704566,nan,nan,nan,-0.035621937,0.098279625,-0.030631043,-0.041823193,0.12167065,0.0,nan,nan,0.0,-2.7973778,-8.058267e-30
816920718,nan,nan,nan,-0.068952754,0.19203745,-0.030631043,0.015601192,-0.041490078,0.0,nan,nan,0.0,-2.7973778,-7.299134e-31
817117563,nan,nan,nan,-0.037725784,0.105092786,-0.030631043,0.15971152,-0.44490874,0.0,nan,nan,0.0,-2.7973778,-8.146965e-32
817324834,nan,nan,nan,-0.011061178,0.03081314,-0.030631043,0.10119708,-0.2819049,0.0,nan,nan,0.0,-2.7973778,-8.201584e-33
817500740,nan,nan,nan,-0.00037542928,0.001045834,-0.030631043,0.026363011,-0.07343948,0.0,nan,nan,0.0,-2.7973778,-1.153866e-33
817721562,-2.5926442,-4.1999297,nan,0.0,0.0,-0.030631043,0.0,0.0,0.0,nan,nan,0.0,-2.7973778,-9.935795e-35
817919886,nan,nan,nan,-0.04900369,0.15037642,-0.02793671,-0.6281402,1.424178,0.0044,nan,nan,-8.0,-2.7973778,-1.09160585e-35
818118312,nan,nan,nan,-0.10672333,0.2724526,-0.030631043,-0.01345548,-0.03907007,0.0,nan,nan,0.0,-2.7973778,-1.2011204e-36
818316620,nan,nan,nan,-0.06258762,0.15799278,-0.030631043,0.25205493,-0.6362738,0.0,nan,nan,0.0,-2.7973778,-1.3215487e-37
818523971,nan,nan,nan,-0.020725748,0.052318964,-0.030631043,0.16043791,-0.40500078,0.0,nan,nan,0.0,-2.7973778,-1.3276224e-38
818722720,nan,nan,nan,0.009146637,-0.025091171,-0.030631043,0.017278284,-0.036391333,0.0,nan,nan,0.0,-2.7973778,-1.452841e-39
818920508,-2.7488127,-4.059792,nan,0.0,0.0,-0.043895174,0.0,0.0,-0.46067998,nan,nan,-8.0,-2.7973778,-1.6013e-40
819119050,-2.7488127,-4.059792,nan,0.0,0.0,-0.29303926,0.0,0.0,-2.049032,nan,nan,-8.0,-2.7973778,-1.7527e-41
819317479,-2.7488127,-4.059792,nan,0.0,0.0,-0.61522657,0.0,0.0,-0.85425574,nan,nan,8.0,-2.7973778,-1.92e-42
819517362,-2.7488127,-4.059792,nan,0.0,0.0,-0.62616575,0.0,0.0,0.7448002,nan,nan,8.0,-2.7973778,-2.07e-43
819723069,-2.7488127,-4.059792,nan,0.0,0.0,-0.30474165,0.0,0.0,2.2081366,nan,nan,-8.0,-2.7973778,-2.1e-44
819921285,-2.7488127,-4.059792,nan,0.0,0.0,-0.023034006,0.0,0.0,0.6802493,nan,nan,-8.0,-2.7973778,-3e-45
820119909,-2.7488127,-4.059792,nan,0.0,0.0,0.025116786,0.0,0.0,0.0,nan,nan,0.0,-2.7973778,-1e-45
820318089,-2.7488127,-4.059792,13.601598,0.0,0.0,0.00013744517,0.0,0.0,-0.046894997,nan,nan,8.0,-2.7973778,-1e-45
820516725,-2.7488127,-4.059792,13.601598,0.0,0.0,0.0,0.0,0.0,0.0,nan,nan,0.0,-2.7973778,-1e-45
820723823,-2.7488127,-4.059792,nan,0.0,0.0,0.08621913,0.0,0.0,0.9393957,nan,nan,-8.0,-2.7973778,-1e-45
820922538,-2.7488127,-4.059792,nan,0.0,0.0,0.14471819,0.0,0.0,0.0,nan,nan,0.0,-2.7973778,-1e-45
821120447,-2.7488127,-4.059792,nan,0.0,0.0,0.14471819,0.0,0.0,0.0,nan,nan,0.0,-2.7973778,-1e-45
821320338,-2.7488127,-4.059792,nan,0.0,0.0,0.17210115,0.0,0.0,0.66191196,nan,nan,8.0,-2.7973778,-1e-45
821517129,-2.7488127,-4.059792,nan,0.0,0.0,0.34875682,0.0,0.0,0.37278396,nan,nan,-8.0,-2.7973778,-1e-45
821724444,-2.7488127,-4.059792,nan,0.0,0.0,0.35744232,0.0,0.0,0.0,nan,nan,0.0,-2.7973778,-1e-45
821922875,-2.7488127,-4.059792,nan,0.0,0.0,0.3482742,0.0,0.0,-0.14408,nan,nan,-8.0,-2.7973778,-1e-45
822122117,-2.7488127,-4.059792,nan,0.0,0.0,0.34697336,0.0,0.0,0.0,nan,nan,0.0,-2.7973778,-1e-45
822319760,-2.7488127,-4.059792,nan,0.0,0.0,0.33209535,0.0,0.0,-0.35493323,nan,nan,-8.0,-2.7973778,-1e-45
822518112,-2.7488127,-4.059792,nan,0.0,0.0,0.256774,0.0,0.0,-0.48551896,nan,nan,8.0,-2.7973778,-1e-45
822716575,-2.7488127,-4.059792,nan,0.0,0.0,0.23995245,0.0,0.0,0.0,nan,nan,0.0,-2.7973778,-1e-45
822923595,-2.7488127,-4.059792,nan,0.0,0.0,0.21704803,0.0,0.0,-0.5951592,nan,nan,-8.0,-2.7973778,-1e-45
823122020,-2.7488127,-4.059792,nan,0.0,0.0,0.15148443,0.0,0.0,0.0,nan,nan,0.0,-2.7973778,-1e-45
823321425,-2.7488127,-4.059792,nan,0.0,0.0,0.121484265,0.0,0.0,-0.71226895,nan,nan,-8.0,-2.7973778,-1e-45
823523211,-2.7488127,-4.059792,nan,0.0,0.0,0.06456094,0.0,0.0,-0.145344,nan,nan,-8.0,-2.7973778,-1e-45
823716972,-2.7488127,-4.059792,nan,0.0,0.0,0.03203111,0.0,0.0,0.0,nan,nan,0.0,-2.7973778,-1e-45
823919939,-2.7488127,-4.059792,14.142324,0.0,0.0,0.0,0.0,0.0,0.0,nan,nan,0.0,-2.7973778,-1e-45
824122803,-2.7488127,-4.059792,14.142324,0.0,0.0,0.0,0.0,0.0,0.0,nan,nan,0.0,-2.7973778,-1e-45
824321221,-2.7488127,-4.059792,14.142324,0.0,0.0,0.0,0.0,0.0,0.0,nan,nan,0.0,-2.7973778,-1e-45
824519364,-2.7488127,-4.059792,nan,0.0,0.0,0.008018862,0.0,0.0,-0.29097816,nan,nan,-8.0,-2.7973778,-1e-45
824717677,-2.7488127,-4.059792,14.17592,0.0,0.0,0.0,0.0,0.0,0.0,nan,nan,0.0,-2.7973778,-1e-45
824925256,-2.7488127,-4.059792,14.17592,0.0,0.0,0.0,0.0,0.0,0.0,nan,nan,0.0,-2.7973778,-1e-45
825123336,-2.7488127,-4.059792,14.17592,0.0,0.0,0.0,0.0,0.0,0.0,nan,nan,0.0,-2.7973778,-1e-45
825321643,nan,nan,14.17592,-0.098813854,-0.024824407,0.0,-0.40396988,-0.22002319,0.0,nan,nan,0.0,-2.7973778,-1e-45
825520908,nan,nan,14.17592,-0.05852313,-0.01737434,0.0,0.4224991,0.12543148,0.0,nan,nan,0.0,-2.7973778,-1e-45
825718440,nan,nan,14.17592,-0.062137615,0.0056635006,0.0,-0.64199585,0.06873438,0.0,nan,nan,0.0,-2.7973778,-1e-45
825916823,nan,nan,14.17592,-0.06735069,-0.0068485867,0.0,0.40099844,0.040775713,0.0,nan,nan,0.0,-2.7973778,-1e-45
826124373,nan,nan,14.17592,-0.008617874,-0.0008763123,0.0,0.18222974,0.018530112,0.0,nan,nan,0.0,-2.7973778,-1e-45
826322393,nan,nan,14.17592,-0.117237434,-0.043120753,0.0,-1.2212446,-0.44051248,0.0,nan,nan,0.0,-2.7973778,-1e-45
826520938,nan,nan,14.17592,-0.2780601,-0.10029518,0.0,-0.15828277,-0.054625545,0.0,nan,nan,0.0,-2.7973778,-1e-45
826719934,nan,nan,14.17592,-0.19864327,-0.06873697,0.0,0.29454106,0.25788125,0.0,nan,nan,0.0,-2.7973778,-1e-45
826917621,nan,nan,14.17592,-0.25538343,0.10331069,0.0,-0.7530783,1.0546219,0.0,nan,nan,0.0,-2.7973778,-1e-45
827124957,nan,nan,14.17592,-0.44734132,0.13637877,0.0,-1.1461893,-0.54689,0.0,nan,nan,0.0,-2.7973778,-1e-45
827323182,nan,nan,14.17592,-0.541373,0.0333491,0.0,0.18653475,-0.2826616,0.0,nan,nan,0.0,-2.7973778,-1e-45
827521645,nan,nan,14.17592,-0.4009229,0.01825416,0.0,0.7985286,-0.036357295,0.0,nan,nan,0.0,-2.7973778,-1e-45
827719895,nan,nan,14.17592,-0.40865913,-0.040677264,0.0,-0.71907365,-0.4964487,0.0,nan,nan,0.0,-2.7973778,-1e-45
827922782,nan,nan,14.17592,-0.5722651,-0.13038033,0.0,-0.25124478,-0.21126828,0.0,nan,nan,0.0,-2.7973778,-1e-45
828116766,nan,nan,14.17592,-0.47956094,-0.11712319,0.0,0.8150287,0.1990545,0.0,nan,nan,0.0,-2.7973778,-1e-45
828324281,nan,nan,14.17592,-0.31451166,-0.07681319,0.0,0.7662043,0.18713006,0.0,nan,nan,0.0,-2.7973778,-1e-45
828522264,nan,nan,14.17592,-0.17728296,-0.04329783,0.0,0.6259685,0.15288034,0.0,nan,nan,0.0,-2.7973778,-1e-45
828720895,nan,nan,14.17592,-0.18410781,-0.05616998,0.0,-0.03518136,-0.046364505,0.0,nan,nan,0.0,-2.7973778,-1e-45
828919400,nan,nan,14.17592,-0.10035758,-0.031175435,0.0,0.44668177,0.13875881,0.0,nan,nan,0.0,-2.7973778,-1e-45
829117309,nan,nan,14.17592,-0.029596565,-0.009193983,0.0,0.27191442,0.08446847,0.0,nan,nan,0.0,-2.7973778,-1e-45
829298444,nan,nan,14.17592,-0.015126936,-0.0054130633,0.0,-0.30983225,-0.11413807,0.0,nan,nan,0.0,-2.7973778,-1e-45
829523450,nan,nan,14.17592,-0.23824647,-0.08542897,0.0,-1.0056238,-0.36044106,0.0,nan,nan,0.0,-2.7973778,-1e-45
829723002,nan,nan,14.17592,-0.27351552,-0.098063536,0.0,0.49723232,0.17828217,0.0,nan,nan,0.0,-2.7973778,-1e-45
829921344,nan,nan,14.17592,-0.17127609,-0.06140711,0.0,0.20300323,0.072795436,0.0,nan,nan,0.0,-2.7973778,-1e-45
830119678,nan,nan,14.17592,-0.12760268,-0.04574766,0.0,0.43928078,0.15748936,0.0,nan,nan,0.0,-2.7973778,-1e-45
830325787,nan,nan,14.17592,-0.04946772,-0.017734991,0.0,0.32299277,0.11579823,0.0,nan,nan,0.0,-2.7973778,-1e-45
830523861,nan,nan,14.17592,-0.0057088155,-0.0020467038,0.0,0.14116202,0.050608896,0.0,nan,nan,0.0,-2.7973778,-1e-45
830722502,-3.2873359,-4.3712406,14.17592,-4.3276814e-06,-1.5515252e-06,0.0,0.0,0.0,0.0,nan,nan,0.0,-2.7973778,-1e-45
830920410,-3.2873359,-4.3712406,14.17592,-4.3276814e-06,-1.5515252e-06,0.0,0.0,0.0,0.0,nan,nan,0.0,-2.7973778,-1e-45
831118851,nan,nan,14.17592,-0.07248991,-0.027551388,0.0,-0.51738036,-0.1758202,0.0,nan,nan,0.0,-2.7973778,-1e-45
831318060,nan,nan,14.17592,-0.113828085,-0.04147076,0.0,0.1797798,0.066993274,0.0,nan,nan,0.0,-2.7973778,-1e-45
831524560,nan,nan,14.17592,-0.04605534,-0.016764883,0.0,0.3034724,0.11046882,0.0,nan,nan,0.0,-2.7973778,-1e-45
831722810,nan,nan,14.17592,-0.08485168,-0.030446347,0.0,-0.8309606,-0.29716858,0.0,nan,nan,0.0,-2.7973778,-1e-45
831917471,nan,nan,14.17592,-0.25368547,-0.090948254,0.0,-0.43982154,-0.15765758,0.0,nan,nan,0.0,-2.7973778,-1e-45
832124307,nan,nan,14.17592,-0.235287,-0.08435075,0.0,0.51216096,0.1836105,0.0,nan,nan,0.0,-2.7973778,-1e-45
832322353,nan,nan,14.17592,-0.13798787,-0.049468864,0.0,0.46351525,0.16617092,0.0,nan,nan,0.0,-2.7973778,-1e-45
832517853,nan,nan,14.17592,-0.17446539,-0.06254437,0.0,-0.84789705,-0.30395454,0.0,nan,nan,0.0,-2.7973778,-1e-45
832723813,nan,nan,14.17592,-0.38557577,-0.13822415,0.0,-0.595199,-0.21336964,0.0,nan,nan,0.0,-2.7973778,-1e-45
832922156,nan,nan,14.17592,-0.34938973,-0.1252518,0.0,0.61081946,0.21897104,0.0,nan,nan,0.0,-2.7973778,-1e-45
833120324,nan,nan,14.17592,-0.22944221,-0.082252115,0.0,0.58590066,0.21003796,0.0,nan,nan,0.0,-2.7973778,-1e-45
833318766,nan,nan,14.17592,-0.17833473,-0.063930675,0.0,-0.32321537,-0.11586779,0.0,nan,nan,0.0,-2.7973778,-1e-45
833517304,nan,nan,14.17592,-0.35590625,-0.12758756,0.0,-0.9589149,-0.3437577,0.0,nan,nan,0.0,-2.7973778,-1e-45
833697234,nan,nan,14.17592,-0.4751362,-0.17032984,0.0,-0.25162292,-0.09020322,0.0,nan,nan,0.0,-2.7973778,-1e-45
833922646,nan,nan,14.17592,-0.42050096,-0.15074384,0.0,0.14651877,0.052525014,0.0,nan,nan,0.0,-2.7973778,-1e-45
834116978,nan,nan,14.17592,-0.5298925,-0.1899592,0.0,-1.166491,-0.41817087,0.0,nan,nan,0.0,-2.7973778,-1e-45
834319492,nan,nan,14.17592,-0.70142627,-0.2514517,0.0,-0.18625613,-0.066770196,0.0,nan,nan,0.0,-2.7973778,-1e-45
834517658,nan,nan,14.17592,-0.59828776,-0.21447799,0.0,0.8029243,0.28783736,0.0,nan,nan,0.0,-2.7973778,-1e-45
834716848,nan,nan,14.17592,-0.435968,-0.15628858,0.0,0.8084506,0.2898185,0.0,nan,nan,0.0,-2.7973778,-1e-45
834923563,nan,nan,14.17592,-0.2764661,-0.09910932,0.0,0.7330412,0.2627853,0.0,nan,nan,0.0,-2.7973778,-1e-45
835121788,nan,nan,14.17592,-0.14739022,-0.052837383,0.0,0.5778156,0.20713902,0.0,nan,nan,0.0,-2.7973778,-1e-45
835320315,nan,nan,14.17592,-0.053340655,-0.0191219,0.0,0.3773701,0.13528204,0.0,nan,nan,0.0,nan,0.21272735
835518365,nan,nan,14.17592,-0.0042180065,-0.0015120979,0.0,0.12939245,0.046385426,0.0,nan,nan,0.0,nan,0.11392036
835716703,-4.2460346,-4.6465693,14.17592,0.0,0.0,0.0,0.0,0.0,0.0,nan,nan,0.0,nan,0.2239288
835924166,-4.2460346,-4.6465693,nan,0.0,0.0,0.0081882235,0.0,0.0,0.47617638,nan,nan,-8.0,nan,-0.1310475
836122488,-4.2460346,-4.6465693,14.279328,0.0,0.0,-2.1684043e-19,0.0,0.0,0.0,nan,nan,0.0,nan,-0.51342565
836320912,-4.2460346,-4.6465693,14.279328,0.0,0.0,0.0,0.0,0.0,0.0,nan,nan,0.0,nan,-0.42454773
836519210,-4.2460346,-4.6465693,14.279328,0.0,0.0,0.0,0.0,0.0,0.0,nan,nan,0.0,nan,-0.402658
836717496,-4.2460346,-4.6465693,14.279328,0.0,0.0,0.0,0.0,0.0,0.0,nan,nan,0.0,nan,-0.4891046
836926110,-4.2460346,-4.6465693,14.279328,0.0,0.0,0.0,0.0,0.0,0.0,nan,nan,0.0,nan,-0.48728314
837123232,-4.2460346,-4.6465693,14.279328,0.0,0.0,0.0,0.0,0.0,0.0,nan,nan,0.0,nan,-0.11191825
837321446,-4.2460346,-4.6465693,14.279328,0.0,0.0,0.0,0.0,0.0,0.0,nan,nan,0.0,nan,-0.012380412
837520767,-4.2460346,-4.6465693,14.279328,0.0,0.0,0.0,0.0,0.0,0.0,nan,nan,0.0,nan,-0.29776633
837718274,-4.2460346,-4.6465693,14.279328,0.0,0.0,0.0,0.0,0.0,0.0,nan,nan,0.0,nan,-0.043444507
837916687,-4.2460346,-4.6465693,14.279328,0.0,0.0,0.0,0.0,0.0,0.0,nan,nan,0.0,nan,-0.25190753
838125727,-4.2460346,-4.6465693,14.279328,0.0,0.0,0.0,0.0,0.0,0.0,nan,nan,0.0,nan,-0.44214445
838322321,-4.2460346,-4.6465693,14.279328,0.0,0.0,0.0,0.0,0.0,0.0,nan,nan,0.0,nan,-0.05376675
838522166,-4.2460346,-4.6465693,14.279328,0.0,0.0,0.0,0.0,0.0,0.0,nan,nan,0.0,nan,-0.12505716
838719633,-4.2460346,-4.6465693,14.279328,0.0,0.0,0.0,0.0,0.0,0.0,nan,nan,0.0,nan,-0.0138235865
838917368,-4.2460346,-4.6465693,14.279328,0.0,0.0,0.0,0.0,0.0,0.0,nan,nan,0.0,nan,-0.0015292687
839124787,-4.2460346,-4.6465693,14.279328,0.0,0.0,0.0,0.0,0.0,0.0,nan,nan,0.0,nan,-0.0001545456
839322927,nan,nan,14.279328,0.0377607,0.014767397,0.0,0.9281582,-0.23783085,0.0,nan,nan,0.0,nan,-1.703679e-05
839521261,nan,nan,14.279328,0.06208925,-0.00021877556,0.0,-0.419777,0.001479112,0.0,nan,nan,0.0,nan,-1.8716527e-06
839719771,nan,nan,14.279328,0.052995417,-0.0015008466,0.0,0.56255233,-0.023092557,0.0,nan,nan,0.0,nan,-2.048231e-07
839919838,nan,nan,14.279328,0.2511834,-0.008854441,0.0,0.62101066,-0.022904044,0.0,nan,nan,0.0,3.1057634,-2.2131225e-08
840121117,nan,nan,14.279328,0.19766475,-0.00701804,0.0,-0.9881727,0.03519692,0.0,nan,nan,0.0,3.1057634,-2.356843e-09
840324583,nan,nan,14.279328,-0.099166565,0.058989897,0.0,-1.1548389,0.45621017,0.0,nan,nan,0.0,3.1057634,-2.4644234e-10
840522204,nan,nan,14.279328,-0.17709056,0.077850856,0.0,-0.035379857,-0.20455416,0.0,nan,nan,0.0,3.1057634,-2.7285786e-11
840720496,nan,nan,14.279328,-0.3570999,0.0491167,0.0,-1.616257,-0.07666157,0.0,nan,nan,0.0,3.1057634,-2.9922618e-12
840918802,nan,nan,14.279328,-0.5431619,0.04430876,0.0,-0.22682032,-0.04182102,0.0,nan,nan,0.0,3.1057634,-3.2856817e-13
841117128,nan,nan,14.279328,-0.5259182,0.03637957,0.0,-0.36807665,-0.017606707,0.0,nan,nan,0.0,3.1057634,-3.617198e-14
841324417,nan,nan,14.279328,-0.64295876,0.03990948,0.0,-0.012514517,0.0035992349,0.0,nan,nan,0.0,3.1057634,-3.6363285e-15
841518324,nan,nan,14.279328,-0.51176023,0.03966984,0.0,0.88533944,0.23235933,0.0,nan,nan,0.0,3.1057634,-4.1708228e-16
841723609,nan,nan,14.279328,-0.34214354,0.20264849,0.0,0.73785603,0.53687966,0.0,nan,nan,0.0,3.1057634,-4.2754557e-17
841919587,nan,nan,14.279328,-0.21930887,0.16755785,0.0,0.5592753,-0.42730135,0.0,nan,nan,0.0,3.1057634,-4.80807e-18
842118031,nan,nan,14.279328,-0.118383795,0.09044839,0.0,0.4559254,-0.3483392,0.0,nan,nan,0.0,3.1057634,-5.279389e-19
842325326,nan,nan,nan,-0.040752247,0.031135803,0.15571554,0.30427596,-0.23247492,-0.30808806,nan,nan,8.0,3.1057634,-5.3106272e-20
842523644,nan,nan,nan,-0.0026752255,0.0020439434,0.25181946,0.09568796,-0.07310815,1.217001,nan,nan,-8.0,3.1057634,-5.826954e-21
842722570,-4.1523,-4.8917937,nan,0.0,0.0,0.34227774,0.0,0.0,0.08610369,nan,nan,8.0,3.1057634,-6.3734423e-22
842920209,-4.1523,-4.8917937,nan,0.0,0.0,0.33659378,0.0,0.0,-0.289016,nan,nan,-8.0,3.1057634,-7.025026e-23
843118841,-4.1523,-4.8917937,nan,0.0,0.0,0.15105535,0.0,0.0,-1.5168309,nan,nan,8.0,3.1057634,-7.712082e-24
843317013,-4.1523,-4.8917937,nan,0.0,0.0,0.0004106266,0.0,0.0,0.0,nan,nan,0.0,3.1057634,-8.483857e-25
843516870,-4.1523,-4.8917937,nan,0.0,0.0,0.00041062658,0.0,0.0,0.0,nan,nan,0.0,3.1057634,-9.195211e-26
843722866,nan,nan,nan,-0.050411925,-0.0166663,0.00041062658,0.068472676,0.34887907,0.0,nan,nan,0.0,3.1057634,-9.354588e-27
843922662,nan,nan,nan,-0.010566552,0.12829088,0.00041062658,0.16956897,0.32270408,0.0,nan,nan,0.0,3.1057634,-1.01499445e-27
844120705,nan,nan,nan,-0.00047596215,0.07159614,0.00041062658,0.015577849,-0.1900901,0.0,nan,nan,0.0,3.1057634,-1.1202281e-28
844317612,nan,nan,nan,0.003529351,0.11008566,0.00041062658,-0.0016810861,-0.20294818,0.0,nan,nan,0.0,3.1057634,-1.24701835e-29
844525020,nan,nan,nan,0.0009390291,0.028911857,0.00041062658,-0.009913943,-0.30524135,0.0,nan,nan,0.0,3.1057634,-1.2513999e-30
844723313,-4.07176,-4.8009515,nan,0.0,0.0,0.00041062658,0.0,0.0,0.0,nan,nan,0.0,3.1057634,-1.374257e-31
844922400,-4.07176,-4.8009515,nan,0.0,0.0,0.00041062658,0.0,0.0,0.0,nan,nan,0.0,3.1057634,-1.4974092e-32
845120115,-4.07176,-4.8009515,nan,0.0,0.0,0.00041062658,0.0,0.0,0.0,nan,nan,0.0,3.1057634,-1.65421e-33
845318437,-4.07176,-4.8009515,nan,0.0,0.0,0.00041062658,0.0,0.0,0.0,nan,nan,0.0,3.1057634,-1.8148879e-34
845516913,-4.07176,-4.8009515,nan,0.0,0.0,0.00041062658,0.0,0.0,0.0,nan,nan,0.0,3.1057634,-1.9909697e-35
845724022,-4.07176,-4.8009515,14.291058,0.0,0.0,0.0,0.0,0.0,0.0,nan,nan,0.0,3.1057634,-2.0061446e-36
845922606,-4.07176,-4.8009515,14.299916,0.0,0.0,-1.071021e-08,0.0,0.0,0.00041507185,nan,nan,-8.0,3.1057634,-2.199933e-37
846121592,-4.07176,-4.8009515,14.299916,0.0,0.0,0.0,0.0,0.0,0.0,nan,nan,0.0,3.1057634,-2.4184385e-38
846319090,-4.07176,-4.8009515,14.299916,0.0,0.0,0.0,0.0,0.0,0.0,nan,nan,0.0,3.1057634,-2.668767e-39
846517374,-4.07176,-4.8009515,14.299916,0.0,0.0,0.0,0.0,0.0,0.0,nan,nan,0.0,3.1057634,-2.92625e-40
846724927,-4.07176,-4.8009515,14.299916,0.0,0.0,0.0,0.0,0.0,0.0,nan,nan,0.0,3.1057634,-2.9413e-41
846923096,-4.07176,-4.8009515,14.299916,0.0,0.0,0.0,0.0,0.0,0.0,nan,nan,0.0,3.1057634,-3.23e-42
847121558,-4.07176,-4.8009515,14.299916,0.0,0.0,0.0,0.0,0.0,0.0,nan,nan,0.0,3.1057634,-3.59e-43
847321368,-4.07176,-4.8009515,14.299916,0.0,0.0,0.0,0.0,0.0,0.0,nan,nan,0.0,3.1057634,-3.8e-44
847518177,-4.07176,-4.8009515,14.299916,0.0,0.0,0.0,0.0,0.0,0.0,nan,nan,0.0,3.1057634,-3e-45
847717938,-4.07176,-4.8009515,14.299916,0.0,0.0,0.0,0.0,0.0,0.0,nan,nan,0.0,3.1057634,-1e-45
847919359,-4.07176,-4.8009515,14.299916,0.0,0.0,0.0,0.0,0.0,0.0,nan,nan,0.0,3.1057634,-1e-45
848122177,-4.07176,-4.8009515,14.294781,0.0,0.0,-2.910383e-11,0.0,0.0,0.0,nan,nan,0.0,3.1057634,-1e-45
848320675,-4.07176,-4.8009515,14.294781,0.0,0.0,0.0,0.0,0.0,0.0,nan,nan,0.0,3.1057634,-1e-45
848518786,-4.07176,-4.8009515,14.294781,0.0,0.0,0.0,0.0,0.0,0.0,nan,nan,0.0,3.1057634,-1e-45
848717157,-4.07176,-4.8009515,14.294781,0.0,0.0,0.0,0.0,0.0,0.0,nan,nan,0.0,3.1057634,-1e-45
848924674,-4.07176,-4.8009515,14.294781,0.0,0.0,0.0,0.0,0.0,0.0,nan,nan,0.0,3.1057634,-1e-45
849122903,-4.07176,-4.8009515,14.294781,0.0,0.0,0.0,0.0,0.0,0.0,nan,nan,0.0,3.1057634,-1e-45
849321322,-4.07176,-4.8009515,14.294781,0.0,0.0,0.0,0.0,0.0,0.0,nan,nan,0.0,3.1057634,-1e-45
849520321,-4.07176,-4.8009515,14.294781,0.0,0.0,0.0,0.0,0.0,0.0,nan,nan,0.0,3.1057634,-1e-45
849717994,-4.07176,-4.8009515,14.294781,0.0,0.0,0.0,0.0,0.0,0.0,nan,nan,0.0,3.1057634,-1e-45
849925254,-4.07176,-4.8009515,14.294781,0.0,0.0,0.0,0.0,0.0,0.0,nan,nan,0.0,3.1057634,-1e-45
850123725,-4.07176,-4.8009515,14.294781,0.0,0.0,0.0,0.0,0.0,0.0,nan,nan,0.0,3.1057634,-1e-45
850322106,-4.07176,-4.8009515,14.294781,0.0,0.0,0.0,0.0,0.0,0.0,nan,nan,0.0,3.1057634,-1e-45
850521876,-4.07176,-4.8009515,14.294781,0.0,0.0,0.0,0.0,0.0,0.0,nan,nan,0.0,3.1057634,-1e-45
850719502,-4.07176,-4.8009515,14.294781,0.0,0.0,0.0,0.0,0.0,0.0,nan,nan,0.0,3.1057634,-1e-45
850917035,-4.07176,-4.8009515,14.294781,0.0,0.0,0.0,0.0,0.0,0.0,nan,nan,0.0,3.1057634,-1e-45
851124669,-4.07176,-4.8009515,14.294781,0.0,0.0,0.0,0.0,0.0,0.0,nan,nan,0.0,3.1057634,-1e-45
851322678,-4.07176,-4.8009515,14.294781,0.0,0.0,0.0,0.0,0.0,0.0,nan,nan,0.0,3.1057634,-1e-45
851521197,-4.07176,-4.8009515,14.294781,0.0,0.0,0.0,0.0,0.0,0.0,nan,nan,0.0,3.1057634,-1e-45
851719316,-4.07176,-4.8009515,14.294781,0.0,0.0,0.0,0.0,0.0,0.0,nan,nan,0.0,3.1057634,-1e-45
851918402,-4.07176,-4.8009515,14.294781,0.0,0.0,0.0,0.0,0.0,0.0,nan,nan,0.0,3.1057634,-1e-45
852125162,-4.07176,-4.8009515,14.294781,0.0,0.0,0.0,0.0,0.0,0.0,nan,nan,0.0,3.1057634,-1e-45
852323554,-4.07176,-4.8009515,14.294781,0.0,0.0,0.0,0.0,0.0,0.0,nan,nan,0.0,3.1057634,-1e-45
852522091,-4.07176,-4.8009515,14.294781,0.0,0.0,0.0,0.0,0.0,0.0,nan,nan,0.0,3.1057634,-1e-45
852720032,-4.07176,-4.8009515,14.294781,0.0,0.0,0.0,0.0,0.0,0.0,nan,nan,0.0,3.1057634,-1e-45
852918581,-4.07176,-4.8009515,14.294781,0.0,0.0,0.0,0.0,0.0,0.0,nan,nan,0.0,3.1057634,-1e-45
853116645,-4.07176,-4.8009515,14.294781,0.0,0.0,0.0,0.0,0.0,0.0,nan,nan,0.0,3.1057634,-1e-45
853323928,-4.07176,-4.8009515,14.294781,0.0,0.0,0.0,0.0,0.0,0.0,nan,nan,0.0,3.1057634,-1e-45
853522613,-4.07176,-4.8009515,14.294781,0.0,0.0,0.0,0.0,0.0,0.0,nan,nan,0.0,3.1057634,-1e-45
853720821,-4.07176,-4.8009515,14.294781,0.0,0.0,0.0,0.0,0.0,0.0,nan,nan,0.0,3.1057634,-1e-45
853919217,-4.07176,-4.8009515,14.294781,0.0,0.0,0.0,0.0,0.0,0.0,nan,nan,0.0,3.1057634,-1e-45
854118208,-4.07176,-4.8009515,14.294781,0.0,0.0,0.0,0.0,0.0,0.0,nan,nan,0.0,3.1057634,-1e-45
854324866,-4.07176,-4.8009515,14.294781,0.0,0.0,0.0,0.0,0.0,0.0,nan,nan,0.0,3.1057634,-1e-45
854523031,-4.07176,-4.8009515,14.294781,0.0,0.0,0.0,0.0,0.0,0.0,nan,nan,0.0,3.1057634,-1e-45
854721727,-4.07176,-4.8009515,14.294781,0.0,0.0,0.0,0.0,0.0,0.0,nan,nan,0.0,3.1057634,-1e-45
854919749,-4.07176,-4.8009515,14.294781,0.0,0.0,0.0,0.0,0.0,0.0,nan,nan,0.0,3.1057634,-1e-45
855118116,-4.07176,-4.8009515,14.294781,0.0,0.0,0.0,0.0,0.0,0.0,nan,nan,0.0,3.1057634,-1e-45
855317373,-4.07176,-4.8009515,14.294781,0.0,0.0,0.0,0.0,0.0,0.0,nan,nan,0.0,3.1057634,-1e-45
855523760,-4.07176,-4.8009515,14.294781,0.0,0.0,0.0,0.0,0.0,0.0,nan,nan,0.0,3.1057634,-1e-45
855722142,-4.07176,-4.8009515,14.294781,0.0,0.0,0.0,0.0,0.0,0.0,nan,nan,0.0,3.1057634,-1e-45
855920503,-4.07176,-4.8009515,14.294781,0.0,0.0,0.0,0.0,0.0,0.0,nan,nan,0.0,3.1057634,-1e-45
856118894,-4.07176,-4.8009515,14.294781,0.0,0.0,0.0,0.0,0.0,0.0,nan,nan,0.0,3.1057634,-1e-45
856318776,-4.07176,-4.8009515,14.294781,0.0,0.0,0.0,0.0,0.0,0.0,nan,nan,0.0,3.1057634,-1e-45
856516643,-4.07176,-4.8009515,14.294781,0.0,0.0,0.0,0.0,0.0,0.0,nan,nan,0.0,3.1057634,-1e-45
856722882,-4.07176,-4.8009515,14.294781,0.0,0.0,0.0,0.0,0.0,0.0,nan,nan,0.0,3.1057634,-1e-45
856921269,-4.07176,-4.8009515,14.294781,0.0,0.0,0.0,0.0,0.0,0.0,nan,nan,0.0,3.1057634,-1e-45
857119892,-4.07176,-4.8009515,14.294781,0.0,0.0,0.0,0.0,0.0,0.0,nan,nan,0.0,3.1057634,-1e-45
857317957,-4.07176,-4.8009515,14.294781,0.0,0.0,0.0,0.0,0.0,0.0,nan,nan,0.0,3.1057634,-1e-45
857521042,-4.07176,-4.8009515,14.294781,0.0,0.0,0.0,0.0,0.0,0.0,nan,nan,0.0,3.1057634,-1e-45
857696526,-4.07176,-4.8009515,14.294781,0.0,0.0,0.0,0.0,0.0,0.0,nan,nan,0.0,3.1057634,-1e-45
857921845,-4.07176,-4.8009515,14.294781,0.0,0.0,0.0,0.0,0.0,0.0,nan,nan,0.0,3.1057634,-1e-45
858120419,-4.07176,-4.8009515,14.294781,0.0,0.0,0.0,0.0,0.0,0.0,nan,nan,0.0,3.1057634,-1e-45
858318611,-4.07176,-4.8009515,14.294781,0.0,0.0,0.0,0.0,0.0,0.0,nan,nan,0.0,3.1057634,-1e-45
858517080,-4.07176,-4.8009515,14.294781,0.0,0.0,0.0,0.0,0.0,0.0,nan,nan,0.0,3.1057634,-1e-45
858716994,-4.07176,-4.8009515,14.294781,0.0,0.0,0.0,0.0,0.0,0.0,nan,nan,0.0,3.1057634,-1e-45
858922610,-4.07176,-4.8009515,14.294781,0.0,0.0,0.0,0.0,0.0,0.0,nan,nan,0.0,3.1057634,-1e-45
859121050,-4.07176,-4.8009515,14.294781,0.0,0.0,0.0,0.0,0.0,0.0,nan,nan,0.0,3.1057634,-1e-45
859319597,-4.07176,-4.8009515,14.294781,0.0,0.0,0.0,0.0,0.0,0.0,nan,nan,0.0,3.1057634,-1e-45
859517790,-4.07176,-4.8009515,14.294781,0.0,0.0,0.0,0.0,0.0,0.0,nan,nan,0.0,3.1057634,-1e-45
859725495,-4.07176,-4.8009515,14.294781,0.0,0.0,0.0,0.0,0.0,0.0,nan,nan,0.0,3.1057634,-1e-45
859923484,-4.07176,-4.8009515,14.294781,0.0,0.0,0.0,0.0,0.0,0.0,nan,nan,0.0,3.1057634,-1e-45
860117102,-4.07176,-4.8009515,14.294781,0.0,0.0,0.0,0.0,0.0,0.0,nan,nan,0.0,3.1057634,-1e-45
860320368,-4.07176,-4.8009515,14.294781,0.0,0.0,0.0,0.0,0.0,0.0,nan,nan,0.0,3.1057634,-1e-45
860518304,-4.07176,-4.8009515,14.294781,0.0,0.0,0.0,0.0,0.0,0.0,nan,nan,0.0,3.1057634,-1e-45
860716808,-4.07176,-4.8009515,14.294781,0.0,0.0,0.0,0.0,0.0,0.0,nan,nan,0.0,3.1057634,-1e-45
860925092,-4.07176,-4.8009515,14.294781,0.0,0.0,0.0,0.0,0.0,0.0,nan,nan,0.0,3.1057634,-1e-45
861124840,-4.07176,-4.8009515,14.294781,0.0,0.0,0.0,0.0,0.0,0.0,nan,nan,0.0,3.1057634,-1e-45
861320733,-4.07176,-4.8009515,14.294781,0.0,0.0,0.0,0.0,0.0,0.0,nan,nan,0.0,3.1057634,-1e-45
861519141,-4.07176,-4.8009515,14.294781,0.0,0.0,0.0,0.0,0.0,0.0,nan,nan,0.0,3.1057634,-1e-45
861717612,-4.07176,-4.8009515,14.294781,0.0,0.0,0.0,0.0,0.0,0.0,nan,nan,0.0,3.1057634,-1e-45
861897932,-4.07176,-4.8009515,14.294781,0.0,0.0,0.0,0.0,0.0,0.0,nan,nan,0.0,3.1057634,-1e-45
862124048,-4.07176,-4.8009515,14.294781,0.0,0.0,0.0,0.0,0.0,0.0,nan,nan,0.0,3.1057634,-1e-45
862323459,-4.07176,-4.8009515,14.294781,0.0,0.0,0.0,0.0,0.0,0.0,nan,nan,0.0,3.1057634,-1e-45
862520205,-4.07176,-4.8009515,14.294781,0.0,0.0,0.0,0.0,0.0,0.0,nan,nan,0.0,3.1057634,-1e-45
862718313,-4.07176,-4.8009515,14.294781,0.0,0.0,0.0,0.0,0.0,0.0,nan,nan,0.0,3.1057634,-1e-45
862898431,-4.07176,-4.8009515,14.294781,0.0,0.0,0.0,0.0,0.0,0.0,nan,nan,0.0,3.1057634,-1e-45
863123932,-4.07176,-4.8009515,14.294781,0.0,0.0,0.0,0.0,0.0,0.0,nan,nan,0.0,3.1057634,-1e-45
863322196,-4.07176,-4.8009515,14.294781,0.0,0.0,0.0,0.0,0.0,0.0,nan,nan,0.0,3.1057634,-1e-45
863520501,-4.07176,-4.8009515,14.294781,0.0,0.0,0.0,0.0,0.0,0.0,nan,nan,0.0,3.1057634,-1e-45
863723445,-4.07176,-4.8009515,14.294781,0.0,0.0,0.0,0.0,0.0,0.0,nan,nan,0.0,3.1057634,-1e-45
863921721,-4.07176,-4.8009515,14.294781,0.0,0.0,0.0,0.0,0.0,0.0,nan,nan,0.0,3.1057634,-1e-45
864097645,-4.07176,-4.8009515,14.294781,0.0,0.0,0.0,0.0,0.0,0.0,nan,nan,0.0,3.1057634,-1e-45
864323133,-4.07176,-4.8009515,14.294781,0.0,0.0,0.0,0.0,0.0,0.0,nan,nan,0.0,3.1057634,-1e-45
864521270,-4.07176,-4.8009515,14.294781,0.0,0.0,0.0,0.0,0.0,0.0,nan,nan,0.0,3.1057634,-1e-45
864719668,-4.07176,-4.8009515,14.294781,0.0,0.0,0.0,0.0,0.0,0.0,nan,nan,0.0,3.1057634,-1e-45
864919453,-4.07176,-4.8009515,14.294781,0.0,0.0,0.0,0.0,0.0,0.0,nan,nan,0.0,3.1057634,-1e-45
865099916,-4.07176,-4.8009515,14.294781,0.0,0.0,0.0,0.0,0.0,0.0,nan,nan,0.0,3.1057634,-1e-45
865319237,-4.07176,-4.8009515,14.294781,0.0,0.0,0.0,0.0,0.0,0.0,nan,nan,0.0,3.1057634,-1e-45
865522766,-4.07176,-4.8009515,14.294781,0.0,0.0,0.0,0.0,0.0,0.0,nan,nan,0.0,3.1057634,-1e-45
865720232,-4.07176,-4.8009515,14.294781,0.0,0.0,0.0,0.0,0.0,0.0,nan,nan,0.0,3.1057634,-1e-45
865918583,-4.07176,-4.8009515,14.294781,0.0,0.0,0.0,0.0,0.0,0.0,nan,nan,0.0,3.1057634,-1e-45
866116864,-4.07176,-4.8009515,14.294781,0.0,0.0,0.0,0.0,0.0,0.0,nan,nan,0.0,3.1057634,-1e-45
866324195,-4.07176,-4.8009515,14.294781,0.0,0.0,0.0,0.0,0.0,0.0,nan,nan,0.0,3.1057634,-1e-45
866522711,-4.07176,-4.8009515,14.294781,0.0,0.0,0.0,0.0,0.0,0.0,nan,nan,0.0,3.1057634,-1e-45
866716698,-4.07176,-4.8009515,14.294781,0.0,0.0,0.0,0.0,0.0,0.0,nan,nan,0.0,3.1057634,-1e-45
866919270,-4.07176,-4.8009515,14.294781,0.0,0.0,0.0,0.0,0.0,0.0,nan,nan,0.0,3.1057634,-1e-45
867117492,-4.07176,-4.8009515,14.294781,0.0,0.0,0.0,0.0,0.0,0.0,nan,nan,0.0,3.1057634,-1e-45
867297905,-4.07176,-4.8009515,14.294781,0.0,0.0,0.0,0.0,0.0,0.0,nan,nan,0.0,3.1057634,-1e-45
867523369,-4.07176,-4.8009515,14.294781,0.0,0.0,0.0,0.0,0.0,0.0,nan,nan,0.0,3.1057634,-1e-45
867721646,-4.07176,-4.8009515,14.294781,0.0,0.0,0.0,0.0,0.0,0.0,nan,nan,0.0,3.1057634,-1e-45
867921495,-4.07176,-4.8009515,14.294781,0.0,0.0,0.0,0.0,0.0,0.0,nan,nan,0.0,3.1057634,-1e-45
868118679,-4.07176,-4.8009515,14.294781,0.0,0.0,0.0,0.0,0.0,0.0,nan,nan,0.0,3.1057634,-1e-45
868316715,-4.07176,-4.8009515,14.294781,0.0,0.0,0.0,0.0,0.0,0.0,nan,nan,0.0,3.1057634,-1e-45
868524161,-4.07176,-4.8009515,14.294781,0.0,0.0,0.0,0.0,0.0,0.0,nan,nan,0.0,3.1057634,-1e-45
868722541,-4.07176,-4.8009515,14.294781,0.0,0.0,0.0,0.0,0.0,0.0,nan,nan,0.0,3.1057634,-1e-45
868921126,-4.07176,-4.8009515,14.294781,0.0,0.0,0.0,0.0,0.0,0.0,nan,nan,0.0,3.1057634,-1e-45
869119179,-4.07176,-4.8009515,14.294781,0.0,0.0,0.0,0.0,0.0,0.0,nan,nan,0.0,3.1057634,-1e-45
869317354,-4.07176,-4.8009515,14.294781,0.0,0.0,0.0,0.0,0.0,0.0,nan,nan,0.0,3.1057634,-1e-45
869525275,-4.07176,-4.8009515,14.294781,0.0,0.0,0.0,0.0,0.0,0.0,nan,nan,0.0,3.1057634,-1e-45
869723126,-4.07176,-4.8009515,14.294781,0.0,0.0,0.0,0.0,0.0,0.0,nan,nan,0.0,3.1057634,-1e-45
869921348,-4.07176,-4.8009515,14.294781,0.0,0.0,0.0,0.0,0.0,0.0,nan,nan,0.0,3.1057634,-1e-45
870120602,-4.07176,-4.8009515,14.294781,0.0,0.0,0.0,0.0,0.0,0.0,nan,nan,0.0,3.1057634,-1e-45
870322611,-4.07176,-4.8009515,14.294781,0.0,0.0,0.0,0.0,0.0,0.0,nan,nan,0.0,3.1057634,-1e-45
870525546,-4.07176,-4.8009515,14.294781,0.0,0.0,0.0,0.0,0.0,0.0,nan,nan,0.0,3.1057634,-1e-45
870723981,-4.07176,-4.8009515,14.294781,0.0,0.0,0.0,0.0,0.0,0.0,nan,nan,0.0,3.1057634,-1e-45
870922071,-4.07176,-4.8009515,14.294781,0.0,0.0,0.0,0.0,0.0,0.0,nan,nan,0.0,3.1057634,-1e-45
871120459,-4.07176,-4.8009515,14.294781,0.0,0.0,0.0,0.0,0.0,0.0,nan,nan,0.0,3.1057634,-1e-45
871319607,-4.07176,-4.8009515,14.294781,0.0,0.0,0.0,0.0,0.0,0.0,nan,nan,0.0,3.1057634,-1e-45
871519091,-4.07176,-4.8009515,14.294781,0.0,0.0,0.0,0.0,0.0,0.0,nan,nan,0.0,3.1057634,-1e-45
871724567,-4.07176,-4.8009515,14.294781,0.0,0.0,0.0,0.0,0.0,0.0,nan,nan,0.0,3.1057634,-1e-45
871922744,-4.07176,-4.8009515,14.294781,0.0,0.0,0.0,0.0,0.0,0.0,nan,nan,0.0,3.1057634,-1e-45
872121143,-4.07176,-4.8009515,14.294781,0.0,0.0,0.0,0.0,0.0,0.0,nan,nan,0.0,3.1057634,-1e-45
872319483,-4.07176,-4.8009515,14.294781,0.0,0.0,0.0,0.0,0.0,0.0,nan,nan,0.0,3.1057634,-1e-45
872518606,-4.07176,-4.8009515,14.294781,0.0,0.0,0.0,0.0,0.0,0.0,nan,nan,0.0,3.1057634,-1e-45
872702546,-4.07176,-4.8009515,14.294781,0.0,0.0,0.0,0.0,0.0,0.0,nan,nan,0.0,3.1057634,-1e-45
872923493,-4.07176,-4.8009515,14.294781,0.0,0.0,0.0,0.0,0.0,0.0,nan,nan,0.0,3.1057634,-1e-45
873121867,-4.07176,-4.8009515,14.294781,0.0,0.0,0.0,0.0,0.0,0.0,nan,nan,0.0,3.1057634,-1e-45
873320189,-4.07176,-4.8009515,14.294781,0.0,0.0,0.0,0.0,0.0,0.0,nan,nan,0.0,3.1057634,-1e-45
873518890,-4.07176,-4.8009515,14.294781,0.0,0.0,0.0,0.0,0.0,0.0,nan,nan,0.0,3.1057634,-1e-45
873718818,-4.07176,-4.8009515,14.294781,0.0,0.0,0.0,0.0,0.0,0.0,nan,nan,0.0,3.1057634,-1e-45
873924133,-4.07176,-4.8009515,14.294781,0.0,0.0,0.0,0.0,0.0,0.0,nan,nan,0.0,3.1057634,-1e-45
874122667,-4.07176,-4.8009515,14.294781,0.0,0.0,0.0,0.0,0.0,0.0,nan,nan,0.0,3.1057634,-1e-45
874321052,-4.07176,-4.8009515,14.294781,0.0,0.0,0.0,0.0,0.0,0.0,nan,nan,0.0,3.1057634,-1e-45
874519252,-4.07176,-4.8009515,14.294781,0.0,0.0,0.0,0.0,0.0,0.0,nan,nan,0.0,3.1057634,-1e-45
874718396,-4.07176,-4.8009515,14.294781,0.0,0.0,0.0,0.0,0.0,0.0,nan,nan,0.0,3.1057634,-1e-45
874925027,-4.07176,-4.8009515,14.294781,0.0,0.0,0.0,0.0,0.0,0.0,nan,nan,0.0,3.1057634,-1e-45
875123256,-4.07176,-4.8009515,14.294781,0.0,0.0,0.0,0.0,0.0,0.0,nan,nan,0.0,3.1057634,-1e-45
875321734,-4.07176,-4.8009515,14.294781,0.0,0.0,0.0,0.0,0.0,0.0,nan,nan,0.0,3.1057634,-1e-45
875519878,-4.07176,-4.8009515,14.294781,0.0,0.0,0.0,0.0,0.0,0.0,nan,nan,0.0,3.1057634,-1e-45
875718537,-4.07176,-4.8009515,14.294781,0.0,0.0,0.0,0.0,0.0,0.0,nan,nan,0.0,3.1057634,-1e-45
875921138,-4.07176,-4.8009515,14.294781,0.0,0.0,0.0,0.0,0.0,0.0,nan,nan,0.0,3.1057634,-1e-45
876117223,-4.07176,-4.8009515,14.294781,0.0,0.0,0.0,0.0,0.0,0.0,nan,nan,0.0,3.1057634,-1e-45
876322471,-4.07176,-4.8009515,14.294781,0.0,0.0,0.0,0.0,0.0,0.0,nan,nan,0.0,3.1057634,-1e-45
876520589,-4.07176,-4.8009515,14.294781,0.0,0.0,0.0,0.0,0.0,0.0,nan,nan,0.0,3.1057634,-1e-45
876718979,-4.07176,-4.8009515,14.294781,0.0,0.0,0.0,0.0,0.0,0.0,nan,nan,0.0,3.1057634,-1e-45
876917523,-4.07176,-4.8009515,14.294781,0.0,0.0,0.0,0.0,0.0,0.0,nan,nan,0.0,3.1057634,-1e-45
877117263,-4.07176,-4.8009515,14.294781,0.0,0.0,0.0,0.0,0.0,0.0,nan,nan,0.0,3.1057634,-1e-45
877322973,-4.07176,-4.8009515,14.294781,0.0,0.0,0.0,0.0,0.0,0.0,nan,nan,0.0,3.1057634,-1e-45
877521574,-4.07176,-4.8009515,14.294781,0.0,0.0,0.0,0.0,0.0,0.0,nan,nan,0.0,3.1057634,-1e-45
877719855,-4.07176,-4.8009515,14.294781,0.0,0.0,0.0,0.0,0.0,0.0,nan,nan,0.0,3.1057634,-1e-45
877918061,-4.07176,-4.8009515,14.294781,0.0,0.0,0.0,0.0,0.0,0.0,nan,nan,0.0,3.1057634,-1e-45
878116625,-4.07176,-4.8009515,14.294781,0.0,0.0,0.0,0.0,0.0,0.0,nan,nan,0.0,3.1057634,-1e-45
878301166,-4.07176,-4.8009515,14.294781,0.0,0.0,0.0,0.0,0.0,0.0,nan,nan,0.0,3.1057634,-1e-45
878521970,-4.07176,-4.8009515,14.294781,0.0,0.0,0.0,0.0,0.0,0.0,nan,nan,0.0,3.1057634,-1e-45
878720641,-4.07176,-4.8009515,14.294781,0.0,0.0,0.0,0.0,0.0,0.0,nan,nan,0.0,3.1057634,-1e-45
878918709,-4.07176,-4.8009515,14.294781,0.0,0.0,0.0,0.0,0.0,0.0,nan,nan,0.0,3.1057634,-1e-45
879117214,-4.07176,-4.8009515,14.294781,0.0,0.0,0.0,0.0,0.0,0.0,nan,nan,0.0,3.1057634,-1e-45
879325258,-4.07176,-4.8009515,14.294781,0.0,0.0,0.0,0.0,0.0,0.0,nan,nan,0.0,3.1057634,-1e-45
879518156,-4.07176,-4.8009515,14.294781,0.0,0.0,0.0,0.0,0.0,0.0,nan,nan,0.0,3.1057634,-1e-45
879722543,-4.07176,-4.8009515,14.294781,0.0,0.0,0.0,0.0,0.0,0.0,nan,nan,0.0,3.1057634,-1e-45
879919440,-4.07176,-4.8009515,14.294781,0.0,0.0,0.0,0.0,0.0,0.0,nan,nan,0.0,3.1057634,-1e-45
880117745,-4.07176,-4.8009515,14.294781,0.0,0.0,0.0,0.0,0.0,0.0,nan,nan,0.0,3.1057634,-1e-45
880325402,-4.07176,-4.8009515,14.294781,0.0,0.0,0.0,0.0,0.0,0.0,nan,nan,0.0,3.1057634,-1e-45
880525617,-4.07176,-4.8009515,14.294781,0.0,0.0,0.0,0.0,0.0,0.0,nan,nan,0.0,3.1057634,-1e-45
880723360,-4.07176,-4.8009515,14.294781,0.0,0.0,0.0,0.0,0.0,0.0,nan,nan,0.0,3.1057634,-1e-45
880920103,-4.07176,-4.8009515,14.294781,0.0,0.0,0.0,0.0,0.0,0.0,nan,nan,0.0,3.1057634,-1e-45
881118301,-4.07176,-4.8009515,14.294781,0.0,0.0,0.0,0.0,0.0,0.0,nan,nan,0.0,3.1057634,-1e-45
881316865,-4.07176,-4.8009515,nan,0.0,0.0,-0.010994356,0.0,0.0,-0.13176,nan,nan,-8.0,nan,0.028212303
881519608,-4.07176,-4.8009515,nan,0.0,0.0,-0.20213193,0.0,0.0,-1.7537282,nan,nan,-8.0,nan,0.042232666
881717802,-4.07176,-4.8009515,nan,0.0,0.0,-0.54540175,0.0,0.0,-2.0682805,nan,nan,-8.0,nan,0.0046597435
881920869,-4.07176,-4.8009515,nan,0.0,0.0,-1.0005342,0.0,0.0,-1.7281662,nan,nan,8.0,nan,0.00048924
882119079,-4.07176,-4.8009515,nan,0.0,0.0,-1.1859198,0.0,0.0,-0.14279315,nan,nan,8.0,nan,5.3760315e-05
882317605,-4.07176,-4.8009515,nan,0.0,0.0,-1.0565643,0.0,0.0,1.4457108,nan,nan,8.0,nan,5.8836326e-06
882517349,-4.07176,-4.8009515,nan,0.0,0.0,-0.6083268,0.0,0.0,3.0,nan,nan,0.0,nan,6.379235e-07
882718784,-4.07176,-4.8009515,nan,0.0,0.0,-0.14268686,0.0,0.0,1.5109568,nan,nan,-8.0,3.1178682,6.7981716e-08
882923492,-4.07176,-4.8009515,13.286947,0.0,0.0,-6.377121e-13,0.0,0.0,0.0,nan,nan,0.0,3.1178682,7.0012605e-09
883119860,-4.07176,-4.8009515,13.286947,0.0,0.0,0.0,0.0,0.0,0.0,nan,nan,0.0,3.1178682,7.841947e-10
883318116,-4.07176,-4.8009515,13.286947,0.0,0.0,0.0,0.0,0.0,0.0,nan,nan,0.0,3.1178682,8.6043964e-11
883516599,-4.07176,-4.8009515,13.286947,0.0,0.0,0.0,0.0,0.0,0.0,nan,nan,0.0,3.1178682,9.465536e-12
883723972,-4.07176,-4.8009515,13.286947,0.0,0.0,0.0,0.0,0.0,0.0,nan,nan,0.0,3.1178682,9.50447e-13
883923755,-4.07176,-4.8009515,13.286947,0.0,0.0,0.0,0.0,0.0,0.0,nan,nan,0.0,3.1178682,1.0313549e-13
884120616,-4.07176,-4.8009515,13.286947,0.0,0.0,0.0,0.0,0.0,0.0,nan,nan,0.0,3.1178682,1.15238875e-14
884318912,-4.07176,-4.8009515,13.286947,0.0,0.0,0.0,0.0,0.0,0.0,nan,nan,0.0,3.1178682,1.2639669e-15
884521543,-4.07176,-4.8009515,13.286947,0.0,0.0,0.0,0.0,0.0,0.0,nan,nan,0.0,3.1178682,1.3309008e-16
884724525,-4.07176,-4.8009515,13.286947,0.0,0.0,0.0,0.0,0.0,0.0,nan,nan,0.0,3.1178682,1.3970937e-17
884923273,-4.07176,-4.8009515,13.286947,0.0,0.0,0.0,0.0,0.0,0.0,nan,nan,0.0,3.1178682,1.5306553e-18
885121155,-4.07176,-4.8009515,13.286947,0.0,0.0,0.0,0.0,0.0,0.0,nan,nan,0.0,3.1178682,1.6867125e-19
885319667,-4.07176,-4.8009515,13.286947,0.0,0.0,0.0,0.0,0.0,0.0,nan,nan,0.0,3.1178682,1.850408e-20
885517952,-4.07176,-4.8009515,13.286947,0.0,0.0,0.0,0.0,0.0,0.0,nan,nan,0.0,3.1178682,2.0315158e-21
885716602,-4.07176,-4.8009515,nan,0.0,0.0,0.017801628,0.0,0.0,-0.61725694,nan,nan,8.0,3.1178682,2.2242258e-22
885923677,-4.07176,-4.8009515,nan,0.0,0.0,-0.0088990275,0.0,0.0,-0.21495199,nan,nan,-8.0,3.1178682,2.2443915e-23
886123098,-4.07176,-4.8009515,nan,0.0,0.0,-0.15328713,0.0,0.0,-0.45377874,nan,nan,8.0,3.1178682,2.4404907e-24
886320404,-4.07176,-4.8009515,nan,0.0,0.0,-0.16615681,0.0,0.0,0.0,nan,nan,0.0,3.1178682,2.7369482e-25
886518642,-4.07176,-4.8009515,nan,0.0,0.0,-0.22132865,0.0,0.0,0.09992829,nan,nan,-8.0,3.1178682,3.0134277e-26
886717031,-4.07176,-4.8009515,nan,0.0,0.0,-0.22202252,0.0,0.0,-0.145216,nan,nan,-8.0,3.1178682,3.304202e-27
886916843,-4.07176,-4.8009515,nan,0.0,0.0,-0.36508375,0.0,0.0,-0.88599575,nan,nan,8.0,3.1178682,3.5728735e-28
887116616,-4.07176,-4.8009515,nan,0.0,0.0,-0.41414547,0.0,0.0,0.0,nan,nan,0.0,3.1178682,3.8744977e-29
887322674,-4.07176,-4.8009515,nan,0.0,0.0,-0.41414547,0.0,0.0,0.0,nan,nan,0.0,3.1178682,3.9508963e-30
887521515,-4.07176,-4.8009515,nan,0.0,0.0,-0.38751122,0.0,0.0,0.65279996,nan,nan,8.0,3.1178682,4.3443826e-31
887719169,-4.07176,-4.8009515,nan,0.0,0.0,-0.2620403,0.0,0.0,0.0,nan,nan,0.0,3.1178682,4.780909e-32
887917444,-4.07176,-4.8009515,nan,0.0,0.0,-0.13451697,0.0,0.0,1.1638696,nan,nan,-8.0,3.1178682,5.2643148e-33
888097801,-4.07176,-4.8009515,nan,0.0,0.0,-0.049854964,0.0,0.0,0.0,nan,nan,0.0,3.1178682,7.0818897e-34
888323463,-4.07176,-4.8009515,nan,0.0,0.0,-0.052360386,0.0,0.0,0.06313187,nan,nan,8.0,3.1178682,5.8112377e-35
888521453,-4.07176,-4.8009515,nan,0.0,0.0,-0.052562084,0.0,0.0,0.027540088,nan,nan,8.0,3.1178682,6.419094e-36
888720576,-4.07176,-4.8009515,nan,0.0,0.0,-0.05002878,0.0,0.0,-0.006528005,nan,nan,-8.0,3.1178682,7.0134347e-37
888918062,-4.07176,-4.8009515,nan,0.0,0.0,-0.05260949,0.0,0.0,0.0,nan,nan,0.0,3.1178682,7.7866013e-38
889125572,-4.07176,-4.8009515,nan,0.0,0.0,-0.05260949,0.0,0.0,0.0,nan,nan,0.0,3.1178682,7.83778e-39
889319319,-4.07176,-4.8009515,nan,0.0,0.0,-0.05260949,0.0,0.0,0.0,nan,nan,0.0,3.1178682,8.99805e-40
889522253,-4.07176,-4.8009515,nan,0.0,0.0,-0.05260949,0.0,0.0,0.0,nan,nan,0.0,3.1178682,9.4808e-41
889720629,-4.07176,-4.8009515,nan,0.0,0.0,-0.05260949,0.0,0.0,0.0,nan,nan,0.0,3.1178682,1.0407e-41
889918772,-4.07176,-4.8009515,nan,0.0,0.0,-0.05260949,0.0,0.0,0.0,nan,nan,0.0,3.1178682,1.149e-42
890117652,-4.07176,-4.8009515,12.7559805,0.0,0.0,0.0,0.0,0.0,0.0,nan,nan,0.0,3.1178682,1.26e-43
890324592,-4.07176,-4.8009515,12.7559805,0.0,0.0,0.0,0.0,0.0,0.0,nan,nan,0.0,3.1178682,1.3e-44
890523190,-4.07176,-4.8009515,12.7559805,0.0,0.0,0.0,0.0,0.0,0.0,nan,nan,0.0,3.1178682,1e-45
890721087,-4.07176,-4.8009515,12.7559805,0.0,0.0,0.0,0.0,0.0,0.0,nan,nan,0.0,3.1178682,1e-45
890919971,-4.07176,-4.8009515,12.7559805,0.0,0.0,0.0,0.0,0.0,0.0,nan,nan,0.0,3.1178682,1e-45
891117820,-4.07176,-4.8009515,12.7559805,0.0,0.0,0.0,0.0,0.0,0.0,nan,nan,0.0,3.1178682,1e-45
891325176,-4.07176,-4.8009515,12.7559805,0.0,0.0,0.0,0.0,0.0,0.0,nan,nan,0.0,3.1178682,1e-45
891525207,-4.07176,-4.8009515,12.7559805,0.0,0.0,0.0,0.0,0.0,0.0,nan,nan,0.0,3.1178682,1e-45
891722030,-4.07176,-4.8009515,12.7559805,0.0,0.0,0.0,0.0,0.0,0.0,nan,nan,0.0,3.1178682,1e-45
891920178,-4.07176,-4.8009515,12.7559805,0.0,0.0,0.0,0.0,0.0,0.0,nan,nan,0.0,3.1178682,1e-45
892119086,-4.07176,-4.8009515,12.7559805,0.0,0.0,0.0,0.0,0.0,0.0,nan,nan,0.0,3.1178682,1e-45
892317025,-4.07176,-4.8009515,12.7559805,0.0,0.0,0.0,0.0,0.0,0.0,nan,nan,0.0,3.1178682,1e-45
892501702,-4.07176,-4.8009515,12.7559805,0.0,0.0,0.0,0.0,0.0,0.0,nan,nan,0.0,3.1178682,1e-45
892722619,-4.07176,-4.8009515,12.7559805,0.0,0.0,0.0,0.0,0.0,0.0,nan,nan,0.0,3.1178682,1e-45
892921155,-4.07176,-4.8009515,12.7559805,0.0,0.0,0.0,0.0,0.0,0.0,nan,nan,0.0,3.1178682,1e-45
893119214,-4.07176,-4.8009515,nan,0.0,0.0,-0.03778888,0.0,0.0,1.2608663,nan,nan,-8.0,3.1178682,1e-45
893319164,-4.07176,-4.8009515,nan,0.0,0.0,0.054401662,0.0,0.0,-0.33872566,nan,nan,-8.0,3.1178682,1e-45
893525034,-4.07176,-4.8009515,nan,0.0,0.0,0.037589088,0.0,0.0,0.0,nan,nan,0.0,3.1178682,1e-45
893723197,-4.07176,-4.8009515,nan,0.0,0.0,0.037589088,0.0,0.0,0.0,nan,nan,0.0,3.1178682,1e-45
893921576,-4.07176,-4.8009515,nan,0.0,0.0,0.09676451,0.0,0.0,0.97304,nan,nan,8.0,3.1178682,1e-45
894120023,-4.07176,-4.8009515,nan,0.0,0.0,0.20225646,0.0,0.0,-0.24013834,nan,nan,-8.0,3.1178682,1e-45
894318450,-4.07176,-4.8009515,nan,0.0,0.0,0.18512763,0.0,0.0,0.0,nan,nan,0.0,3.1178682,1e-45
894518355,-4.07176,-4.8009515,nan,0.0,0.0,0.1300865,0.0,0.0,-0.42831066,nan,nan,8.0,3.1178682,1e-45
894723832,-4.07176,-4.8009515,nan,0.0,0.0,0.118632376,0.0,0.0,-0.013566107,nan,nan,8.0,3.1178682,1e-45
894922482,-4.07176,-4.8009515,nan,0.0,0.0,0.11862087,0.0,0.0,0.0,nan,nan,0.0,3.1178682,1e-45
895120708,-4.07176,-4.8009515,nan,0.0,0.0,0.11862087,0.0,0.0,0.0,nan,nan,0.0,3.1178682,1e-45
895320494,-4.07176,-4.8009515,nan,0.0,0.0,0.11862323,0.0,0.0,-0.0061320662,nan,nan,8.0,3.1178682,1e-45
895518373,-4.07176,-4.8009515,nan,0.0,0.0,0.117037386,0.0,0.0,0.0,nan,nan,0.0,3.1178682,1e-45
895724681,-4.07176,-4.8009515,nan,0.0,0.0,0.117037386,0.0,0.0,0.0,nan,nan,0.0,3.1178682,1e-45
895923053,-4.07176,-4.8009515,nan,0.0,0.0,0.117037386,0.0,0.0,0.0,nan,nan,0.0,3.1178682,1e-45
896121596,-4.07176,-4.8009515,nan,0.0,0.0,0.117037386,0.0,0.0,0.0,nan,nan,0.0,3.1178682,1e-45
896324282,-4.07176,-4.8009515,nan,0.0,0.0,0.117037386,0.0,0.0,0.0,nan,nan,0.0,3.1178682,1e-45
896518092,-4.07176,-4.8009515,nan,0.0,0.0,0.117037386,0.0,0.0,0.0,nan,nan,0.0,3.1178682,1e-45
896717119,-4.07176,-4.8009515,nan,0.0,0.0,0.117037386,0.0,0.0,0.0,nan,nan,0.0,3.1178682,1e-45
896923642,-4.07176,-4.8009515,nan,0.0,0.0,0.117037386,0.0,0.0,0.0,nan,nan,0.0,3.1178682,1e-45
897122081,-4.07176,-4.8009515,nan,0.0,0.0,0.117037386,0.0,0.0,0.0,nan,nan,0.0,3.1178682,1e-45
897320269,-4.07176,-4.8009515,nan,0.0,0.0,0.117037386,0.0,0.0,0.0,nan,nan,0.0,3.1178682,1e-45
897518714,-4.07176,-4.8009515,nan,0.0,0.0,0.11587704,0.0,0.0,-0.08177248,nan,nan,8.0,3.1178682,1e-45
897717046,-4.07176,-4.8009515,nan,0.0,0.0,0.038982797,0.0,0.0,0.0,nan,nan,0.0,3.1178682,1e-45
897924626,-4.07176,-4.8009515,nan,0.0,0.0,0.038982797,0.0,0.0,0.0,nan,nan,0.0,3.1178682,1e-45
898122589,-4.07176,-4.8009515,nan,0.0,0.0,0.025204986,0.0,0.0,-0.43212306,nan,nan,-8.0,3.1178682,1e-45
898320990,-4.07176,-4.8009515,13.474079,0.0,0.0,0.0,0.0,0.0,0.0,nan,nan,0.0,3.1178682,1e-45
898519497,-4.07176,-4.8009515,13.474079,0.0,0.0,0.0,0.0,0.0,0.0,nan,nan,0.0,3.1178682,1e-45
898717797,-4.07176,-4.8009515,13.474079,0.0,0.0,0.0,0.0,0.0,0.0,nan,nan,0.0,3.1178682,1e-45
898925772,-4.07176,-4.8009515,13.474079,0.0,0.0,0.0,0.0,0.0,0.0,nan,nan,0.0,3.1178682,1e-45
899123501,-4.07176,-4.8009515,13.474079,0.0,0.0,0.0,0.0,0.0,0.0,nan,nan,0.0,3.1178682,1e-45
899321545,-4.07176,-4.8009515,13.474079,0.0,0.0,0.0,0.0,0.0,0.0,nan,nan,0.0,3.1178682,1e-45
899520327,-4.07176,-4.8009515,13.474079,0.0,0.0,0.0,0.0,0.0,0.0,nan,nan,0.0,3.1178682,1e-45
899718499,-4.07176,-4.8009515,13.474079,0.0,0.0,0.0,0.0,0.0,0.0,nan,nan,0.0,3.1178682,1e-45
899916732,-4.07176,-4.8009515,13.474079,0.0,0.0,0.0,0.0,0.0,0.0,nan,nan,0.0,3.1178682,1e-45
900124073,-4.07176,-4.8009515,13.474079,0.0,0.0,0.0,0.0,0.0,0.0,nan,nan,0.0,3.1178682,1e-45
900322476,-4.07176,-4.8009515,13.474079,0.0,0.0,0.0,0.0,0.0,0.0,nan,nan,0.0,3.1178682,1e-45
900522170,-4.07176,-4.8009515,13.474079,0.0,0.0,0.0,0.0,0.0,0.0,nan,nan,0.0,3.1178682,1e-45
900723507,-4.07176,-4.8009515,13.474079,0.0,0.0,0.0,0.0,0.0,0.0,nan,nan,0.0,3.1178682,1e-45
900917570,-4.07176,-4.8009515,13.474079,0.0,0.0,0.0,0.0,0.0,0.0,nan,nan,0.0,3.1178682,1e-45
901124938,-4.07176,-4.8009515,13.474079,0.0,0.0,0.0,0.0,0.0,0.0,nan,nan,0.0,3.1178682,1e-45
901318674,-4.07176,-4.8009515,13.474079,0.0,0.0,0.0,0.0,0.0,0.0,nan,nan,0.0,3.1178682,1e-45
901522879,-4.07176,-4.8009515,nan,0.0,0.0,-0.0582304,0.0,0.0,0.0,nan,nan,0.0,3.1178682,1e-45
901719785,-4.07176,-4.8009515,nan,0.0,0.0,0.035650108,0.0,0.0,0.17613558,nan,nan,-8.0,3.1178682,1e-45
901918106,-4.07176,-4.8009515,nan,0.0,0.0,0.037589088,0.0,0.0,0.0,nan,nan,0.0,3.1178682,1e-45
902098734,-4.07176,-4.8009515,nan,0.0,0.0,0.037589088,0.0,0.0,0.0,nan,nan,0.0,3.1178682,1e-45
902298452,-4.07176,-4.8009515,nan,0.0,0.0,0.037589088,0.0,0.0,0.0,nan,nan,0.0,3.1178682,1e-45
902522176,-4.07176,-4.8009515,nan,0.0,0.0,0.037589088,0.0,0.0,0.0,nan,nan,0.0,3.1178682,1e-45
