timestamp,timestamp_sample,ref_timestamp,ref_lat,ref_lon,x,y,z,delta_xy[0],delta_xy[1],delta_z,vx,vy,vz,z_deriv,delta_vxy[0],delta_vxy[1],delta_vz,ax,ay,az,heading,delta_heading,ref_alt,dist_bottom,eph,epv,evh,evv,vxy_max,vz_max,hagl_min,hagl_max,xy_valid,z_valid,v_xy_valid,v_z_valid,xy_reset_counter,z_reset_counter,vxy_reset_counter,vz_reset_counter,heading_reset_counter,heading_good_for_control,xy_global,z_global,dist_bottom_valid,dist_bottom_sensor_bitfield,dead_reckoning
185891877,185890800,20718320,41.1790497,-8.603618899999999,-0.7458493,0.89509946,2.0362027,-0.00045489697,0.0003034392,-2.4914742e-05,0.013307977,0.015631955,0.018386334,0.0078411875,0.015570171,0.0037364298,0.008197296,-0.050867315,0.4343152,-0.5148699,-1.8114696,-0.010098422,113.10937,0.094732046,0.3650482,0.30801338,0.14269724,0.097622454,inf,inf,inf,inf,1,1,1,1,2,2,2,2,2,0,1,1,0,0,0
185901889,185900795,20718320,41.1790497,-8.603618899999999,-0.7457289,0.8953097,2.0360856,-0.00045489697,0.0003034392,-2.4914742e-05,0.013018759,0.013311853,0.017559795,0.0068424465,0.015570171,0.0037364298,0.008197296,-0.4182738,-0.31495225,0.34667635,-1.8115758,-0.010098422,113.10937,0.09278083,0.36588752,0.30749884,0.1431553,0.097630784,inf,inf,inf,inf,1,1,1,1,2,2,2,2,2,0,1,1,0,0,0
186001800,186000743,20718320,41.1790497,-8.603618899999999,-0.7454346,0.8985373,2.03463,-0.00045489697,0.0003034392,-2.4914742e-05,0.013331043,0.01638669,0.018494748,0.005698113,0.015570171,0.0037364298,0.008197296,-0.010732027,0.46141362,-0.2322779,-1.8121034,-0.010098422,113.10937,0.09230757,0.3576753,0.3043322,0.13865933,0.096287444,inf,inf,inf,inf,1,1,1,1,2,2,2,2,2,0,1,1,0,0,0
186091714,186090696,20718320,41.1790497,-8.603618899999999,-0.7451606,0.9013681,2.033581,-0.00045489697,0.0003034392,-2.4914742e-05,0.011111304,0.015293874,0.018345669,0.004187667,0.015570171,0.0037364298,0.008197296,-1.2362231,0.36708438,-0.20227057,-1.812561,-0.010098422,113.10937,0.09316802,0.36501,0.30796197,0.14267154,0.09760841,inf,inf,inf,inf,1,1,1,1,2,2,2,2,2,0,1,1,0,0,0
186201668,186200639,20718320,41.1790497,-8.603618899999999,-0.74451125,0.9056824,2.0324967,-0.00045489697,0.0003034392,-2.4914742e-05,0.013456088,0.013464247,0.021126846,0.005730871,0.015570171,0.0037364298,0.008197296,-0.08353899,0.22680563,0.81362814,-1.812916,-0.010098422,113.10937,0.09410787,0.35764232,0.3042753,0.13863248,0.096271746,inf,inf,inf,inf,1,1,1,1,2,2,2,2,2,0,1,1,0,0,0
186301629,186300587,20718320,41.1790497,-8.603618899999999,-0.74371743,0.90943253,2.0321171,-0.00045489697,0.0003034392,-2.4914742e-05,0.016556831,0.013567461,0.0170189,0.0012539466,0.015570171,0.0037364298,0.008197296,1.0423766,-1.0502173,0.24778804,-1.8131421,-0.010098422,113.10937,0.09672141,0.3658128,0.3085734,0.1430763,0.09777785,inf,inf,inf,inf,1,1,1,1,2,2,2,2,2,0,1,1,0,0,0
186401716,186400535,20718320,41.1790497,-8.603618899999999,-0.74323153,0.9126386,2.0313618,-0.00045489697,0.0003034392,-2.4914742e-05,0.014440381,0.014534902,0.01881335,0.0022885867,0.015570171,0.0037364298,0.008197296,-0.02514235,0.25816965,0.24098456,-1.8136199,-0.010098422,113.10937,0.09365153,0.35761115,0.30422243,0.13860422,0.09625889,inf,inf,inf,inf,1,1,1,1,2,2,2,2,2,0,1,1,0,0,0
186501661,186500483,20718320,41.1790497,-8.603618899999999,-0.7426442,0.9152168,2.0306365,-0.00045489697,0.0003034392,-2.4914742e-05,0.014945324,0.016186437,0.015623372,-0.0015419669,0.015570171,0.0037364298,0.008197296,1.053412,0.07386328,-0.6225701,-1.8139275,-0.010098422,113.10937,0.095370054,0.36577886,0.30852002,0.14305882,0.09776464,inf,inf,inf,inf,1,1,1,1,2,2,2,2,2,0,1,1,0,0,0
186591426,186590437,20718320,41.1790497,-8.603618899999999,-0.7422306,0.91839427,2.0296078,-0.00045489697,0.0003034392,-2.4914742e-05,0.009703224,0.015507594,0.014321229,-0.003718834,0.015570171,0.0037364298,0.008197296,-1.0288202,-0.19157343,-0.37824604,-1.8143897,-0.010098422,113.10937,0.09315324,0.3567918,0.30352238,0.13812824,0.09606309,inf,inf,inf,inf,1,1,1,1,2,2,2,2,2,0,1,1,0,0,0
186701589,186700380,20718320,41.1790497,-8.603618899999999,-0.74166685,0.92216855,2.028455,-0.00045489697,0.0003034392,-2.4914742e-05,0.011290493,0.01425436,0.015955854,-0.002881393,0.015570171,0.0037364298,0.008197296,-0.2734306,-0.2604702,-0.5224039,-1.8149997,-0.010098422,113.10937,0.09531975,0.36574748,0.30847073,0.14303645,0.09775302,inf,inf,inf,inf,1,1,1,1,2,2,2,2,2,0,1,1,0,0,0
186791414,186790333,20718320,41.1790497,-8.603618899999999,-0.74169624,0.9253586,2.0280142,-0.00045489697,0.0003034392,-2.4914742e-05,0.0132643785,0.013911851,0.016194321,-0.0026905937,0.015570171,0.0037364298,0.008197296,1.0221424,-0.2299859,-0.29737318,-1.8155231,-0.010098422,113.10937,0.09771943,0.3568217,0.30350488,0.13818616,0.09607071,inf,inf,inf,inf,1,1,1,1,2,2,2,2,2,0,1,1,0,0,0
186901620,186900276,20718320,41.1790497,-8.603618899999999,-0.74150586,0.9286304,2.0293891,-0.00045489697,0.0003034392,-2.4914742e-05,0.010750709,0.016122915,0.014414021,-0.002678893,0.015570171,0.0037364298,0.008197296,0.090496935,0.060377117,-0.7906593,-1.8158656,-0.010098422,113.10937,0.10087061,0.3657825,0.3084543,0.14309356,0.097761475,inf,inf,inf,inf,1,1,1,1,2,2,2,2,2,0,1,1,0,0,0
187001410,187000224,20718320,41.1790497,-8.603618899999999,-0.7409167,0.9311755,2.0308118,-0.00045489697,0.0003034392,-2.4914742e-05,0.0110345585,0.013061357,0.015810512,0.0003305009,0.015570171,0.0037364298,0.008197296,-0.5179865,0.38430756,-0.05045853,-1.8161914,-0.010098422,113.10937,0.101397276,0.35764134,0.30414099,0.13868757,0.096262336,inf,inf,inf,inf,1,1,1,1,2,2,2,2,2,0,1,1,0,0,0
187101317,187100172,20718320,41.1790497,-8.603618899999999,-0.74007416,0.9332255,2.0331824,-0.00045489697,0.0003034392,-2.4914742e-05,0.0063799103,0.01467161,0.016062126,0.0029406678,0.015570171,0.0037364298,0.008197296,-1.3607318,0.7227634,-0.67653954,-1.8166168,-0.010098422,113.10937,0.10316229,0.3658156,0.30844027,0.1431478,0.09776899,inf,inf,inf,inf,1,1,1,1,2,2,2,2,2,0,1,1,0,0,0
187201209,187200120,20718320,41.1790497,-8.603618899999999,-0.7407409,0.9350928,2.0346634,-0.00045489697,0.0003034392,-2.4914742e-05,0.01304318,0.0074963067,0.018038047,0.0061125173,0.015570171,0.0037364298,0.008197296,0.5440677,-1.0548527,0.7933629,-1.8169596,-0.010098422,113.10937,0.09860325,0.35761103,0.30410025,0.13865311,0.09625163,inf,inf,inf,inf,1,1,1,1,2,2,2,2,2,0,1,1,0,0,0
187301215,187300068,20718320,41.1790497,-8.603618899999999,-0.7416042,0.93660367,2.035845,-0.00045489697,0.0003034392,-2.4914742e-05,0.011017719,0.01122628,0.019096252,0.007915135,0.015570171,0.0037364298,0.008197296,0.462584,-0.23770867,0.21544579,-1.8173939,-0.010098422,113.10937,0.09870052,0.36578217,0.30839923,0.14311066,0.0977591,inf,inf,inf,inf,1,1,1,1,2,2,2,2,2,0,1,1,0,0,0
187401027,187400016,20718320,41.1790497,-8.603618899999999,-0.74229443,0.9383795,2.036678,-0.00045489697,0.0003034392,-2.4914742e-05,0.0149293495,0.009963395,0.016682545,0.0057659126,0.015570171,0.0037364298,0.008197296,1.7465978,-0.2565536,-0.12121027,-1.817858,-0.010098422,113.10937,0.09825277,0.3575828,0.3040626,0.13861798,0.09624292,inf,inf,inf,inf,1,1,1,1,2,2,2,2,2,0,1,1,0,0,0
187491043,187489969,20718320,41.1790497,-8.603618899999999,-0.7425395,0.93980855,2.0379627,-0.00045489697,0.0003034392,-2.4914742e-05,0.00765877,0.0076526143,0.016597223,0.0064067435,0.015570171,0.0037364298,0.008197296,-0.9549447,-0.27066976,-0.028706472,-1.8183262,-0.010098422,113.10937,0.10110664,0.36491287,0.30769297,0.14263305,0.09756487,inf,inf,inf,inf,1,1,1,1,2,2,2,2,2,0,1,1,0,0,0
187600995,187599912,20718320,41.1790497,-8.603618899999999,-0.7420071,0.94246185,2.0404718,-0.00045489697,0.0003034392,-2.4914742e-05,0.0085901525,0.008939465,0.017719321,0.009201377,0.015570171,0.0037364298,0.008197296,-0.781873,-0.05958568,0.0077420287,-1.8188887,-0.010098422,113.10937,0.101864815,0.35761407,0.30405566,0.13866499,0.09625258,inf,inf,inf,inf,1,1,1,1,2,2,2,2,2,0,1,1,0,0,0
187700895,187699860,20718320,41.1790497,-8.603618899999999,-0.7411332,0.94470716,2.043331,-0.00045489697,0.0003034392,-2.4914742e-05,0.0133794425,0.008649616,0.023134068,0.016447568,0.015570171,0.0037364298,0.008197296,0.40085408,-0.43161583,0.9767768,-1.8193156,-0.010098422,113.10937,0.102660894,0.36578712,0.30835557,0.14313972,0.09775959,inf,inf,inf,inf,1,1,1,1,2,2,2,2,2,0,1,1,0,0,0
187800819,187799809,20718320,41.1790497,-8.603618899999999,-0.7406724,0.9473874,2.0457132,-0.00045489697,0.0003034392,-2.4914742e-05,0.010542111,0.011505532,0.01756635,0.011959382,0.015570171,0.0037364298,0.008197296,-0.28863207,-0.39893225,-0.087271675,-1.8196123,-0.010098422,113.10937,0.10101509,0.35760236,0.30401298,0.13863112,0.09624149,inf,inf,inf,inf,1,1,1,1,2,2,2,2,2,0,1,1,0,0,0
187900888,187899756,20718320,41.1790497,-8.603618899999999,-0.740075,0.9497659,2.0484548,-0.00045489697,0.0003034392,-2.4914742e-05,0.010448287,0.009109544,0.01934664,0.014970159,0.015570171,0.0037364298,0.008197296,-0.03436439,-0.03603182,-0.46715683,-1.8200045,-0.010098422,113.10937,0.10152769,0.36577284,0.3083024,0.14311764,0.097744934,inf,inf,inf,inf,1,1,1,1,2,2,2,2,2,0,1,1,0,0,0
188000683,187999704,20718320,41.1790497,-8.603618899999999,-0.7398679,0.9523266,2.0503342,-0.00045489697,0.0003034392,-2.4914742e-05,0.0113434745,0.010001064,0.02237673,0.018187957,0.015570171,0.0037364298,0.008197296,-0.028543685,-0.10305115,0.22526781,-1.820396,-0.010098422,113.10937,0.09824777,0.35759097,0.3039642,0.13862565,0.09622842,inf,inf,inf,inf,1,1,1,1,2,2,2,2,2,0,1,1,0,0,0
188100693,188099652,20718320,41.1790497,-8.603618899999999,-0.739641,0.9544928,2.051563,-0.00045489697,0.0003034392,-2.4914742e-05,0.011734422,0.006972067,0.023580015,0.018939976,0.015570171,0.0037364298,0.008197296,0.7102094,-0.063746676,0.5214802,-1.8208872,-0.010098422,113.10937,0.09690809,0.36575925,0.30825314,0.14307916,0.097732484,inf,inf,inf,inf,1,1,1,1,2,2,2,2,2,0,1,1,0,0,0
188200728,188199600,20718320,41.1790497,-8.603618899999999,-0.7401165,0.9567304,2.0522566,-0.00045489697,0.0003034392,-2.4914742e-05,0.010169862,0.014627718,0.021063745,0.015485847,0.015570171,0.0037364298,0.008197296,0.57994145,1.2929621,0.72714424,-1.8211228,-0.010098422,113.10937,0.0958817,0.3575798,0.30391896,0.138592,0.09621761,inf,inf,inf,inf,1,1,1,1,2,2,2,2,2,0,1,1,0,0,0
188300575,188299549,20718320,41.1790497,-8.603618899999999,-0.7405465,0.9585908,2.0531118,-0.00045489697,0.0003034392,-2.4914742e-05,0.012892077,0.0022362212,0.020248469,0.01399647,0.015570171,0.0037364298,0.008197296,0.77620596,-2.14667,-1.4854653,-1.8207517,-0.010098422,113.10937,0.09809923,0.36574587,0.3082075,0.14306423,0.09772128,inf,inf,inf,inf,1,1,1,1,2,2,2,2,2,0,1,1,0,0,0
188400646,188399497,20718320,41.1790497,-8.603618899999999,-0.74042314,0.96146625,2.0544722,-0.00045489697,0.0003034392,-2.4914742e-05,0.008507421,0.0085871,0.021209743,0.01475346,0.015570171,0.0037364298,0.008197296,0.49757865,0.15738587,1.584686,-1.8208848,-0.010098422,113.10937,0.098380804,0.35756886,0.303877,0.13858719,0.09620878,inf,inf,inf,inf,1,1,1,1,2,2,2,2,2,0,1,1,0,0,0
188500560,188499445,20718320,41.1790497,-8.603618899999999,-0.73989767,0.96432716,2.0573657,-0.00045489697,0.0003034392,-2.4914742e-05,0.012035299,0.000876064,0.014265065,0.009026867,0.015570171,0.0037364298,0.008197296,1.6366361,-2.2883043,-3.7584527,-1.8205621,-0.010098422,113.10937,0.102039814,0.36573297,0.3081653,0.14304677,0.09771258,inf,inf,inf,inf,1,1,1,1,2,2,2,2,2,0,1,1,0,0,0
188600566,188599393,20718320,41.1790497,-8.603618899999999,-0.7403243,0.9665094,2.0603578,-0.00045489697,0.0003034392,-2.4914742e-05,-0.0024463646,0.011980957,0.031527344,0.027429618,0.015570171,0.0037364298,0.008197296,-2.282914,0.089628376,1.6777035,-1.820547,-0.010098422,113.10937,0.100111485,0.3575745,0.30383834,0.13859859,0.096201256,inf,inf,inf,inf,1,1,1,1,2,2,2,2,2,0,1,1,0,0,0
188700433,188699342,20718320,41.1790497,-8.603618899999999,-0.7408346,0.96819335,2.0637128,-0.00045489697,0.0003034392,-2.4914742e-05,0.0077291857,0.018924486,0.02576041,0.022991024,0.015570171,0.0037364298,0.008197296,-0.7088563,1.4098301,-0.057934724,-1.8199929,-0.010098422,113.10937,0.10126567,0.36573735,0.3081265,0.14300005,0.09770426,inf,inf,inf,inf,1,1,1,1,2,2,2,2,2,0,1,1,0,0,0
188800661,188799289,20718320,41.1790497,-8.603618899999999,-0.7421338,0.970047,2.0650885,-0.00045489697,0.0003034392,-2.4914742e-05,0.014735407,0.023706624,0.032511685,0.029121712,0.015570171,0.0037364298,0.008197296,5.1736917,1.9714525,1.4969136,-1.8192838,-0.010098422,113.10937,0.10041404,0.35763663,0.30383655,0.13861714,0.09621161,inf,inf,inf,inf,1,1,1,1,2,2,2,2,2,0,1,1,0,0,0
188900354,188899237,20718320,41.1790497,-8.603618899999999,-0.7432979,0.9718521,2.066127,-0.00045489697,0.0003034392,-2.4914742e-05,0.009933725,0.0080869775,0.0148927,0.010785669,0.015570171,0.0037364298,0.008197296,5.235249,-1.7668918,1.066755,-1.8182881,-0.010098422,113.10937,0.09937549,0.365805,0.30812594,0.14305514,0.09771702,inf,inf,inf,inf,1,1,1,1,2,2,2,2,2,0,1,1,0,0,0
189000318,188999186,20718320,41.1790497,-8.603618899999999,-0.7450625,0.97560894,2.06545,-0.00045489697,0.0003034392,-2.4914742e-05,-0.016220452,0.024480226,0.018236715,0.012517427,0.015570171,0.0037364298,0.008197296,-0.8386943,-0.9241634,1.4953767,-1.8159312,-0.010098422,113.10937,0.100052595,0.3575816,0.30378065,0.1385715,0.09618992,inf,inf,inf,inf,1,1,1,1,2,2,2,2,2,0,1,1,0,0,0
189100240,189099133,20718320,41.1790497,-8.603618899999999,-0.7486767,0.98080176,2.063874,-0.00045489697,0.0003034392,-2.4914742e-05,-0.032914028,0.038116433,0.0046187495,-0.002574715,0.015570171,0.0037364298,0.008197296,1.5224025,1.2929844,2.4960964,-1.8122828,-0.010098422,113.10937,0.10162854,0.3657429,0.3080686,0.14302556,0.0976932,inf,inf,inf,inf,1,1,1,1,2,2,2,2,2,0,1,1,0,0,0
189200191,189199081,20718320,41.1790497,-8.603618899999999,-0.75564724,0.98637193,2.05878,-0.00045489697,0.0003034392,-2.4914742e-05,-0.078926034,0.057790335,-0.010233675,-0.020589769,0.015570171,0.0037364298,0.008197296,-4.0532274,1.4311745,0.23096795,-1.8095351,-0.010098422,113.10937,0.10672259,0.35760325,0.30375564,0.13860935,0.096184835,inf,inf,inf,inf,1,1,1,1,2,2,2,2,2,0,1,1,0,0,0
189300089,189299038,20718320,41.1790497,-8.603618899999999,-0.765181,0.9931852,2.052643,-0.00045489697,0.0003034392,-2.4914742e-05,-0.089048,0.074385755,-0.0072111045,-0.020534962,0.015570171,0.0037364298,0.008197296,-0.88731515,1.1091942,0.5675972,-1.8120099,-0.010098422,113.10937,0.11285949,0.36576685,0.30804363,0.14315419,0.09769092,inf,inf,inf,inf,1,1,1,1,2,2,2,2,2,0,1,1,0,0,0
189399998,189398977,20718320,41.1790497,-8.603618899999999,-0.7773126,1.0012604,2.0462887,-0.00045489697,0.0003034392,-2.4914742e-05,-0.100372106,0.079747394,-0.028387455,-0.044356704,0.015570171,0.0037364298,0.008197296,0.16503751,0.3050091,1.2461189,-1.825481,-0.010098422,113.10937,0.11921382,0.35762185,0.30373898,0.13865587,0.09619075,inf,inf,inf,inf,1,1,1,1,2,2,2,2,2,0,1,1,0,0,0
189499955,189498925,20718320,41.1790497,-8.603618899999999,-0.7898175,1.0113897,2.0390203,-0.00045489697,0.0003034392,-2.4914742e-05,-0.1150357,0.119368844,-0.03898222,-0.057239037,0.015570171,0.0037364298,0.008197296,-0.63595796,-1.2575275,-1.7679846,-1.8526458,-0.010098422,113.10937,0.12648225,0.3657856,0.3080272,0.1432406,0.097724326,inf,inf,inf,inf,1,1,1,1,2,2,2,2,2,0,1,1,0,0,0
189599915,189598873,20718320,41.1790497,-8.603618899999999,-0.80916977,1.0308652,2.0271144,-0.00045489697,0.0003034392,-2.4914742e-05,-0.19863078,0.24541172,-0.103043005,-0.124546126,0.015570171,0.0037364298,0.008197296,-1.9616264,3.8928947,0.7749036,-1.8706557,-0.010098422,113.10937,0.13838816,0.3577117,0.303742,0.13890935,0.09627157,inf,inf,inf,inf,1,1,1,1,2,2,2,2,2,0,1,1,0,0,0
189699874,189698821,20718320,41.1790497,-8.603618899999999,-0.83609575,1.0617436,2.0069873,-0.00045489697,0.0003034392,-2.4914742e-05,-0.2678728,0.34991217,-0.19200295,-0.2173913,0.015570171,0.0037364298,0.008197296,2.0823305,-0.24310248,-0.36460808,-1.8668292,-0.010098422,113.10937,0.15851521,0.36588675,0.3080213,0.1437192,0.09775703,inf,inf,inf,inf,1,1,1,1,2,2,2,2,2,0,1,1,0,0,0
189799826,189798769,20718320,41.1790497,-8.603618899999999,-0.86338216,1.0968015,1.973533,-0.00045489697,0.0003034392,-2.4914742e-05,-0.34002918,0.447758,-0.34333098,-0.37233275,0.015570171,0.0037364298,0.008197296,-4.572648,1.4810232,-2.3274589,-1.843877,-0.010098422,113.10937,0.19196951,0.35773844,0.3037087,0.13969795,0.096222125,inf,inf,inf,inf,1,1,1,1,2,2,2,2,2,0,1,1,0,0,0
189899732,189898717,20718320,41.1790497,-8.603618899999999,-0.892745,1.1386334,1.9254998,-0.00045489697,0.0003034392,-2.4914742e-05,-0.35173678,0.5075711,-0.49873507,-0.53051955,0.015570171,0.0037364298,0.008197296,-4.4891586,1.2657591,-2.7593658,-1.8135691,-0.010098422,113.10937,0.24000275,0.36593726,0.30798668,0.14518966,0.09769479,inf,inf,inf,inf,1,1,1,1,2,2,2,2,2,0,1,1,0,0,0
189999770,189998665,20718320,41.1790497,-8.603618899999999,-0.9298191,1.179311,1.8660148,-0.00045489697,0.0003034392,-2.4914742e-05,-0.40670612,0.51045364,-0.6873233,-0.7165232,0.015570171,0.0037364298,0.008197296,-5.5990295,-2.3867373,0.4360878,-1.7835497,-0.010098422,113.10937,0.2994877,0.35776553,0.30367696,0.14124279,0.09617333,inf,inf,inf,inf,1,1,1,1,2,2,2,2,2,0,1,1,0,0,0
190099691,190098613,20718320,41.1790497,-8.603618899999999,-0.9725908,1.2206339,1.7893575,-0.00045489697,0.0003034392,-2.4914742e-05,-0.44520974,0.51395386,-0.8915502,-0.91721475,0.015570171,0.0037364298,0.008197296,-1.031432,-2.2469442,-2.2916713,-1.752803,-0.010098422,113.10937,0.376145,0.3660006,0.30795357,0.14685796,0.09766865,inf,inf,inf,inf,1,1,1,1,2,2,2,2,2,0,1,1,0,0,0
190199686,190198562,20718320,41.1790497,-8.603618899999999,-1.0193769,1.259294,1.6966249,-0.00045489697,0.0003034392,-2.4914742e-05,-0.46024066,0.50916386,-1.0704093,-1.0893422,0.015570171,0.0037364298,0.008197296,-2.1518517,0.59321356,-2.543435,-1.7191111,-0.010098422,113.10937,0.46887767,0.35779855,0.30364668,0.14296061,0.096161656,inf,inf,inf,inf,1,1,1,1,2,2,2,2,2,0,1,1,0,0,0
190299604,190298511,20718320,41.1790497,-8.603618899999999,-1.0672989,1.2977651,1.5873089,-0.00045489697,0.0003034392,-2.4914742e-05,-0.44762206,0.4864937,-1.1922514,-1.2053841,0.015570171,0.0037364298,0.008197296,2.1999702,0.37744573,-1.0125241,-1.6839235,-0.010098422,113.10937,0.57819366,0.36607614,0.3079221,0.14854415,0.09767334,inf,inf,inf,inf,1,1,1,1,2,2,2,2,2,0,1,1,0,0,0
190399679,190398457,20718320,41.1790497,-8.603618899999999,-1.1154257,1.3398288,1.4743388,-0.00045489697,0.0003034392,-2.4914742e-05,-0.46684992,0.4452557,-1.2832991,-1.284148,0.015570171,0.0037364298,0.008197296,-2.7754989,-2.0017285,0.14949316,-1.6480078,-0.010098422,113.10937,0.6911638,0.35791722,0.30365154,0.14400722,0.09619248,inf,inf,inf,inf,1,1,1,1,2,2,2,2,2,0,1,1,0,0,0
190499474,190498406,20718320,41.1790497,-8.603618899999999,-1.1616493,1.3805288,1.3537756,-0.00045489697,0.0003034392,-2.4914742e-05,-0.4373525,0.427756,-1.3170503,-1.3094094,0.015570171,0.0037364298,0.008197296,0.821806,1.7258514,-2.0857282,-1.6126411,-0.010098422,113.10937,0.8117269,0.36622807,0.3079271,0.14922653,0.09772044,inf,inf,inf,inf,1,1,1,1,2,2,2,2,2,0,1,1,0,0,0
190599507,190598353,20718320,41.1790497,-8.603618899999999,-1.2070918,1.4180369,1.2320517,-0.00045489697,0.0003034392,-2.4914742e-05,-0.40507436,0.3803491,-1.3377832,-1.3204387,0.015570171,0.0037364298,0.008197296,3.213746,-0.56548536,-0.91116935,-1.5764778,-0.010098422,113.10937,0.9334508,0.35798243,0.3036347,0.1441538,0.09623503,inf,inf,inf,inf,1,1,1,1,2,2,2,2,2,0,1,1,0,0,0
190699497,190698302,20718320,41.1790497,-8.603618899999999,-1.2495464,1.4514794,1.1053336,-0.00045489697,0.0003034392,-2.4914742e-05,-0.40317026,0.32376492,-1.3729118,-1.3494399,0.015570171,0.0037364298,0.008197296,-3.7214339,-1.6033977,-0.5602918,-1.5409881,-0.010098422,113.10937,1.060169,0.3662935,0.30790934,0.14900859,0.09775776,inf,inf,inf,inf,1,1,1,1,2,2,2,2,2,0,1,1,0,0,0
190799274,190798250,20718320,41.1790497,-8.603618899999999,-1.293851,1.481062,0.9735556,-0.00045489697,0.0003034392,-2.4914742e-05,-0.36747813,0.2698674,-1.4232094,-1.3958077,0.015570171,0.0037364298,0.008197296,2.4330225,0.9180491,-0.9322843,-1.5039017,-0.010098422,113.10937,1.191947,0.3581208,0.3036458,0.14435169,0.09630168,inf,inf,inf,inf,1,1,1,1,2,2,2,2,2,0,1,1,0,0,0
190899267,190898198,20718320,41.1790497,-8.603618899999999,-1.3352113,1.5047601,0.83477473,-0.00045489697,0.0003034392,-2.4914742e-05,-0.34262264,0.19120945,-1.4750931,-1.4471967,0.015570171,0.0037364298,0.008197296,-0.99781907,-5.685364,-3.450002,-1.4673909,-0.010098422,113.10937,1.3307278,0.36643746,0.30792126,0.14976364,0.09782978,inf,inf,inf,inf,1,1,1,1,2,2,2,2,2,0,1,1,0,0,0
190999264,190998146,20718320,41.1790497,-8.603618899999999,-1.3748676,1.5249803,0.69068956,-0.00045489697,0.0003034392,-2.4914742e-05,-0.2887604,0.1297296,-1.50792,-1.4792591,0.015570171,0.0037364298,0.008197296,3.278283,0.20271364,3.209193,-1.4337096,-0.010098422,113.10937,1.474813,0.35824236,0.30366272,0.14545535,0.09635291,inf,inf,inf,inf,1,1,1,1,2,2,2,2,2,0,1,1,0,0,0
191099158,191098094,20718320,41.1790497,-8.603618899999999,-1.4084312,1.5393977,0.5409423,-0.00045489697,0.0003034392,-2.4914742e-05,-0.24870223,0.07068371,-1.4967419,-1.469618,0.015570171,0.0037364298,0.008197296,-1.6961391,-2.3000119,2.3263533,-1.4002854,-0.010098422,113.10937,1.6245602,0.36657155,0.30793938,0.1513538,0.09788253,inf,inf,inf,inf,1,1,1,1,2,2,2,2,2,0,1,1,0,0,0
191199173,191198042,20718320,41.1790497,-8.603618899999999,-1.435119,1.5499692,0.39781624,-0.00045489697,0.0003034392,-2.4914742e-05,-0.18989293,0.04320994,-1.402465,-1.3756503,0.015570171,0.0037364298,0.008197296,-2.2274175,-0.8214283,-2.0930395,-1.370249,-0.010098422,113.10937,1.7676864,0.3582978,0.3036515,0.14698994,0.096413724,inf,inf,inf,inf,1,1,1,1,2,2,2,2,2,0,1,1,0,0,0
191299188,191297990,20718320,41.1790497,-8.603618899999999,-1.4540902,1.5556529,0.26540953,-0.00045489697,0.0003034392,-2.4914742e-05,-0.12399435,-0.012272499,-1.278319,-1.2531791,0.015570171,0.0037364298,0.008197296,1.6965368,1.5674714,2.1097918,-1.5470474,-0.20852806,113.10937,1.9000931,0.36661515,0.3079284,0.15076713,0.098021,inf,inf,inf,inf,1,1,1,1,2,2,2,2,3,0,1,1,0,0,0
191398991,191397938,20718320,41.1790497,-8.603618899999999,-1.4685547,1.5579108,0.136897,-0.00045489697,0.0003034392,-2.4914742e-05,-0.048657153,-0.077516265,-1.2124034,-1.1939394,0.015570171,0.0037364298,0.008197296,2.104136,-2.5852017,1.3582139,-1.5059006,-0.20852806,113.10937,2.0286055,0.35839757,0.3036426,0.1443924,0.096684426,inf,inf,inf,inf,1,1,1,1,2,2,2,2,3,0,1,1,0,0,0
191498881,191497886,20718320,41.1790497,-8.603618899999999,-1.4753829,1.5546669,0.014168258,-0.00045489697,0.0003034392,-2.4914742e-05,0.023012325,-0.10731264,-1.1164532,-1.1065392,0.015570171,0.0037364298,0.008197296,-1.0212324,-1.2437043,-0.28560275,-1.4713352,-0.20852806,113.10937,2.1513343,0.3664949,0.30791184,0.15283445,0.09843095,inf,inf,inf,inf,1,1,1,1,2,2,2,2,3,0,1,1,0,0,0
191598922,191597834,20718320,41.1790497,-8.603618899999999,-1.4734662,1.5512006,-0.10677612,-0.00045489697,0.0003034392,-2.4914742e-05,0.112194926,-0.11704553,-1.0374395,-1.0422276,0.015570171,0.0037364298,0.008197296,2.3011396,1.4171597,-0.019144623,-1.4439988,-0.20852806,113.10937,2.2722788,0.35842,0.30362296,0.15368555,0.09712025,inf,inf,inf,inf,1,1,1,1,2,2,2,2,3,0,1,1,0,0,0
191698803,191697782,20718320,41.1790497,-8.603618899999999,-1.463107,1.5452135,-0.22137956,-0.00045489697,0.0003034392,-2.4914742e-05,0.17530528,-0.13310051,-0.903773,-0.92399955,0.015570171,0.0037364298,0.008197296,1.6090989,3.1571991,3.3884032,-1.421788,-0.20852806,113.10937,2.386882,0.3663634,0.3078982,0.16855966,0.09889731,inf,inf,inf,inf,1,1,1,1,2,2,2,2,3,0,1,1,0,0,0
191798799,191797730,20718320,41.1790497,-8.603618899999999,-1.4471886,1.5408809,-0.32292274,-0.00045489697,0.0003034392,-2.4914742e-05,0.21771859,-0.15804662,-0.68781954,-0.7258397,0.015570171,0.0037364298,0.008197296,-1.2450818,-0.81750643,3.9063237,-1.4020245,-0.20852806,113.10937,2.4884253,0.3583578,0.30361107,0.17027332,0.09752746,inf,inf,inf,inf,1,1,1,1,2,2,2,2,3,0,1,1,0,0,0
191898741,191897678,20718320,41.1790497,-8.603618899999999,-1.4265059,1.5349252,-0.39765725,-0.00045489697,0.0003034392,-2.4914742e-05,0.25140056,-0.16434568,-0.39977667,-0.45372674,0.015570171,0.0037364298,0.008197296,-0.7427849,-2.1215663,1.383286,-1.3835733,-0.20852806,113.10937,2.5631597,0.3662726,0.30789536,0.18646674,0.09928781,inf,inf,inf,inf,1,1,1,1,2,2,2,2,3,0,1,1,0,0,0
191998652,191997627,20718320,41.1790497,-8.603618899999999,-1.3991416,1.5304052,-0.45520014,-0.00045489697,0.0003034392,-2.4914742e-05,0.2880619,-0.1843764,-0.21873936,-0.2947023,0.015570171,0.0037364298,0.008197296,-2.2031722,-1.2151598,0.66908526,-1.3645424,-0.20852806,113.10937,2.6207027,0.35824373,0.3036085,0.18404192,0.09782063,inf,inf,inf,inf,1,1,1,1,2,2,2,2,3,0,1,1,0,0,0
192098632,192097574,20718320,41.1790497,-8.603618899999999,-1.3671446,1.5227274,-0.503268,-0.00045489697,0.0003034392,-2.4914742e-05,0.3348694,-0.21081722,-0.19589877,-0.291751,0.015570171,0.0037364298,0.008197296,3.465404,0.32580915,-0.12867725,-1.342097,-0.20852806,113.10937,2.6687706,0.36624146,0.3079029,0.201236,0.09956582,inf,inf,inf,inf,1,1,1,1,2,2,2,2,3,0,1,1,0,0,0
192198595,192197522,20718320,41.1790497,-8.603618899999999,-1.330875,1.5169368,-0.56071115,-0.00045489697,0.0003034392,-2.4914742e-05,0.3373898,-0.2018074,-0.2179018,-0.34023792,0.015570171,0.0037364298,0.008197296,-1.2669178,-0.8317751,-1.0959667,-1.3216478,-0.20852806,113.10937,2.7262137,0.3581433,0.30361393,0.19763695,0.0979767,inf,inf,inf,inf,1,1,1,1,2,2,2,2,3,0,1,1,0,0,0
192298570,192297470,20718320,41.1790497,-8.603618899999999,-1.2944325,1.5110462,-0.626468,-0.00045489697,0.0003034392,-2.4914742e-05,0.30362144,-0.18467264,-0.26721016,-0.4168787,0.015570171,0.0037364298,0.008197296,-1.817661,-3.0829651,-0.69805455,-1.3097025,-0.20852806,113.10937,2.7919705,0.366337,0.30791688,0.21576034,0.09958579,inf,inf,inf,inf,1,1,1,1,2,2,2,2,3,1,1,1,0,0,0
192398595,192397418,20718320,41.1790497,-8.603618899999999,-1.2552648,1.5094156,-0.69871366,-0.00045489697,0.0003034392,-2.4914742e-05,0.29113004,-0.16463505,-0.32964984,-0.5055206,0.015570171,0.0037364298,0.008197296,-0.76801604,3.0178025,-0.24077629,-1.3054985,-0.20852806,113.10937,2.8642163,0.35814792,0.3036573,0.20725247,0.09783909,inf,inf,inf,inf,1,1,1,1,2,2,2,2,3,1,1,1,0,0,0
192498498,192497366,20718320,41.1790497,-8.603618899999999,-1.2191281,1.5055983,-0.77326363,-0.00045489697,0.0003034392,-2.4914742e-05,0.2598358,-0.176425,-0.32726052,-0.52412206,0.015570171,0.0037364298,0.008197296,-1.1982151,-1.1157373,3.513265,-1.2996694,-0.20852806,113.10937,2.9387662,0.36660498,0.3079653,0.22501622,0.09940006,inf,inf,inf,inf,1,1,1,1,2,2,2,2,3,1,1,1,0,0,0
192599434,192597316,20718320,41.1790497,-8.603618899999999,-1.1835067,1.4989269,-0.84303874,-0.00045489697,0.0003034392,-2.4914742e-05,0.22240117,-0.18264936,-0.31478798,-0.5257346,0.015570171,0.0037364298,0.008197296,0.9639228,0.07929183,0.48414457,-1.2842793,-0.20852806,113.10937,3.0085413,0.3581025,0.30364168,0.2119467,0.09765229,inf,inf,inf,inf,1,1,1,1,2,2,2,2,3,1,1,1,0,0,0
192698382,192697262,20718320,41.1790497,-8.603618899999999,-1.1488537,1.4892752,-0.9035609,-0.00045489697,0.0003034392,-2.4914742e-05,0.21885255,-0.18817636,-0.3048417,-0.5218394,0.015570171,0.0037364298,0.008197296,-2.3233752,-0.36390543,-0.92120683,-1.2631497,-0.20852806,113.10937,3.0690634,0.3667599,0.30794945,0.22815898,0.099231586,inf,inf,inf,inf,1,1,1,1,2,2,2,2,3,1,1,1,0,0,0
192798273,192797210,20718320,41.1790497,-8.603618899999999,-1.1146154,1.4763658,-0.95682245,-0.00045489697,0.0003034392,-2.4914742e-05,0.1952886,-0.20492256,-0.29001307,-0.5063317,0.015570171,0.0037364298,0.008197296,-3.3962746,-1.1534039,-0.8272592,-1.2422478,-0.20852806,113.10937,3.122325,0.35816914,0.30365857,0.21354991,0.09758691,inf,inf,inf,inf,1,1,1,1,2,2,2,2,3,1,1,1,0,0,0
192898951,192897158,20718320,41.1790497,-8.603618899999999,-1.0842909,1.4591073,-1.0077714,-0.00045489697,0.0003034392,-2.4914742e-05,0.18100294,-0.2335139,-0.2361086,-0.45178914,0.015570171,0.0037364298,0.008197296,0.2033995,0.9341566,2.939017,-1.2245233,-0.20852806,113.10937,3.173274,0.36702824,0.30796808,0.22871312,0.09923218,inf,inf,inf,inf,1,1,1,1,2,2,2,2,3,1,1,1,0,0,0
192998177,192997108,20718320,41.1790497,-8.603618899999999,-1.0512875,1.4391522,-1.0455297,-0.00045489697,0.0003034392,-2.4914742e-05,0.17628714,-0.24170591,-0.09900114,-0.31135055,0.015570171,0.0037364298,0.008197296,1.0244443,0.9880879,1.5204422,-1.209417,-0.20852806,113.10937,3.2110324,0.3582758,0.30368677,0.21266012,0.097634986,inf,inf,inf,inf,1,1,1,1,2,2,2,2,3,1,1,1,0,0,0
193098245,193097054,20718320,41.1790497,-8.603618899999999,-1.0207077,1.4156634,-1.0682504,-0.00045489697,0.0003034392,-2.4914742e-05,0.16099149,-0.25207275,-0.02611665,-0.23289037,0.015570171,0.0037364298,0.008197296,2.363607,1.8514426,-0.65868235,-1.1946374,-0.20852806,113.10937,3.233753,0.36729044,0.30799907,0.22566445,0.09928235,inf,inf,inf,inf,1,1,1,1,2,2,2,2,3,1,1,1,0,0,0
193198931,193197002,20718320,41.1790497,-8.603618899999999,-0.9917483,1.3861396,-1.0852616,-0.00045489697,0.0003034392,-2.4914742e-05,0.119770184,-0.28420138,-0.003003373,-0.20322853,0.015570171,0.0037364298,0.008197296,1.5116667,-0.25888312,-1.2170244,-1.178773,-0.20852806,113.10937,3.2507641,0.35843113,0.30371752,0.20945853,0.09770483,inf,inf,inf,inf,1,1,1,1,2,2,2,2,3,1,1,1,0,0,0
193298126,193296950,20718320,41.1790497,-8.603618899999999,-0.96748114,1.3534884,-1.1041511,-0.00045489697,0.0003034392,-2.4914742e-05,0.09483869,-0.31511873,-0.06320759,-0.2578177,0.015570171,0.0037364298,0.008197296,-0.7286401,-1.0583386,1.657312,-1.1638178,-0.20852806,113.10937,3.2696538,0.36756217,0.3080225,0.22246736,0.099338956,inf,inf,inf,inf,1,1,1,1,2,2,2,2,3,1,1,1,0,0,0
193397989,193396898,20718320,41.1790497,-8.603618899999999,-0.94800997,1.3156639,-1.124317,-0.00045489697,0.0003034392,-2.4914742e-05,0.03174455,-0.3387224,-0.07090308,-0.25963846,0.015570171,0.0037364298,0.008197296,-3.530946,-2.1914723,1.5334247,-1.150502,-0.20852806,113.10937,3.2898197,0.35859144,0.30375168,0.20726646,0.09773983,inf,inf,inf,inf,1,1,1,1,2,2,2,2,3,1,1,1,0,0,0
193498700,193496846,20718320,41.1790497,-8.603618899999999,-0.93471,1.2760427,-1.144532,-0.00045489697,0.0003034392,-2.4914742e-05,0.018423285,-0.324884,-0.09751023,-0.27916375,0.015570171,0.0037364298,0.008197296,2.493277,1.051425,-0.14629877,-1.1373594,-0.20852806,113.10937,3.3100345,0.36782244,0.30805904,0.21982475,0.09937263,inf,inf,inf,inf,1,1,1,1,2,2,2,2,3,1,1,1,0,0,0
193597893,193596795,20718320,41.1790497,-8.603618899999999,-0.92520297,1.2307978,-1.1621244,-0.00045489697,0.0003034392,-2.4914742e-05,-0.036195487,-0.34670064,-0.082401164,-0.25204223,0.015570171,0.0037364298,0.008197296,-1.4740129,-0.85318476,0.0030245068,-1.122976,-0.20852806,113.10937,3.327627,0.35883126,0.30382007,0.2045093,0.09782312,inf,inf,inf,inf,1,1,1,1,2,2,2,2,3,1,1,1,0,0,0
193697869,193696742,20718320,41.1790497,-8.603618899999999,-0.9202595,1.1859744,-1.1790351,-0.00045489697,0.0003034392,-2.4914742e-05,-0.040252667,-0.32790262,-0.039233934,-0.20054084,0.015570171,0.0037364298,0.008197296,-0.029960975,2.1811223,3.1502373,-1.1088289,-0.20852806,113.10937,3.3445377,0.36815125,0.3081318,0.21602763,0.09944754,inf,inf,inf,inf,1,1,1,1,2,2,2,2,3,1,1,1,0,0,0
193798545,193796690,20718320,41.1790497,-8.603618899999999,-0.9162755,1.1386313,-1.1851531,-0.00045489697,0.0003034392,-2.4914742e-05,-0.058507595,-0.33743978,0.05549148,-0.096894585,0.015570171,0.0037364298,0.008197296,0.21618618,1.9438362,1.9063474,-1.095895,-0.20852806,113.10937,3.3506556,0.35899764,0.30387208,0.2004018,0.09789344,inf,inf,inf,inf,1,1,1,1,2,2,2,2,3,1,1,1,0,0,0
193897775,193896638,20718320,41.1790497,-8.603618899999999,-0.9148838,1.0914305,-1.1897168,-0.00045489697,0.0003034392,-2.4914742e-05,-0.07492103,-0.32729754,0.007898595,-0.13610144,0.015570171,0.0037364298,0.008197296,-2.1917002,1.027773,-0.8829641,-1.0818795,-0.20852806,113.10937,3.3552194,0.36833704,0.3081874,0.21013775,0.09950734,inf,inf,inf,inf,1,1,1,1,2,2,2,2,3,1,1,1,0,0,0
193997780,193996586,20718320,41.1790497,-8.603618899999999,-0.9158269,1.0438417,-1.1966443,-0.00045489697,0.0003034392,-2.4914742e-05,-0.08734285,-0.2935517,0.010272766,-0.12532645,0.015570171,0.0037364298,0.008197296,-1.1473202,-0.21191368,0.16015016,-1.0701303,-0.20852806,113.10937,3.3621469,0.35915527,0.30392995,0.19610785,0.097964965,inf,inf,inf,inf,1,1,1,1,2,2,2,2,3,1,1,1,0,0,0
194098490,194096534,20718320,41.1790497,-8.603618899999999,-0.91997033,0.9988554,-1.20644,-0.00045489697,0.0003034392,-2.4914742e-05,-0.10826604,-0.2928871,0.0026124571,-0.12858126,0.015570171,0.0037364298,0.008197296,-2.5951142,-2.1667511,3.1855302,-1.0609825,-0.20852806,113.10937,3.3719425,0.36850992,0.3082491,0.20568916,0.09958355,inf,inf,inf,inf,1,1,1,1,2,2,2,2,3,1,1,1,0,0,0
194197650,194196482,20718320,41.1790497,-8.603618899999999,-0.93187004,0.9547131,-1.2151324,-0.00045489697,0.0003034392,-2.4914742e-05,-0.12048927,-0.24324444,-0.009021033,-0.13370447,0.015570171,0.0037364298,0.008197296,3.7504041,3.7849376,0.914558,-1.0526549,-0.20852806,113.10937,3.3806348,0.359287,0.30398807,0.19225107,0.09801453,inf,inf,inf,inf,1,1,1,1,2,2,2,2,3,1,1,1,0,0,0
194297519,194296430,20718320,41.1790497,-8.603618899999999,-0.94779783,0.9147877,-1.2255753,-0.00045489697,0.0003034392,-2.4914742e-05,-0.14417504,-0.235637,-0.007767234,-0.1281095,0.015570171,0.0037364298,0.008197296,-0.60303336,1.4484006,2.9687023,-1.0451761,-0.20852806,113.10937,3.391078,0.36864,0.30831087,0.20148984,0.099639215,inf,inf,inf,inf,1,1,1,1,2,2,2,2,3,1,1,1,0,0,0
194397791,194396378,20718320,41.1790497,-8.603618899999999,-0.9680645,0.8703558,-1.231963,-0.00045489697,0.0003034392,-2.4914742e-05,-0.16809286,-0.2381131,0.020857602,-0.09298137,0.015570171,0.0037364298,0.008197296,-2.4148939,0.15726304,-0.5414345,-1.0414591,-0.20852806,113.10937,3.3974657,0.3594091,0.30405143,0.1882067,0.09809726,inf,inf,inf,inf,1,1,1,1,2,2,2,2,3,1,1,1,0,0,0
194497552,194496329,20718320,41.1790497,-8.603618899999999,-0.98873013,0.82942235,-1.2324268,-0.00045489697,0.0003034392,-2.4914742e-05,-0.14400424,-0.18115632,0.08289642,-0.02554097,0.015570171,0.0037364298,0.008197296,1.8900092,2.535464,1.3974538,-1.0424043,-0.20852806,113.10937,3.3979292,0.36874658,0.30837855,0.19620691,0.09971927,inf,inf,inf,inf,1,1,1,1,2,2,2,2,3,1,1,1,0,0,0
194597390,194596274,20718320,41.1790497,-8.603618899999999,-1.0130578,0.7879158,-1.2246697,-0.00045489697,0.0003034392,-2.4914742e-05,-0.14735009,-0.16207267,0.11063758,0.011143764,0.015570171,0.0037364298,0.008197296,-1.5137507,1.7365242,-2.9899578,-1.0462047,-0.20852806,113.10937,3.3901722,0.35952675,0.30411473,0.18384935,0.09821403,inf,inf,inf,inf,1,1,1,1,2,2,2,2,3,1,1,1,0,0,0
194697523,194696222,20718320,41.1790497,-8.603618899999999,-1.0374179,0.75151604,-1.219189,-0.00045489697,0.0003034392,-2.4914742e-05,-0.1622407,-0.14110197,-0.008391545,-0.099672146,0.015570171,0.0037364298,0.008197296,-2.2041922,-1.1066027,-5.247594,-1.0503069,-0.20852806,113.10937,3.3846917,0.3688317,0.30844772,0.1912522,0.09986138,inf,inf,inf,inf,1,1,1,1,2,2,2,2,3,1,1,1,0,0,0
194797500,194796170,20718320,41.1790497,-8.603618899999999,-1.0678611,0.71793914,-1.2247803,-0.00045489697,0.0003034392,-2.4914742e-05,-0.15290035,-0.113126166,-0.18007457,-0.26008454,0.015570171,0.0037364298,0.008197296,3.4669948,1.1349528,-1.3456933,-1.051977,-0.20852806,113.10937,3.3902829,0.35961026,0.30418518,0.18044081,0.09834258,inf,inf,inf,inf,1,1,1,1,2,2,2,2,3,1,1,1,0,0,0
194897290,194896118,20718320,41.1790497,-8.603618899999999,-1.0986251,0.6918373,-1.249475,-0.00045489697,0.0003034392,-2.4914742e-05,-0.16974863,-0.06483806,-0.30472997,-0.37752894,0.015570171,0.0037364298,0.008197296,-0.6084223,-1.9503847,0.3391921,-1.0545524,-0.20852806,113.10937,3.4149776,0.36890212,0.30852428,0.18840511,0.09994495,inf,inf,inf,inf,1,1,1,1,2,2,2,2,3,1,1,1,0,0,0
194997364,194996068,20718320,41.1790497,-8.603618899999999,-1.13283,0.67084515,-1.2747514,-0.00045489697,0.0003034392,-2.4914742e-05,-0.16480285,-0.03387394,-0.37589094,-0.43467778,0.015570171,0.0037364298,0.008197296,0.16944793,-2.4148543,-2.022291,-1.0584745,-0.20852806,113.10937,3.440254,0.35960308,0.30537528,0.1779344,0.09858434,inf,inf,inf,inf,1,1,1,1,2,2,2,2,3,1,1,1,0,0,0
195097185,195096014,20718320,41.1790497,-8.603618899999999,-1.1655316,0.6561481,-1.3075052,-0.00045489697,0.0003034392,-2.4914742e-05,-0.14162862,0.023532374,-0.44570488,-0.49152592,0.015570171,0.0037364298,0.008197296,-0.9299958,-1.0367031,-2.9249434,-1.0610214,-0.20852806,113.10937,3.4730077,0.36886212,0.30975854,0.18523407,0.10022297,inf,inf,inf,inf,1,1,1,1,2,2,2,2,3,1,1,1,0,0,0
195197042,195195961,20718320,41.1790497,-8.603618899999999,-1.2005639,0.6445897,-1.3388832,-0.00045489697,0.0003034392,-2.4914742e-05,-0.11988372,0.037443526,-0.4390814,-0.46730798,0.015570171,0.0037364298,0.008197296,1.0279249,-2.398625,1.0400008,-1.0644596,-0.20852806,113.10937,3.5043857,0.35965705,0.3054364,0.1752153,0.098694846,inf,inf,inf,inf,1,1,1,1,2,2,2,2,3,1,1,1,0,0,0
195296983,195295910,20718320,41.1790497,-8.603618899999999,-1.2318757,0.6377914,-1.3686664,-0.00045489697,0.0003034392,-2.4914742e-05,-0.10582686,0.06524551,-0.3887498,-0.40355197,0.015570171,0.0037364298,0.008197296,-1.2170879,1.1926211,-0.33626685,-1.0679773,-0.20852806,113.10937,3.534169,0.36888146,0.30982542,0.18160264,0.10031964,inf,inf,inf,inf,1,1,1,1,2,2,2,2,3,1,1,1,0,0,0
195396930,195395857,20718320,41.1790497,-8.603618899999999,-1.2652797,0.6342359,-1.3880045,-0.00045489697,0.0003034392,-2.4914742e-05,-0.077228434,0.09442183,-0.2797699,-0.27957836,0.015570171,0.0037364298,0.008197296,1.2565885,3.8259408,3.4280403,-1.069878,-0.20852806,113.10937,3.553507,0.35969514,0.30549845,0.17148414,0.098789476,inf,inf,inf,inf,1,1,1,1,2,2,2,2,3,1,1,1,0,0,0
195496811,195495806,20718320,41.1790497,-8.603618899999999,-1.294308,0.6337592,-1.3960868,-0.00045489697,0.0003034392,-2.4914742e-05,-0.046879597,0.09862401,-0.15838934,-0.14619243,0.015570171,0.0037364298,0.008197296,1.0671037,3.0414717,2.2999372,-1.0722756,-0.20852806,113.10937,3.5615892,0.36885974,0.30989394,0.17743693,0.100450575,inf,inf,inf,inf,1,1,1,1,2,2,2,2,3,1,1,1,0,0,0
195596779,195595753,20718320,41.1790497,-8.603618899999999,-1.3251054,0.6375009,-1.3964758,-0.00045489697,0.0003034392,-2.4914742e-05,-0.018140292,0.12866987,-0.10788509,-0.08580092,0.015570171,0.0037364298,0.008197296,2.030281,1.6664097,1.9901668,-1.0729294,-0.20852806,113.10937,3.5619783,0.35972968,0.30556154,0.1675698,0.09886212,inf,inf,inf,inf,1,1,1,1,2,2,2,2,3,1,1,1,0,0,0
195696707,195695701,20718320,41.1790497,-8.603618899999999,-1.3507028,0.6449002,-1.3951607,-0.00045489697,0.0003034392,-2.4914742e-05,0.002903635,0.13189848,-0.046541262,-0.019098137,0.015570171,0.0037364298,0.008197296,0.80839443,-2.8643432,0.042510908,-1.0754488,-0.20852806,113.10937,3.5606632,0.36882737,0.30996266,0.17353207,0.100515224,inf,inf,inf,inf,1,1,1,1,2,2,2,2,3,1,1,1,0,0,0
195796720,195795649,20718320,41.1790497,-8.603618899999999,-1.3778512,0.65581405,-1.386285,-0.00045489697,0.0003034392,-2.4914742e-05,0.011471,0.14817296,-0.018232496,0.014627731,0.015570171,0.0037364298,0.008197296,-1.4876909,-2.9586546,-3.6516192,-1.0773647,-0.20852806,113.10937,3.5517874,0.3597315,0.3056242,0.16452126,0.09891785,inf,inf,inf,inf,1,1,1,1,2,2,2,2,3,1,1,1,0,0,0
195896674,195895598,20718320,41.1790497,-8.603618899999999,-1.399257,0.6693472,-1.3819056,-0.00045489697,0.0003034392,-2.4914742e-05,0.055128694,0.14738524,-0.07216504,-0.03613913,0.015570171,0.0037364298,0.008197296,1.6198173,-2.7878377,-0.62016857,-1.0778826,-0.20852806,113.10937,3.547408,0.36876836,0.3100301,0.17012414,0.1005717,inf,inf,inf,inf,1,1,1,1,2,2,2,2,3,1,1,1,0,0,0
195996665,195995546,20718320,41.1790497,-8.603618899999999,-1.4214989,0.6883812,-1.3785601,-0.00045489697,0.0003034392,-2.4914742e-05,0.07382225,0.18298355,-0.08068439,-0.038537562,0.015570171,0.0037364298,0.008197296,-0.38744932,3.7706153,2.3728385,-1.078756,-0.20852806,113.10937,3.5440626,0.3597764,0.30571532,0.1621227,0.09895357,inf,inf,inf,inf,1,1,1,1,2,2,2,2,3,1,1,1,0,0,0
196096437,196095493,20718320,41.1790497,-8.603618899999999,-1.4355124,0.7101265,-1.3812051,-0.00045489697,0.0003034392,-2.4914742e-05,0.104332216,0.18341541,-0.1003146,-0.056054685,0.015570171,0.0037364298,0.008197296,-2.2554455,-1.9238064,0.9846161,-1.0797652,-0.20852806,113.10937,3.5467076,0.3687799,0.3101268,0.1678743,0.100606404,inf,inf,inf,inf,1,1,1,1,2,2,2,2,3,1,1,1,0,0,0
196196470,196195440,20718320,41.1790497,-8.603618899999999,-1.4487197,0.73684394,-1.3832088,-0.00045489697,0.0003034392,-2.4914742e-05,0.14640862,0.21884601,-0.13487166,-0.08579913,0.015570171,0.0037364298,0.008197296,2.7952616,1.3362212,-0.9539762,-1.0827413,-0.20852806,113.10937,3.5487113,0.35974166,0.30577588,0.15988319,0.09897778,inf,inf,inf,inf,1,1,1,1,2,2,2,2,3,1,1,1,0,0,0
196296333,196295389,20718320,41.1790497,-8.603618899999999,-1.4556878,0.76521254,-1.3889359,-0.00045489697,0.0003034392,-2.4914742e-05,0.14506261,0.20888233,-0.1521917,-0.10109981,0.015570171,0.0037364298,0.008197296,-2.6216443,-3.969616,-0.9452833,-1.1110407,-0.20852806,113.10937,3.5544386,0.36869615,0.31019074,0.1656257,0.10060499,inf,inf,inf,inf,1,1,1,1,2,2,2,2,3,1,1,1,0,0,0
196396546,196395341,20718320,41.1790497,-8.603618899999999,-1.4646724,0.79591894,-1.395638,-0.00045489697,0.0003034392,-2.4914742e-05,0.18435179,0.2094353,-0.1897592,-0.13421007,0.015570171,0.0037364298,0.008197296,4.324796,1.7243495,0.5473732,-1.2024121,-0.20852806,113.10937,3.5611405,0.35968706,0.3058348,0.1577914,0.09900924,inf,inf,inf,inf,1,1,1,1,2,2,2,2,3,1,1,1,0,0,0
196496293,196495287,20718320,41.1790497,-8.603618899999999,-1.470062,0.8250234,-1.4098216,-0.00045489697,0.0003034392,-2.4914742e-05,0.15727119,0.18369988,-0.24760534,-0.19013716,0.015570171,0.0037364298,0.008197296,-0.14391947,-0.42710873,3.8910177,-1.3436651,-0.20852806,113.10937,3.575324,0.3685894,0.3102531,0.16313359,0.10060161,inf,inf,inf,inf,1,1,1,1,2,2,2,2,3,1,1,1,0,0,0
196596340,196595232,20718320,41.1790497,-8.603618899999999,-1.4768283,0.85324615,-1.4235488,-0.00045489697,0.0003034392,-2.4914742e-05,0.15914384,0.16808246,-0.2695217,-0.20637654,0.015570171,0.0037364298,0.008197296,1.5421451,-1.1520599,-2.0585587,-1.5153031,-0.20852806,113.10937,3.5890512,0.35961086,0.30588573,0.15553112,0.09901969,inf,inf,inf,inf,1,1,1,1,2,2,2,2,3,1,1,1,0,0,0
196696299,196695180,20718320,41.1790497,-8.603618899999999,-1.4807829,0.87945694,-1.4380299,-0.00045489697,0.0003034392,-2.4914742e-05,0.1594314,0.17301904,-0.23418698,-0.16803953,0.015570171,0.0037364298,0.008197296,2.4034958,-0.10448879,-3.528689,-1.6951634,-0.20852806,113.10937,3.6035323,0.36846036,0.3103077,0.16031729,0.10063828,inf,inf,inf,inf,1,1,1,1,2,2,2,2,3,1,1,1,0,0,0
196796237,196795128,20718320,41.1790497,-8.603618899999999,-1.4840997,0.90872645,-1.4440497,-0.00045489697,0.0003034392,-2.4914742e-05,0.1814381,0.17333433,-0.13971709,-0.06867791,0.015570171,0.0037364298,0.008197296,0.40922266,1.6034292,0.88743246,-1.8235596,-0.20852806,113.10937,3.6095524,0.35952312,0.30593696,0.15305772,0.0990545,inf,inf,inf,inf,1,1,1,1,2,2,2,2,3,1,1,1,0,0,0
196896146,196895076,20718320,41.1790497,-8.603618899999999,-1.4826295,0.93714166,-1.4453126,-0.00045489697,0.0003034392,-2.4914742e-05,0.20387314,0.15672415,-0.099158384,-0.02595877,0.015570171,0.0037364298,0.008197296,0.64185286,-1.9943612,-1.4700611,-1.9083605,-0.20852806,113.10937,3.610815,0.36829466,0.31035155,0.15778439,0.10064237,inf,inf,inf,inf,1,1,1,1,2,2,2,2,3,1,1,1,0,0,0
196996135,196995023,20718320,41.1790497,-8.603618899999999,-1.4806415,0.96713567,-1.4476913,-0.00045489697,0.0003034392,-2.4914742e-05,0.21208885,0.17911685,-0.08121825,-0.009789888,0.015570171,0.0037364298,0.008197296,-1.6572236,1.5145366,-0.5244414,-1.969302,-0.20852806,113.10937,3.613194,0.35926402,0.3058764,0.15131944,0.0989049,inf,inf,inf,inf,1,1,1,1,2,2,2,2,3,1,1,1,0,0,0
197096083,197094972,20718320,41.1790497,-8.603618899999999,-1.4754331,0.9999504,-1.4550965,-0.00045489697,0.0003034392,-2.4914742e-05,0.25050998,0.19936979,-0.08190895,-0.018877799,0.015570171,0.0037364298,0.008197296,2.0596817,0.1484775,0.59795517,-2.015392,-0.20852806,113.10937,3.620599,0.3679294,0.310285,0.15722819,0.10047278,inf,inf,inf,inf,1,1,1,1,2,2,2,2,3,1,1,1,0,0,0
197196069,197194919,20718320,41.1790497,-8.603618899999999,-1.46865,1.0390793,-1.4662249,-0.00045489697,0.0003034392,-2.4914742e-05,0.27585793,0.24489965,-0.043346245,0.0075342054,0.015570171,0.0037364298,0.008197296,2.7174532,0.62672055,1.6372111,-2.0510833,-0.20852806,113.10937,3.6317275,0.3590177,0.30581716,0.15228637,0.09872998,inf,inf,inf,inf,1,1,1,1,2,2,2,2,3,1,1,1,0,0,0
197295930,197294867,20718320,41.1790497,-8.603618899999999,-1.4566218,1.0805959,-1.4814768,-0.00045489697,0.0003034392,-2.4914742e-05,0.30687848,0.28343958,-0.053114675,-0.017782759,0.015570171,0.0037364298,0.008197296,1.0270611,2.604358,2.401741,-2.0782127,-0.20852806,113.10937,3.6469793,0.36760128,0.3102184,0.1594344,0.10027678,inf,inf,inf,inf,1,1,1,1,2,2,2,2,3,1,1,1,0,0,0
197395808,197394815,20718320,41.1790497,-8.603618899999999,-1.4396231,1.1284063,-1.4938895,-0.00045489697,0.0003034392,-2.4914742e-05,0.33750767,0.32084548,-0.054687075,-0.031071588,0.015570171,0.0037364298,0.008197296,2.005785,-1.7734023,0.13704403,-2.0984597,-0.20852806,113.10937,3.6593919,0.35881114,0.30575824,0.15535745,0.09859508,inf,inf,inf,inf,1,1,1,1,2,2,2,2,3,1,1,1,0,0,0
197495751,197494763,20718320,41.1790497,-8.603618899999999,-1.4167916,1.1760653,-1.5073768,-0.00045489697,0.0003034392,-2.4914742e-05,0.36770406,0.3396746,-0.01093267,0.0006118503,0.015570171,0.0037364298,0.008197296,2.6232135,-1.0909835,2.4356325,-2.1132936,-0.20852806,113.10937,3.6728792,0.36734262,0.31015357,0.16374266,0.10016351,inf,inf,inf,inf,1,1,1,1,2,2,2,2,3,1,1,1,0,0,0
197595758,197594711,20718320,41.1790497,-8.603618899999999,-1.3895719,1.226173,-1.5185472,-0.00045489697,0.0003034392,-2.4914742e-05,0.3912906,0.36037186,-0.052608527,-0.050243825,0.015570171,0.0037364298,0.008197296,-3.723774,1.3391076,-0.99837726,-2.1244912,-0.20852806,113.10937,3.6840496,0.3585316,0.305649,0.15924901,0.098479755,inf,inf,inf,inf,1,1,1,1,2,2,2,2,3,1,1,1,0,0,0
197695781,197694659,20718320,41.1790497,-8.603618899999999,-1.3577288,1.2755548,-1.52966,-0.00045489697,0.0003034392,-2.4914742e-05,0.4461006,0.3672696,-0.046061203,-0.05270684,0.015570171,0.0037364298,0.008197296,0.6509632,-2.3613787,-3.1072397,-2.1302881,-0.20852806,113.10937,3.6951625,0.36702332,0.310038,0.16847742,0.100094035,inf,inf,inf,inf,1,1,1,1,2,2,2,2,3,1,1,1,0,0,0
197795611,197794607,20718320,41.1790497,-8.603618899999999,-1.3210263,1.3272021,-1.5483398,-0.00045489697,0.0003034392,-2.4914742e-05,0.4695186,0.36074644,-0.2079768,-0.2201806,0.015570171,0.0037364298,0.008197296,-4.495866,1.4474041,-3.1095874,-2.1315436,-0.20852806,113.10937,3.7138424,0.358283,0.3055533,0.16397236,0.09842789,inf,inf,inf,inf,1,1,1,1,2,2,2,2,3,1,1,1,0,0,0
197895605,197894554,20718320,41.1790497,-8.603618899999999,-1.277656,1.3751397,-1.589745,-0.00045489697,0.0003034392,-2.4914742e-05,0.51525265,0.32482722,-0.426696,-0.4479787,0.015570171,0.0037364298,0.008197296,-2.543291,-1.3623842,3.4800892,-2.1316042,-0.20852806,113.10937,3.7552476,0.366781,0.3099374,0.17414232,0.10005055,inf,inf,inf,inf,1,1,1,1,2,2,2,2,3,1,1,1,0,0,0
197995517,197994502,20718320,41.1790497,-8.603618899999999,-1.2343069,1.4238708,-1.6499944,-0.00045489697,0.0003034392,-2.4914742e-05,0.56948316,0.26712325,-0.76470345,-0.78470075,0.015570171,0.0037364298,0.008197296,2.022512,-3.162843,-4.195676,-2.12784,-0.20852806,113.10937,3.815497,0.3580275,0.3054345,0.16959618,0.09837752,inf,inf,inf,inf,1,1,1,1,2,2,2,2,3,1,1,1,0,0,0
198095511,198094450,20718320,41.1790497,-8.603618899999999,-1.1883171,1.4662559,-1.7459384,-0.00045489697,0.0003034392,-2.4914742e-05,0.5348828,0.24224767,-1.1753554,-1.1935518,0.015570171,0.0037364298,0.008197296,-3.8718522,3.0800285,-5.9909124,-2.125205,-0.20852806,113.10937,3.9114408,0.36658478,0.30981347,0.18091021,0.09993539,inf,inf,inf,inf,1,1,1,1,2,2,2,2,3,1,1,1,0,0,0
198195447,198194398,20718320,41.1790497,-8.603618899999999,-1.1394787,1.5096349,-1.8753072,-0.00045489697,0.0003034392,-2.4914742e-05,0.5337358,0.18416916,-1.6153964,-1.6211157,0.015570171,0.0037364298,0.008197296,0.79091114,2.655096,-5.9647584,-2.1229575,-0.20852806,113.10937,4.0408096,0.3577184,0.305276,0.17564218,0.09831798,inf,inf,inf,inf,1,1,1,1,2,2,2,2,3,1,1,1,0,0,0
198295495,198294347,20718320,41.1790497,-8.603618899999999,-1.090711,1.5485504,-2.0415363,-0.00045489697,0.0003034392,-2.4914742e-05,0.49066493,0.13009833,-1.925928,-1.9192095,0.015570171,0.0037364298,0.008197296,-2.9702072,1.7023106,-1.3642539,-2.122603,-0.20852806,113.10937,4.207039,0.36635962,0.30965012,0.18747914,0.09991339,inf,inf,inf,inf,1,1,1,1,2,2,2,2,3,1,1,1,0,0,0
198395233,198394293,20718320,41.1790497,-8.603618899999999,-1.0395763,1.5846179,-2.2185004,-0.00045489697,0.0003034392,-2.4914742e-05,0.47823173,0.09512828,-2.0977495,-2.0660975,0.015570171,0.0037364298,0.008197296,-2.1967368,-1.5209433,5.634388,-2.1246972,-0.20852806,113.10937,4.3840027,0.35741666,0.30510524,0.1800837,0.09825837,inf,inf,inf,inf,1,1,1,1,2,2,2,2,3,1,1,1,0,0,0
198495236,198494241,20718320,41.1790497,-8.603618899999999,-0.987201,1.6155237,-2.40123,-0.00045489697,0.0003034392,-2.4914742e-05,0.47603148,0.07835373,-2.113709,-2.0571773,0.015570171,0.0037364298,0.008197296,3.3894637,-1.7677226,2.0404348,-2.1251705,-0.20852806,113.10937,4.5667324,0.36612555,0.30947807,0.19025321,0.09989351,inf,inf,inf,inf,1,1,1,1,2,2,2,2,3,1,1,1,0,0,0
198595284,198594193,20718320,41.1790497,-8.603618899999999,-0.9333541,1.6460495,-2.57987,-0.00045489697,0.0003034392,-2.4914742e-05,0.43601853,0.06501887,-2.1489499,-2.065021,0.015570171,0.0037364298,0.008197296,-3.5656402,0.21718547,-2.462207,-2.125042,-0.20852806,113.10937,4.745373,0.3571653,0.30492553,0.18068185,0.09824055,inf,inf,inf,inf,1,1,1,1,2,2,2,2,3,1,1,1,0,0,0
198695278,198694137,20718320,41.1790497,-8.603618899999999,-0.88011706,1.6703523,-2.7622056,-0.00045489697,0.0003034392,-2.4914742e-05,0.44487092,0.045733575,-2.0984867,-1.9951904,0.015570171,0.0037364298,0.008197296,0.19900398,2.942178,-2.667905,-2.1273222,-0.20852806,113.10937,4.927708,0.36591,0.30929014,0.18977083,0.09992655,inf,inf,inf,inf,1,1,1,1,2,2,2,2,3,1,1,1,0,0,0
198795107,198794085,20718320,41.1790497,-8.603618899999999,-0.82426816,1.6905326,-2.937156,-0.00045489697,0.0003034392,-2.4914742e-05,0.4200079,-0.0009949442,-1.9806123,-1.8608122,0.015570171,0.0037364298,0.008197296,-2.161777,0.5536959,0.89862585,-2.132207,-0.20852806,113.10937,5.1026583,0.3569191,0.30473748,0.179675,0.09824822,inf,inf,inf,inf,1,1,1,1,2,2,2,2,3,1,1,1,0,0,0
198895271,198894032,20718320,41.1790497,-8.603618899999999,-0.76939875,1.703516,-3.0995948,-0.00045489697,0.0003034392,-2.4914742e-05,0.43281367,-0.02643854,-1.7430608,-1.6140811,0.015570171,0.0037364298,0.008197296,2.5332997,0.40554184,3.776545,-2.1363015,-0.20852806,113.10937,5.2650976,0.36567855,0.30910414,0.18765648,0.09991076,inf,inf,inf,inf,1,1,1,1,2,2,2,2,3,1,1,1,0,0,0
198994996,198993980,20718320,41.1790497,-8.603618899999999,-0.71346885,1.7083452,-3.2441015,-0.00045489697,0.0003034392,-2.4914742e-05,0.40669492,-0.06891061,-1.4677196,-1.3368182,0.015570171,0.0037364298,0.008197296,0.3342057,-0.10459545,2.8495815,-2.1424189,-0.20852806,113.10937,5.409604,0.3566915,0.30453077,0.17694445,0.098222174,inf,inf,inf,inf,1,1,1,1,2,2,2,2,3,1,1,1,0,0,0
199095653,199093928,20718320,41.1790497,-8.603618899999999,-0.659216,1.7065786,-3.3628325,-0.00045489697,0.0003034392,-2.4914742e-05,0.3945569,-0.098654434,-1.1530756,-1.025208,0.015570171,0.0037364298,0.008197296,-1.225972,-1.5389733,3.1521225,-2.1488423,-0.20852806,113.10937,5.528335,0.36542806,0.3088994,0.18393578,0.099873066,inf,inf,inf,inf,1,1,1,1,2,2,2,2,3,1,1,1,0,0,0
199194993,199193875,20718320,41.1790497,-8.603618899999999,-0.60377765,1.6997578,-3.4610262,-0.00045489697,0.0003034392,-2.4914742e-05,0.38620317,-0.12542537,-0.8486435,-0.73362005,0.015570171,0.0037364298,0.008197296,-0.64514726,0.8045104,3.3325088,-2.1549888,-0.20852806,113.10937,5.6265287,0.35644025,0.3043069,0.17370756,0.09818932,inf,inf,inf,inf,1,1,1,1,2,2,2,2,3,1,1,1,0,0,0
199294915,199293823,20718320,41.1790497,-8.603618899999999,-0.5514923,1.688143,-3.5349808,-0.00045489697,0.0003034392,-2.4914742e-05,0.38614103,-0.16111511,-0.59062546,-0.48999918,0.015570171,0.0037364298,0.008197296,0.26578444,-1.1969817,2.7006543,-2.1607566,-0.20852806,113.10937,5.7004833,0.36513686,0.30867693,0.18034987,0.09979818,inf,inf,inf,inf,1,1,1,1,2,2,2,2,3,1,1,1,0,0,0
199395636,199393771,20718320,41.1790497,-8.603618899999999,-0.5001412,1.6724721,-3.5894096,-0.00045489697,0.0003034392,-2.4914742e-05,0.36077282,-0.177487,-0.31389347,-0.23406996,0.015570171,0.0037364298,0.008197296,-2.4223764,1.589183,2.9273782,-2.1675606,-0.20852806,113.10937,5.7549124,0.35613072,0.3039439,0.17097951,0.098053336,inf,inf,inf,inf,1,1,1,1,2,2,2,2,3,1,1,1,0,0,0
199494806,199493719,20718320,41.1790497,-8.603618899999999,-0.45322883,1.6539762,-3.6159182,-0.00045489697,0.0003034392,-2.4914742e-05,0.3253034,-0.19388431,-0.010091195,0.05084583,0.015570171,0.0037364298,0.008197296,-1.4455234,1.9636304,3.022742,-2.173386,-0.20852806,113.10937,5.7814207,0.36479637,0.30831435,0.17762348,0.099649094,inf,inf,inf,inf,1,1,1,1,2,2,2,2,3,1,1,1,0,0,0
199594811,199593667,20718320,41.1790497,-8.603618899999999,-0.41253746,1.6264644,-3.6213074,-0.00045489697,0.0003034392,-2.4914742e-05,0.3063764,-0.20790143,0.29997307,0.33523932,0.015570171,0.0037364298,0.008197296,-2.0280836,0.00940779,1.9273463,-2.177875,-0.20852806,113.10937,5.78681,0.35572144,0.30344027,0.16866925,0.09791073,inf,inf,inf,inf,1,1,1,1,2,2,2,2,3,1,1,1,0,0,0
199694753,199693614,20718320,41.1790497,-8.603618899999999,-0.37743863,1.5962925,-3.597313,-0.00045489697,0.0003034392,-2.4914742e-05,0.27308008,-0.21972509,0.5570776,0.5706733,0.015570171,0.0037364298,0.008197296,-0.8842247,1.9318792,3.578049,-2.1777434,-0.20852806,113.10937,5.7628155,0.36435536,0.30781114,0.17499301,0.09946792,inf,inf,inf,inf,1,1,1,1,2,2,2,2,3,1,1,1,0,0,0
199794650,199793562,20718320,41.1790497,-8.603618899999999,-0.34279358,1.5625668,-3.556155,-0.00045489697,0.0003034392,-2.4914742e-05,0.23403648,-0.24009463,0.74636877,0.73381937,0.015570171,0.0037364298,0.008197296,-0.48790255,-2.4240143,1.2486119,-2.1733177,-0.20852806,113.10937,5.7216578,0.35515714,0.30283543,0.16640432,0.09768978,inf,inf,inf,inf,1,1,1,1,2,2,2,2,3,1,1,1,0,0,0
199894617,199893510,20718320,41.1790497,-8.603618899999999,-0.31033555,1.5283445,-3.5039337,-0.00045489697,0.0003034392,-2.4914742e-05,0.22997412,-0.22316054,0.7961813,0.760917,0.015570171,0.0037364298,0.008197296,-1.6846664,0.44435257,-0.91610336,-2.166059,-0.20852806,113.10937,5.6694365,0.36375803,0.30720496,0.17303988,0.09923982,inf,inf,inf,inf,1,1,1,1,2,2,2,2,3,1,1,1,0,0,0
199994605,199993459,20718320,41.1790497,-8.603618899999999,-0.28280944,1.4883819,-3.450168,-0.00045489697,0.0003034392,-2.4914742e-05,0.18673328,-0.23680878,0.8118909,0.754691,0.015570171,0.0037364298,0.008197296,1.0532283,-1.7563758,2.1255305,-2.1588812,-0.20852806,113.10937,5.61567,0.35467497,0.30226976,0.16510996,0.09746901,inf,inf,inf,inf,1,1,1,1,2,2,2,2,3,1,1,1,0,0,0
200094400,200093405,20718320,41.1790497,-8.603618899999999,-0.26067778,1.4501143,-3.3986409,-0.00045489697,0.0003034392,-2.4914742e-05,0.1234885,-0.22052775,0.7006342,0.62826854,0.015570171,0.0037364298,0.008197296,-3.0692368,-3.7537596,-1.2624403,-2.1542697,-0.20852806,113.10937,5.564143,0.3632953,0.3066386,0.17199555,0.099001065,inf,inf,inf,inf,1,1,1,1,2,2,2,2,3,1,1,1,0,0,0
200194703,200193353,20718320,41.1790497,-8.603618899999999,-0.24047133,1.4054508,-3.3520904,-0.00045489697,0.0003034392,-2.4914742e-05,0.11212296,-0.21305619,0.60636055,0.5239732,0.015570171,0.0037364298,0.008197296,-1.1035221,2.008929,-1.8860726,-2.1521912,-0.20852806,113.10937,5.517593,0.35418296,0.3016942,0.16481762,0.09728511,inf,inf,inf,inf,1,1,1,1,2,2,2,2,3,1,1,1,0,0,0
200294336,200293301,20718320,41.1790497,-8.603618899999999,-0.2240677,1.3633457,-3.3148172,-0.00045489697,0.0003034392,-2.4914742e-05,0.08092206,-0.20964196,0.4295069,0.3424607,0.015570171,0.0037364298,0.008197296,-0.8328492,-2.1064363,-1.977114,-2.1469834,-0.20852806,113.10937,5.48032,0.36284623,0.30606267,0.1715577,0.09880308,inf,inf,inf,inf,1,1,1,1,2,2,2,2,3,1,1,1,0,0,0
200394273,200393248,20718320,41.1790497,-8.603618899999999,-0.21374997,1.3158759,-3.2928255,-0.00045489697,0.0003034392,-2.4914742e-05,0.012315146,-0.20287782,0.14449239,0.06183897,0.015570171,0.0037364298,0.008197296,-4.352429,-0.1836075,-0.4964835,-2.1428924,-0.20852806,113.10937,5.4583282,0.35364208,0.3010791,0.16413689,0.09706403,inf,inf,inf,inf,1,1,1,1,2,2,2,2,3,1,1,1,0,0,0
200494202,200493196,20718320,41.1790497,-8.603618899999999,-0.21028888,1.2706629,-3.2900772,-0.00045489697,0.0003034392,-2.4914742e-05,-0.033900686,-0.17591335,-0.025766043,-0.10046148,0.015570171,0.0037364298,0.008197296,-0.67794085,2.4749522,0.6054863,-2.1377838,-0.20852806,113.10937,5.4555798,0.36234796,0.3054363,0.1716593,0.09860851,inf,inf,inf,inf,1,1,1,1,2,2,2,2,3,1,1,1,0,0,0
200594439,200593143,20718320,41.1790497,-8.603618899999999,-0.20987783,1.2255961,-3.2899199,-0.00045489697,0.0003034392,-2.4914742e-05,-0.07350258,-0.16539374,-0.123104274,-0.17951666,0.015570171,0.0037364298,0.008197296,-1.2354814,-1.652882,-2.5567598,-2.1356688,-0.20852806,113.10937,5.4554224,0.3530818,0.300395,0.164257,0.09690655,inf,inf,inf,inf,1,1,1,1,2,2,2,2,3,1,1,1,0,0,0
200694166,200693091,20718320,41.1790497,-8.603618899999999,-0.2139537,1.1854477,-3.2902381,-0.00045489697,0.0003034392,-2.4914742e-05,-0.10190608,-0.16851628,-0.082248025,-0.121374026,0.015570171,0.0037364298,0.008197296,0.3608934,-2.2882917,0.71487546,-2.1358302,-0.20852806,113.10937,5.455741,0.36183175,0.30475366,0.17088398,0.09844477,inf,inf,inf,inf,1,1,1,1,2,2,2,2,3,1,1,1,0,0,0
200794159,200793039,20718320,41.1790497,-8.603618899999999,-0.22707735,1.1398259,-3.2789998,-0.00045489697,0.0003034392,-2.4914742e-05,-0.15569751,-0.16415969,0.03666219,0.017503524,0.015570171,0.0037364298,0.008197296,-0.9365192,3.9490786,3.2643852,-2.1379957,-0.20852806,113.10937,5.4445024,0.35252574,0.29968926,0.16278939,0.096751235,inf,inf,inf,inf,1,1,1,1,2,2,2,2,3,1,1,1,0,0,0
200894136,200892986,20718320,41.1790497,-8.603618899999999,-0.243486,1.0971335,-3.253485,-0.00045489697,0.0003034392,-2.4914742e-05,-0.16018067,-0.15950316,0.21916118,0.21606734,0.015570171,0.0037364298,0.008197296,-0.77933484,1.210853,2.9510107,-2.1392524,-0.20852806,113.10937,5.4189873,0.36126947,0.30405092,0.16864337,0.09830754,inf,inf,inf,inf,1,1,1,1,2,2,2,2,3,1,1,1,0,0,0
200993993,200992934,20718320,41.1790497,-8.603618899999999,-0.26317814,1.0531406,-3.2072399,-0.00045489697,0.0003034392,-2.4914742e-05,-0.19137773,-0.16410217,0.44629467,0.45621917,0.015570171,0.0037364298,0.008197296,-1.2249112,2.4651327,4.338539,-2.1402586,-0.20852806,113.10937,5.3727427,0.3518949,0.29894868,0.16018836,0.09660939,inf,inf,inf,inf,1,1,1,1,2,2,2,2,3,1,1,1,0,0,0
201093955,201092882,20718320,41.1790497,-8.603618899999999,-0.2855034,1.0117381,-3.1482472,-0.00045489697,0.0003034392,-2.4914742e-05,-0.19401069,-0.16673434,0.51616937,0.53551286,0.015570171,0.0037364298,0.008197296,2.9534893,-0.19816771,2.929761,-2.1414924,-0.20852806,113.10937,5.31375,0.36058584,0.30331236,0.16542658,0.098155044,inf,inf,inf,inf,1,1,1,1,2,2,2,2,3,1,1,1,0,0,0
201194189,201192829,20718320,41.1790497,-8.603618899999999,-0.31466356,0.970326,-3.0925689,-0.00045489697,0.0003034392,-2.4914742e-05,-0.23148951,-0.14867328,0.45010355,0.47363642,0.015570171,0.0037364298,0.008197296,0.4083781,0.78077996,-1.487703,-2.1405773,-0.20852806,113.10937,5.2580714,0.35130855,0.298246,0.15781702,0.09648785,inf,inf,inf,inf,1,1,1,1,2,2,2,2,3,1,1,1,0,0,0
