timestamp,position[0],position[1],position[2],velocity[0],velocity[1],velocity[2],acceleration[0],acceleration[1],acceleration[2],jerk[0],jerk[1],jerk[2],yaw,yawspeed
1905400545,nan,nan,nan,-0.0026326864,-0.00020045093,-0.1837167,0.13859864,0.010552805,0.157928,nan,nan,8.0,nan,0.0
1905425512,nan,nan,nan,-0.0020575637,-0.00012420861,-0.1811721,0.14218801,0.00858344,0.201776,nan,nan,8.0,nan,0.0
1905623711,nan,nan,nan,0.00036315847,0.0032877568,-0.16493493,-0.018403621,-0.1666122,0.215552,nan,nan,8.0,nan,0.0
1905821995,nan,nan,nan,0.0057644034,0.022812001,-0.14862742,-0.07943782,-0.31436655,0.141416,nan,nan,8.0,nan,0.0
1906020423,nan,nan,nan,0.0076634274,0.03983129,-0.13218379,-0.078607544,-0.4085692,0.146056,nan,nan,8.0,nan,0.0
1906218762,nan,nan,nan,0.013558095,0.0584132,-0.11602982,-0.11257924,-0.4850323,0.144352,nan,nan,8.0,nan,0.0
1906421440,nan,nan,nan,0.0036805903,0.017842,-0.19926617,-0.06033609,-0.29248476,-1.114872,nan,nan,-8.0,nan,0.0
1906624638,-4.2041006,-2.4674,nan,0.0,0.0,-0.38883647,0.0,0.0,-0.19723433,nan,nan,8.0,nan,0.0
1906822626,-4.2041006,-2.4674,nan,0.0,0.0,-0.39126778,0.0,0.0,0.0,nan,nan,0.0,nan,0.0
1907020972,-4.2041006,-2.4674,nan,0.0,0.0,-0.39126778,0.0,0.0,0.0,nan,nan,0.0,nan,0.0
1907219736,-4.2041006,-2.4674,nan,0.0,0.0,-0.39049205,0.0,0.0,0.111408,nan,nan,8.0,nan,0.0
1907417745,-4.2041006,-2.4674,nan,0.0,0.0,-0.39126778,0.0,0.0,0.0,nan,nan,0.0,nan,0.0
1907625026,-4.2041006,-2.4674,nan,0.0,0.0,-0.39126778,0.0,0.0,0.0,nan,nan,0.0,nan,0.0
1907823638,-4.2041006,-2.4674,nan,0.0,0.0,-0.39126778,0.0,0.0,0.0,nan,nan,0.0,nan,0.0
1908023374,-4.2041006,-2.4674,nan,0.0,0.0,-0.39126778,0.0,0.0,0.0,nan,nan,0.0,nan,0.0
1908224500,-4.2041006,-2.4674,nan,0.0,0.0,-0.39126778,0.0,0.0,0.0,nan,nan,0.0,nan,0.0
1908419227,-4.2041006,-2.4674,nan,0.0,0.0,-0.431315,0.0,0.0,-0.8004719,nan,nan,-8.0,nan,0.0
1908616644,-4.2041006,-2.4674,nan,0.0,0.0,-0.74517524,0.0,0.0,-2.332529,nan,nan,8.0,nan,0.0
1908824062,-4.2041006,-2.4674,nan,0.0,0.0,-1.0568888,0.0,0.0,-0.6732571,nan,nan,8.0,nan,0.0
1909022656,-4.2041006,-2.4674,nan,0.0,0.0,-1.0838971,0.0,0.0,0.1454,nan,nan,8.0,nan,0.0
1909220685,-4.2041006,-2.4674,nan,0.0,0.0,-1.0852184,0.0,0.0,0.0,nan,nan,0.0,nan,0.0
1909419160,-4.2041006,-2.4674,nan,0.0,0.0,-1.0852184,0.0,0.0,0.0,nan,nan,0.0,nan,0.0
1909618176,-4.2041006,-2.4674,nan,0.0,0.0,-1.0852184,0.0,0.0,0.0,nan,nan,0.0,nan,0.0
1909824692,-4.2041006,-2.4674,nan,0.0,0.0,-1.0852184,0.0,0.0,0.0,nan,nan,0.0,nan,0.0
1910023136,-4.2041006,-2.4674,nan,0.0,0.0,-1.0852184,0.0,0.0,0.0,nan,nan,0.0,nan,0.0
1910221412,-4.2041006,-2.4674,nan,0.0,0.0,-1.0852184,0.0,0.0,0.0,nan,nan,0.0,nan,0.0
1910419701,-4.2041006,-2.4674,nan,0.0,0.0,-1.0852184,0.0,0.0,0.0,nan,nan,0.0,nan,0.0
1910618173,-4.2041006,-2.4674,nan,0.0,0.0,-1.0782927,0.0,0.0,0.0410932,nan,nan,-8.0,nan,0.0
1910818094,-4.2041006,-2.4674,nan,0.0,0.0,-1.0781871,0.0,0.0,0.0,nan,nan,0.0,nan,0.0
1911023869,-4.2041006,-2.4674,nan,0.0,0.0,-1.0784336,0.0,0.0,0.062803864,nan,nan,-8.0,nan,0.0
1911222240,-4.2041006,-2.4674,nan,0.0,0.0,-1.0807003,0.0,0.0,-0.200528,nan,nan,-8.0,nan,0.0
1911417113,-4.2041006,-2.4674,nan,0.0,0.0,-1.0790483,0.0,0.0,-0.117384,nan,nan,-8.0,nan,0.0
1911618919,-4.2041006,-2.4674,nan,0.0,0.0,-1.085095,0.0,0.0,-0.044423044,nan,nan,8.0,nan,-0.031138668
1911817249,-4.2041006,-2.4674,nan,0.0,0.0,-1.0852184,0.0,0.0,0.0,nan,nan,0.0,nan,-0.41624063
1912024622,-4.2041006,-2.4674,nan,0.0,0.0,-1.0852184,0.0,0.0,0.0,nan,nan,0.0,nan,-0.5770458
1912222687,-4.2041006,-2.4674,nan,0.0,0.0,-1.0852184,0.0,0.0,0.0,nan,nan,0.0,nan,-0.57320315
1912421356,-4.2041006,-2.4674,nan,0.0,0.0,-1.0852184,0.0,0.0,0.0,nan,nan,0.0,nan,-0.5238553
1912619451,-4.2041006,-2.4674,nan,0.0,0.0,-1.0852184,0.0,0.0,0.0,nan,nan,0.0,nan,-0.7910346
1912818050,-4.2041006,-2.4674,nan,0.0,0.0,-1.0782819,0.0,0.0,0.03895271,nan,nan,-8.0,nan,-0.16234052
1913016527,-4.2041006,-2.4674,nan,0.0,0.0,-1.0781871,0.0,0.0,0.0,nan,nan,0.0,nan,-0.017797014
1913223505,-4.2041006,-2.4674,nan,0.0,0.0,-0.9487197,0.0,0.0,1.4392642,nan,nan,8.0,nan,-0.0017994377
1913421861,-4.2041006,-2.4674,nan,0.0,0.0,-0.52498627,0.0,0.0,2.2725558,nan,nan,-8.0,nan,-0.00019714338
1913620222,-4.2041006,-2.4674,nan,0.0,0.0,-0.22792332,0.0,0.0,0.7134336,nan,nan,-8.0,nan,-2.1653259e-05
1913820486,-4.2041006,-2.4674,nan,0.0,0.0,-0.19611165,0.0,0.0,0.0,nan,nan,0.0,nan,-0.19133183
1914021348,-4.2041006,-2.4674,nan,0.0,0.0,-0.19611165,0.0,0.0,0.0,nan,nan,0.0,nan,-0.6171094
1914219570,-4.2041006,-2.4674,nan,0.0,0.0,-0.19611165,0.0,0.0,0.0,nan,nan,0.0,nan,-0.7423299
1914417852,-4.2041006,-2.4674,nan,0.0,0.0,-0.19611165,0.0,0.0,0.0,nan,nan,0.0,nan,-0.7920178
1914626676,-4.2041006,-2.4674,nan,0.0,0.0,-0.19611165,0.0,0.0,0.0,nan,nan,0.0,nan,-0.77746147
1914823612,-4.2041006,-2.4674,nan,0.0,0.0,-0.19611165,0.0,0.0,0.0,nan,nan,0.0,nan,-0.16313459
1915022043,-4.2041006,-2.4674,nan,0.0,0.0,-0.19611165,0.0,0.0,0.0,nan,nan,0.0,nan,-0.01792514
1915220401,-4.2041006,-2.4674,nan,0.0,0.0,-0.35349044,0.0,0.0,-1.5868402,nan,nan,-8.0,nan,-0.0019741212
1915418492,-4.2041006,-2.4674,nan,0.0,0.0,-0.77504575,0.0,0.0,-1.9097745,nan,nan,8.0,nan,-0.00021695755
1915618438,-4.2041006,-2.4674,nan,0.0,0.0,-0.9969807,0.0,0.0,-0.31029445,nan,nan,8.0,nan,-2.3451605e-05
1915825591,-4.2041006,-2.4674,nan,0.0,0.0,-0.938027,0.0,0.0,1.0195761,nan,nan,8.0,nan,-2.369162e-06
1916022699,-4.2041006,-2.4674,nan,0.0,0.0,-0.5881708,0.0,0.0,2.1401157,nan,nan,-8.0,nan,-2.6382517e-07
1916221060,-4.2041006,-2.4674,nan,0.0,0.0,-0.26277617,0.0,0.0,0.90654767,nan,nan,-8.0,-2.1094062,-2.9010334e-08
1916421311,-4.2041006,-2.4674,nan,0.0,0.0,-0.20610127,0.0,0.0,0.29149598,nan,nan,8.0,-2.1094062,-3.1302854e-09
1916622201,-4.2041006,-2.4674,nan,0.0,0.0,-0.08411776,0.0,0.0,0.12767452,nan,nan,-8.0,-2.1094062,-3.3504932e-10
1916825094,-4.2041006,-2.4674,nan,0.0,0.0,-0.0038523688,0.0,0.0,0.24827015,nan,nan,-8.0,-2.1094062,-3.5155986e-11
1917024625,-4.2041006,-2.4674,nan,0.0,0.0,-0.038124822,0.0,0.0,-0.43322322,nan,nan,8.0,-2.1094062,-3.805081e-12
1917221693,-4.2041006,-2.4674,nan,0.0,0.0,-0.03885874,0.0,0.0,0.0,nan,nan,0.0,-2.1094062,-4.242915e-13
1917420001,-4.2041006,-2.4674,nan,0.0,0.0,-0.041436348,0.0,0.0,-0.05190885,nan,nan,8.0,-2.1094062,-4.679105e-14
1917618588,-4.2041006,-2.4674,nan,0.0,0.0,-0.121554226,0.0,0.0,-0.8241679,nan,nan,-8.0,-2.1094062,-5.164026e-15
1917816862,-4.2041006,-2.4674,nan,0.0,0.0,-0.24735236,0.0,0.0,-0.16853563,nan,nan,8.0,-2.1094062,-5.7073916e-16
1918024070,-4.2041006,-2.4674,nan,0.0,0.0,-0.27513698,0.0,0.0,0.0,nan,nan,0.0,-2.1094062,-5.755605e-17
1918222501,-4.2041006,-2.4674,nan,0.0,0.0,-0.27513698,0.0,0.0,0.0,nan,nan,0.0,-2.1094062,-6.3180026e-18
1918420766,-4.2041006,-2.4674,nan,0.0,0.0,-0.27513698,0.0,0.0,0.0,nan,nan,0.0,-2.1094062,-6.9590746e-19
1918619069,-4.2041006,-2.4674,nan,0.0,0.0,-0.27513698,0.0,0.0,0.0,nan,nan,0.0,-2.1094062,-7.653079e-20
1918818892,-4.2041006,-2.4674,nan,0.0,0.0,-0.14484218,0.0,0.0,1.1964996,nan,nan,-8.0,-2.1094062,-8.299427e-21
1919020342,-4.2041006,-2.4674,nan,0.0,0.0,-0.060886584,0.0,0.0,-0.0052387863,nan,nan,8.0,-2.1094062,-8.837001e-22
1919223372,-4.2041006,-2.4674,14.004517,0.0,0.0,2.0816682e-17,0.0,0.0,0.0,nan,nan,0.0,-2.1094062,-9.3171686e-23
1919421340,-4.2041006,-2.4674,14.004517,0.0,0.0,0.0,0.0,0.0,0.0,nan,nan,0.0,-2.1094062,-1.0266142e-23
1919619781,-4.2041006,-2.4674,14.004517,0.0,0.0,0.0,0.0,0.0,0.0,nan,nan,0.0,-2.1094062,-1.1286817e-24
1919818147,-4.2041006,-2.4674,14.004517,0.0,0.0,0.0,0.0,0.0,0.0,nan,nan,0.0,-2.1094062,-1.2394592e-25
1920016771,-4.2041006,-2.4674,14.004517,0.0,0.0,0.0,0.0,0.0,0.0,nan,nan,0.0,-2.1094062,-1.3549786e-26
1920223724,-4.2041006,-2.4674,14.004517,0.0,0.0,0.0,0.0,0.0,0.0,nan,nan,0.0,-2.1094062,-1.3696872e-27
1920423088,-4.2041006,-2.4674,14.004517,0.0,0.0,0.0,0.0,0.0,0.0,nan,nan,0.0,-2.1094062,-1.4983935e-28
1920620497,-4.2041006,-2.4674,14.004517,0.0,0.0,0.0,0.0,0.0,0.0,nan,nan,0.0,-2.1094062,-1.6617527e-29
1920818672,-4.2041006,-2.4674,14.004517,0.0,0.0,0.0,0.0,0.0,0.0,nan,nan,0.0,-2.1094062,-1.824662e-30
1921017111,-4.2041006,-2.4674,14.004517,0.0,0.0,0.0,0.0,0.0,0.0,nan,nan,0.0,-2.1094062,-2.0027722e-31
1921224482,-4.2041006,-2.4674,14.004517,0.0,0.0,0.0,0.0,0.0,0.0,nan,nan,0.0,-2.1094062,-2.0160326e-32
1921423045,-4.2041006,-2.4674,14.004517,0.0,0.0,0.0,0.0,0.0,0.0,nan,nan,0.0,-2.1094062,-2.2107566e-33
1921621585,-4.2041006,-2.4674,14.004517,0.0,0.0,0.0,0.0,0.0,0.0,nan,nan,0.0,-2.1094062,-2.4281491e-34
1921819303,-4.2041006,-2.4674,14.004517,0.0,0.0,0.0,0.0,0.0,0.0,nan,nan,0.0,-2.1094062,-2.679267e-35
1922017734,-4.2041006,-2.4674,14.004517,0.0,0.0,0.0,0.0,0.0,0.0,nan,nan,0.0,-2.1094062,-2.9473476e-36
1922226740,-4.2041006,-2.4674,14.004517,0.0,0.0,0.0,0.0,0.0,0.0,nan,nan,0.0,-2.1094062,-2.9211717e-37
1922423479,-4.2041006,-2.4674,14.004517,0.0,0.0,0.0,0.0,0.0,0.0,nan,nan,0.0,-2.1094062,-3.268391e-38
1922621809,-4.2041006,-2.4674,14.004517,0.0,0.0,0.0,0.0,0.0,0.0,nan,nan,0.0,-2.1094062,-3.586207e-39
1922820085,-4.2041006,-2.4674,14.004517,0.0,0.0,0.0,0.0,0.0,0.0,nan,nan,0.0,-2.1094062,-3.94998e-40
1923018295,-4.2041006,-2.4674,14.004517,0.0,0.0,0.0,0.0,0.0,0.0,nan,nan,0.0,-2.1094062,-4.3477e-41
1923216806,-4.2041006,-2.4674,14.004517,0.0,0.0,0.0,0.0,0.0,0.0,nan,nan,0.0,-2.1094062,-4.76e-42
1923424198,-4.2041006,-2.4674,14.004517,0.0,0.0,0.0,0.0,0.0,0.0,nan,nan,0.0,-2.1094062,-4.79e-43
1923622369,-4.2041006,-2.4674,14.004517,0.0,0.0,0.0,0.0,0.0,0.0,nan,nan,0.0,-2.1094062,-5.3e-44
1923821041,-4.2041006,-2.4674,14.004517,0.0,0.0,0.0,0.0,0.0,0.0,nan,nan,0.0,-2.1094062,-6e-45
1924019105,-4.2041006,-2.4674,14.004517,0.0,0.0,0.0,0.0,0.0,0.0,nan,nan,0.0,-2.1094062,-1e-45
1924217464,-4.2041006,-2.4674,14.004517,0.0,0.0,0.0,0.0,0.0,0.0,nan,nan,0.0,-2.1094062,-1e-45
1924424799,-4.2041006,-2.4674,14.004517,0.0,0.0,0.0,0.0,0.0,0.0,nan,nan,0.0,-2.1094062,-1e-45
1924623138,-4.2041006,-2.4674,14.004517,0.0,0.0,0.0,0.0,0.0,0.0,nan,nan,0.0,-2.1094062,-1e-45
1924826003,-4.2041006,-2.4674,14.004517,0.0,0.0,0.0,0.0,0.0,0.0,nan,nan,0.0,-2.1094062,-1e-45
1925020577,-4.2041006,-2.4674,14.004517,0.0,0.0,0.0,0.0,0.0,0.0,nan,nan,0.0,-2.1094062,-1e-45
1925218008,-4.2041006,-2.4674,14.004517,0.0,0.0,0.0,0.0,0.0,0.0,nan,nan,0.0,-2.1094062,-1e-45
1925425433,-4.2041006,-2.4674,14.004517,0.0,0.0,0.0,0.0,0.0,0.0,nan,nan,0.0,-2.1094062,-1e-45
1925623866,-4.2041006,-2.4674,14.004517,0.0,0.0,0.0,0.0,0.0,0.0,nan,nan,0.0,-2.1094062,-1e-45
1925822066,-4.2041006,-2.4674,14.004517,0.0,0.0,0.0,0.0,0.0,0.0,nan,nan,0.0,-2.1094062,-1e-45
1926020485,-4.2041006,-2.4674,14.004517,0.0,0.0,0.0,0.0,0.0,0.0,nan,nan,0.0,-2.1094062,-1e-45
1926219764,-4.2041006,-2.4674,14.004517,0.0,0.0,0.0,0.0,0.0,0.0,nan,nan,0.0,-2.1094062,-1e-45
1926419351,-4.2041006,-2.4674,14.004517,0.0,0.0,0.0,0.0,0.0,0.0,nan,nan,0.0,-2.1094062,-1e-45
1926436815,-4.2041006,-2.4674,14.004517,0.0,0.0,0.0,0.0,0.0,0.0,nan,nan,0.0,-2.1094062,-1e-45
1929684271,-3.3652937,-2.0386586,13.924677,0.0,0.0,0.0,0.0,0.0,0.0,0.0,0.0,0.0,0.0,0.0
1931540498,-3.4516504,-2.2669668,13.806355,0.0,0.0,0.0,0.0,0.0,0.0,0.0,0.0,0.0,0.0,0.0
1931541300,-3.3652937,-2.0386586,14.006355,0.0,0.0,0.0,0.0,0.0,0.0,0.0,0.0,0.0,0.0,0.0
1934412367,-3.2728062,-2.9062538,13.959247,0.0,0.0,0.0,0.0,0.0,0.0,0.0,0.0,0.0,0.0,0.0
1934412961,-3.3652937,-2.0386586,13.959247,0.0,0.0,0.0,0.0,0.0,0.0,0.0,0.0,0.0,0.0,0.0
1972308266,nan,nan,13.977097,0.11329459,-0.06045195,-0.018769193,-0.00017645238,9.41518e-05,0.0,nan,nan,0.0,-0.019416818,0.0
1972316993,nan,nan,13.9769335,0.11275624,-0.060164697,-0.01846497,-0.06173009,0.032938067,0.069768,nan,nan,8.0,-0.019416818,0.0
1972501887,nan,nan,13.975874,0.07208962,-0.038465723,0.0,-0.22675326,0.12099147,0.0,nan,nan,0.0,-0.019416818,0.0
1972700018,nan,nan,13.975874,0.02995249,-0.015982108,0.0,-0.18814592,0.10039125,0.0,nan,nan,0.0,-0.019416818,0.0
1972902922,nan,nan,13.975874,0.0026657472,-0.0014223945,0.0,-0.07849946,0.041885894,0.0,nan,nan,0.0,-0.019416818,0.0
1973096759,-3.2491343,-2.085634,13.975874,0.0,0.0,0.0,0.0,0.0,0.0,nan,nan,0.0,-0.019416818,0.0
1973304369,-3.2491343,-2.085634,13.975874,0.0,0.0,0.0,0.0,0.0,0.0,nan,nan,0.0,-0.019416818,0.0
1973503910,-3.2491343,-2.085634,13.975874,0.0,0.0,0.0,0.0,0.0,0.0,nan,nan,0.0,-0.019416818,0.0
1973700919,nan,nan,13.975874,-0.035178803,0.037947167,0.0,0.25022274,-0.26991382,0.0,nan,nan,0.0,-0.019416818,0.0
1973899002,nan,nan,13.975874,-0.00255478,0.0027558256,0.0,0.08464516,-0.091306224,0.0,nan,nan,0.0,-0.019416818,0.0
1974097592,-3.1422276,-2.149347,nan,0.0,0.0,-0.1674342,0.0,0.0,-1.44456,nan,nan,-8.0,-0.019416818,0.0
1974300195,-3.1422276,-2.149347,nan,0.0,0.0,-0.5827078,0.0,0.0,-1.9118087,nan,nan,8.0,-0.019416818,0.0
1974503437,-3.1422276,-2.149347,nan,0.0,0.0,-0.8060385,0.0,0.0,-0.2858728,nan,nan,8.0,-0.019416818,0.0
1974701456,-3.1422276,-2.149347,nan,0.0,0.0,-0.70580065,0.0,0.0,1.2982792,nan,nan,8.0,-0.019416818,0.0
1974899699,-3.1422276,-2.149347,nan,0.0,0.0,-0.2941176,0.0,0.0,2.579679,nan,nan,-8.0,-0.019416818,0.0
1975098326,-3.1422276,-2.149347,nan,0.0,0.0,0.09201397,0.0,0.0,1.2800994,nan,nan,-8.0,-0.019416818,0.0
1975305388,-3.1422276,-2.149347,nan,0.0,0.0,0.1925535,0.0,0.0,0.0,nan,nan,0.0,-0.019416818,0.0
1975503657,-3.1422276,-2.149347,nan,0.0,0.0,0.14137314,0.0,0.0,0.0,nan,nan,0.0,nan,0.009632984
1975702929,-3.1422276,-2.149347,nan,0.0,0.0,0.12500826,0.0,0.0,0.0,nan,nan,0.0,nan,0.396031
1975900373,-3.1422276,-2.149347,nan,0.0,0.0,0.12500826,0.0,0.0,0.0,nan,nan,0.0,nan,0.70772946
1976098830,-3.1422276,-2.149347,nan,0.0,0.0,0.12500826,0.0,0.0,0.0,nan,nan,0.0,nan,0.6894323
1976297893,-3.1422276,-2.149347,nan,0.0,0.0,0.095356725,0.0,0.0,-0.6355617,nan,nan,-8.0,nan,-0.17325431
1976504379,-3.1422276,-2.149347,nan,0.0,0.0,0.068768725,0.0,0.0,0.0,nan,nan,0.0,nan,-1.2808212
1976702810,-3.1422276,-2.149347,nan,0.0,0.0,0.068768725,0.0,0.0,0.0,nan,nan,0.0,nan,-1.4694315
1976902217,-3.1422276,-2.149347,nan,0.0,0.0,0.068768725,0.0,0.0,0.0,nan,nan,0.0,nan,-1.4901141
1977099254,-3.1422276,-2.149347,nan,0.0,0.0,0.068768725,0.0,0.0,0.0,nan,nan,0.0,nan,-1.4891686
1977299265,-3.1422276,-2.149347,nan,0.0,0.0,0.068768725,0.0,0.0,0.0,nan,nan,0.0,nan,-1.4829484
1977497068,-3.1422276,-2.149347,nan,0.0,0.0,0.068768725,0.0,0.0,0.0,nan,nan,0.0,nan,-1.4822781
1977703551,-3.1422276,-2.149347,nan,0.0,0.0,0.068768725,0.0,0.0,0.0,nan,nan,0.0,nan,-1.482203
1977901689,-3.1422276,-2.149347,nan,0.0,0.0,0.068768725,0.0,0.0,0.0,nan,nan,0.0,nan,-1.390358
1978099988,-3.1422276,-2.149347,nan,0.0,0.0,0.06732344,0.0,0.0,0.0,nan,nan,0.0,nan,-0.17843527
1978298176,-3.1422276,-2.149347,nan,0.0,0.0,0.06732344,0.0,0.0,0.0,nan,nan,0.0,nan,-0.019688774
1978501170,-3.1422276,-2.149347,nan,0.0,0.0,0.06588125,0.0,0.0,0.0,nan,nan,0.0,nan,-0.0020628432
1978699552,-3.1422276,-2.149347,nan,0.0,0.0,0.06588125,0.0,0.0,0.0,nan,nan,0.0,nan,-0.0002262661
1978902377,nan,nan,nan,0.20646872,-0.27322537,0.06588125,-1.1262928,-1.0386958,0.0,nan,nan,0.0,nan,-2.3868091e-05
1979100850,nan,nan,nan,-0.11506519,-0.6227513,0.06588125,-1.9935387,-2.3670893,0.0,nan,nan,0.0,nan,-2.6163452e-06
1979298946,nan,nan,nan,-0.5777951,-1.2463989,0.06588125,-2.4695647,-3.6506639,0.0,nan,nan,0.0,nan,-2.8828362e-07
1979497367,nan,nan,nan,-1.0170615,-1.8921161,0.06588125,-1.9125849,-2.7835867,0.0,nan,nan,0.0,-2.12502,-3.164248e-08
1979704834,nan,nan,nan,-1.3127652,-2.308726,0.06588125,-1.0293928,-1.3783102,0.0,nan,nan,0.0,-2.12502,-3.1782708e-09
1979907490,nan,nan,nan,-1.424612,-2.4345958,0.06573319,-0.16395202,-0.007387683,0.048671424,nan,nan,-8.0,-2.12502,-3.3516057e-10
1980101254,nan,nan,nan,-1.3672845,-2.296288,0.065881245,0.67064756,1.2982978,0.0,nan,nan,0.0,-2.12502,-3.8631418e-11
1980300389,nan,nan,nan,-1.139368,-1.8897341,0.067323446,1.5251038,2.6417599,0.0,nan,nan,0.0,-2.12502,-4.263872e-12
1980498043,nan,nan,nan,-0.82959807,-1.3666981,0.06622181,1.2698832,2.115042,-0.07381855,nan,nan,8.0,-2.12502,-4.7098355e-13
1980705713,nan,nan,nan,-0.6193473,-1.0201874,0.067323446,1.0700983,1.7552335,0.0,nan,nan,0.0,-2.12502,-4.7412236e-14
1980903987,nan,nan,nan,-0.46080157,-0.7595411,0.067323446,0.66328454,1.0932945,0.0,nan,nan,0.0,-2.12502,-5.204233e-15
1981097636,nan,nan,nan,-0.30293918,-0.5006394,0.067323446,0.78967255,1.2941824,0.0,nan,nan,0.0,-2.12502,-6.079075e-16
1981301068,nan,nan,nan,-0.1993798,-0.32969454,0.067323446,0.45012718,0.74433064,0.0,nan,nan,0.0,-2.12502,-6.3459047e-17
1981499218,nan,nan,nan,-0.09818036,-0.16307361,0.067323446,0.754146,1.2333089,0.0,nan,nan,0.0,-2.12502,-7.0571816e-18
1981699324,nan,nan,nan,0.07507695,0.120271035,0.067323446,0.5907949,0.9715877,0.0,nan,nan,0.0,-2.12502,-7.6313533e-19
1981904858,nan,nan,nan,0.09902694,0.16063659,0.067323446,-0.26779377,-0.4330319,0.0,nan,nan,0.0,-2.12502,-7.80584e-20
1982102712,nan,nan,nan,0.05898734,0.056891833,0.067323446,0.1571986,-0.6832113,0.0,nan,nan,0.0,-2.12502,-8.5942846e-21
1982296613,nan,nan,nan,0.14728676,-0.08063691,0.067323446,0.13490593,-0.33476642,0.0,nan,nan,0.0,-2.12502,-9.855716e-22
1982499555,nan,nan,nan,0.22265227,-0.13658744,0.067323446,0.7423145,-0.465661,0.0,nan,nan,0.0,-2.12502,-1.03205126e-22
1982698366,nan,nan,nan,0.30339053,-0.18727623,0.067323446,0.7457271,-0.46374395,0.0,nan,nan,0.0,-2.12502,-1.12832566e-23
1982904942,nan,nan,nan,0.4552867,-0.2815408,0.067323446,0.18966465,-0.118194334,0.0,nan,nan,0.0,-2.12502,-1.1435335e-24
1983103457,nan,nan,nan,0.4261378,-0.26360872,0.067323446,0.19184946,-0.11919436,0.0,nan,nan,0.0,-2.12502,-1.2537932e-25
1983301488,nan,nan,nan,0.4860425,-0.3007427,0.067323446,0.35016435,-0.2168657,0.0,nan,nan,0.0,-2.12502,-1.3787449e-26
1983499934,nan,nan,nan,0.63186073,-0.39101627,0.067323446,0.44416574,-0.27499554,0.0,nan,nan,0.0,-2.12502,-1.5132254e-27
1983698382,nan,nan,nan,0.57259095,-0.3543482,0.067323446,-0.8881132,0.54960924,0.0,nan,nan,0.0,-2.12502,-1.6594613e-28
1983905811,nan,nan,nan,0.39360687,-0.24358378,0.067323446,-0.8331964,0.5156239,0.0,nan,nan,0.0,-2.12502,-1.6821003e-29
1984103791,nan,nan,nan,0.24234667,-0.14997634,0.067323446,-0.710016,0.43939373,0.0,nan,nan,0.0,-2.12502,-1.8533807e-30
1984302280,nan,nan,nan,0.120566785,-0.074612804,0.067323446,-0.52972865,0.32782277,0.0,nan,nan,0.0,-2.12502,-2.034206e-31
1984500503,nan,nan,nan,0.03752536,-0.023222588,0.067323446,-0.31807557,0.19684123,0.0,nan,nan,0.0,-2.12502,-2.2372908e-32
1984698934,nan,nan,nan,0.0005229836,-0.00032364862,0.067323446,-0.064955294,0.040197615,0.0,nan,nan,0.0,-2.12502,-2.4544032e-33
1984897981,-5.3393264,-3.7535548,nan,0.0,0.0,0.09352339,0.0,0.0,0.647456,nan,nan,8.0,-2.12502,-2.6843986e-34
1985104411,-5.3393264,-3.7535548,nan,0.0,0.0,0.30155712,0.0,0.0,1.2354927,nan,nan,8.0,-2.12502,-2.7326108e-35
1985303298,-5.3393264,-3.7535548,nan,0.0,0.0,0.54615456,0.0,0.0,0.5691564,nan,nan,-8.0,-2.12502,-2.9917422e-36
1985501254,-5.3393264,-3.7535548,nan,0.0,0.0,0.52817106,0.0,0.0,-0.782096,nan,nan,-8.0,-2.12502,-3.2994767e-37
1985701164,-5.3393264,-3.7535548,nan,0.0,0.0,0.25946268,0.0,0.0,-1.4579104,nan,nan,8.0,-2.12502,-3.5626587e-38
1985897871,-5.3393264,-3.7535548,nan,0.0,0.0,0.1266188,0.0,0.0,0.0,nan,nan,0.0,-2.12502,-3.98277e-39
1986097028,-5.3393264,-3.7535548,nan,0.0,0.0,0.1266188,0.0,0.0,0.0,nan,nan,0.0,-2.12502,-4.33922e-40
1986296866,-5.3393264,-3.7535548,nan,0.0,0.0,0.12800938,0.0,0.0,-0.048552006,nan,nan,-8.0,-2.12502,-4.692e-41
1986501890,-5.3393264,-3.7535548,nan,0.0,0.0,0.1266188,0.0,0.0,0.0,nan,nan,0.0,-2.12502,-4.839e-42
1986700072,-5.3393264,-3.7535548,nan,0.0,0.0,0.1266188,0.0,0.0,0.0,nan,nan,0.0,-2.12502,-5.32e-43
1986898542,-5.3393264,-3.7535548,nan,0.0,0.0,0.1266188,0.0,0.0,0.0,nan,nan,0.0,-2.12502,-5.9e-44
1987097411,-5.3393264,-3.7535548,nan,0.0,0.0,0.1266188,0.0,0.0,0.0,nan,nan,0.0,-2.12502,-7e-45
1987304580,-5.3393264,-3.7535548,nan,0.0,0.0,0.1266188,0.0,0.0,0.0,nan,nan,0.0,-2.12502,-1e-45
1987497991,-5.3393264,-3.7535548,nan,0.0,0.0,0.1266188,0.0,0.0,0.0,nan,nan,0.0,-2.12502,-1e-45
1987700815,-5.3393264,-3.7535548,nan,0.0,0.0,0.1266188,0.0,0.0,0.0,nan,nan,0.0,-2.12502,-1e-45
1987899190,-5.3393264,-3.7535548,nan,0.0,0.0,0.1266188,0.0,0.0,0.0,nan,nan,0.0,-2.12502,-1e-45
1988097580,-5.3393264,-3.7535548,nan,0.0,0.0,0.1266188,0.0,0.0,0.0,nan,nan,0.0,-2.12502,-1e-45
1988300471,-5.3393264,-3.7535548,nan,0.0,0.0,0.1266188,0.0,0.0,0.0,nan,nan,0.0,-2.12502,-1e-45
1988503230,-5.3393264,-3.7535548,nan,0.0,0.0,0.1266188,0.0,0.0,0.0,nan,nan,0.0,-2.12502,-1e-45
1988701730,-5.3393264,-3.7535548,nan,0.0,0.0,0.1266188,0.0,0.0,0.0,nan,nan,0.0,-2.12502,-1e-45
1988899735,-5.3393264,-3.7535548,nan,0.0,0.0,0.12778503,0.0,0.0,0.0848432,nan,nan,-8.0,-2.12502,-1e-45
1989098231,-5.3393264,-3.7535548,nan,0.0,0.0,0.1266188,0.0,0.0,0.0,nan,nan,0.0,-2.12502,-1e-45
1989296621,-5.3393264,-3.7535548,nan,0.0,0.0,0.1266188,0.0,0.0,0.0,nan,nan,0.0,-2.12502,-1e-45
1989508391,-5.3393264,-3.7535548,nan,0.0,0.0,0.1266188,0.0,0.0,0.0,nan,nan,0.0,-2.12502,-1e-45
1989702318,-5.3393264,-3.7535548,nan,0.0,0.0,0.1266188,0.0,0.0,0.0,nan,nan,0.0,-2.12502,-1e-45
1989900521,-5.3393264,-3.7535548,nan,0.0,0.0,0.1266188,0.0,0.0,0.0,nan,nan,0.0,-2.12502,-1e-45
1990103736,-5.3393264,-3.7535548,nan,0.0,0.0,0.1266188,0.0,0.0,0.0,nan,nan,0.0,-2.12502,-1e-45
1990297310,-5.3393264,-3.7535548,nan,0.0,0.0,0.1266188,0.0,0.0,0.0,nan,nan,0.0,-2.12502,-1e-45
1990504446,-5.3393264,-3.7535548,nan,0.0,0.0,0.1266188,0.0,0.0,0.0,nan,nan,0.0,-2.12502,-1e-45
1990703773,-5.3393264,-3.7535548,nan,0.0,0.0,0.1266188,0.0,0.0,0.0,nan,nan,0.0,-2.12502,-1e-45
1990901163,-5.3393264,-3.7535548,nan,0.0,0.0,0.1266188,0.0,0.0,0.0,nan,nan,0.0,-2.12502,-1e-45
1991099329,-5.3393264,-3.7535548,nan,0.0,0.0,0.1266188,0.0,0.0,0.0,nan,nan,0.0,-2.12502,-1e-45
1991302204,-5.3393264,-3.7535548,nan,0.0,0.0,0.1266188,0.0,0.0,0.0,nan,nan,0.0,-2.12502,-1e-45
1991505213,-5.3393264,-3.7535548,nan,0.0,0.0,0.1266188,0.0,0.0,0.0,nan,nan,0.0,-2.12502,-1e-45
1991703670,-5.3393264,-3.7535548,nan,0.0,0.0,0.1266188,0.0,0.0,0.0,nan,nan,0.0,-2.12502,-1e-45
1991897432,-5.3393264,-3.7535548,nan,0.0,0.0,0.1266188,0.0,0.0,0.0,nan,nan,0.0,-2.12502,-1e-45
1992101564,-5.3393264,-3.7535548,nan,0.0,0.0,0.1210769,0.0,0.0,-0.29777598,nan,nan,-8.0,-2.12502,-1e-45
1992298304,-5.3393264,-3.7535548,14.324975,0.0,0.0,0.0012467378,0.0,0.0,-0.14123671,nan,nan,8.0,-2.12502,-1e-45
1992498323,-5.3393264,-3.7535548,nan,0.0,0.0,-0.025636207,0.0,0.0,-0.45995715,nan,nan,8.0,-2.12502,-1e-45
1992704104,-5.3393264,-3.7535548,14.335943,0.0,0.0,-0.00028464384,0.0,0.0,0.06748597,nan,nan,-8.0,-2.12502,-1e-45
1992903220,-5.3393264,-3.7535548,nan,0.0,0.0,-0.03492231,0.0,0.0,-0.647189,nan,nan,-8.0,-2.12502,-1e-45
1993100708,-5.3393264,-3.7535548,nan,0.0,0.0,-0.24351686,0.0,0.0,-0.78220165,nan,nan,8.0,-2.12502,-1e-45
1993300582,-5.3393264,-3.7535548,nan,0.0,0.0,-0.28046426,0.0,0.0,0.14380799,nan,nan,8.0,-2.12502,-1e-45
1993497553,-5.3393264,-3.7535548,nan,0.0,0.0,-0.27683723,0.0,0.0,0.28056002,nan,nan,8.0,-2.12502,-1e-45
1993700287,-5.3393264,-3.7535548,nan,0.0,0.0,-0.2332331,0.0,0.0,0.0,nan,nan,0.0,-2.12502,-1e-45
1993902982,-5.3393264,-3.7535548,nan,0.0,0.0,-0.23356725,0.0,0.0,0.07312009,nan,nan,-8.0,-2.12502,-1e-45
1994102303,-5.3393264,-3.7535548,nan,0.0,0.0,-0.23582102,0.0,0.0,-0.09547823,nan,nan,8.0,-2.12502,-1e-45
1994299694,-5.3393264,-3.7535548,nan,0.0,0.0,-0.2357889,0.0,0.0,0.098135084,nan,nan,8.0,-2.12502,-1e-45
1994498034,-5.3393264,-3.7535548,nan,0.0,0.0,-0.23638055,0.0,0.0,0.012795538,nan,nan,8.0,-2.12502,-1e-45
1994705396,-5.3393264,-3.7535548,nan,0.0,0.0,-0.23408844,0.0,0.0,-0.071063995,nan,nan,-8.0,-2.12502,-1e-45
1994899100,-5.3393264,-3.7535548,nan,0.0,0.0,-0.23525201,0.0,0.0,0.134984,nan,nan,8.0,-2.12502,-1e-45
1995101963,-5.3393264,-3.7535548,nan,0.0,0.0,-0.23639081,0.0,0.0,0.0,nan,nan,0.0,-2.12502,-1e-45
1995301019,-5.3393264,-3.7535548,nan,0.0,0.0,-0.2363908,0.0,0.0,0.0,nan,nan,0.0,-2.12502,-1e-45
1995498698,-5.3393264,-3.7535548,nan,0.0,0.0,-0.2363908,0.0,0.0,0.0,nan,nan,0.0,-2.12502,-1e-45
1995696998,-5.3393264,-3.7535548,nan,0.0,0.0,-0.2363908,0.0,0.0,0.0,nan,nan,0.0,-2.12502,-1e-45
1995900262,-5.3393264,-3.7535548,nan,0.0,0.0,-0.2332331,0.0,0.0,0.0,nan,nan,0.0,-2.12502,-1e-45
1996102867,-5.3393264,-3.7535548,nan,0.0,0.0,-0.20366392,0.0,0.0,0.650192,nan,nan,8.0,-2.12502,-1e-45
1996300908,-5.3393264,-3.7535548,nan,0.0,0.0,-0.014335137,0.0,0.0,0.47891778,nan,nan,-8.0,-2.12502,-1e-45
1996499278,-5.3393264,-3.7535548,13.764727,0.0,0.0,0.0,0.0,0.0,0.0,nan,nan,0.0,-2.12502,-1e-45
1996702126,-5.3393264,-3.7535548,13.764727,0.0,0.0,0.0,0.0,0.0,0.0,nan,nan,0.0,-2.12502,-1e-45
1996905127,-5.3393264,-3.7535548,13.764727,0.0,0.0,0.0,0.0,0.0,0.0,nan,nan,0.0,-2.12502,-1e-45
1997103349,-5.3393264,-3.7535548,13.764727,0.0,0.0,0.0,0.0,0.0,0.0,nan,nan,0.0,-2.12502,-1e-45
1997301676,-5.3393264,-3.7535548,13.764727,0.0,0.0,0.0,0.0,0.0,0.0,nan,nan,0.0,-2.12502,-1e-45
1997500456,-5.3393264,-3.7535548,13.764727,0.0,0.0,0.0,0.0,0.0,0.0,nan,nan,0.0,-2.12502,-1e-45
1997698286,-5.3393264,-3.7535548,13.764727,0.0,0.0,0.0,0.0,0.0,0.0,nan,nan,0.0,-2.12502,-1e-45
1997898309,-5.3393264,-3.7535548,13.764727,0.0,0.0,0.0,0.0,0.0,0.0,nan,nan,0.0,-2.12502,-1e-45
1998104073,-5.3393264,-3.7535548,13.764727,0.0,0.0,0.0,0.0,0.0,0.0,nan,nan,0.0,-2.12502,-1e-45
1998303943,-5.3393264,-3.7535548,13.764727,0.0,0.0,0.0,0.0,0.0,0.0,nan,nan,0.0,-2.12502,-1e-45
1998500732,-5.3393264,-3.7535548,13.764727,0.0,0.0,0.0,0.0,0.0,0.0,nan,nan,0.0,-2.12502,-1e-45
1998699729,-5.3393264,-3.7535548,13.764727,0.0,0.0,0.0,0.0,0.0,0.0,nan,nan,0.0,-2.12502,-1e-45
1998897449,-5.3393264,-3.7535548,13.764727,0.0,0.0,0.0,0.0,0.0,0.0,nan,nan,0.0,-2.12502,-1e-45
1999104574,-5.3393264,-3.7535548,13.764727,0.0,0.0,0.0,0.0,0.0,0.0,nan,nan,0.0,-2.12502,-1e-45
1999303126,-5.3393264,-3.7535548,13.764727,0.0,0.0,0.0,0.0,0.0,0.0,nan,nan,0.0,-2.12502,-1e-45
1999501368,-5.3393264,-3.7535548,13.764727,0.0,0.0,0.0,0.0,0.0,0.0,nan,nan,0.0,-2.12502,-1e-45
1999699889,-5.3393264,-3.7535548,13.764727,0.0,0.0,0.0,0.0,0.0,0.0,nan,nan,0.0,-2.12502,-1e-45
1999898316,-5.3393264,-3.7535548,13.764727,0.0,0.0,0.0,0.0,0.0,0.0,nan,nan,0.0,-2.12502,-1e-45
2000105241,-5.3393264,-3.7535548,13.764727,0.0,0.0,0.0,0.0,0.0,0.0,nan,nan,0.0,-2.12502,-1e-45
2000305093,-5.3393264,-3.7535548,13.764727,0.0,0.0,0.0,0.0,0.0,0.0,nan,nan,0.0,-2.12502,-1e-45
2000501785,-5.3393264,-3.7535548,13.764727,0.0,0.0,0.0,0.0,0.0,0.0,nan,nan,0.0,-2.12502,-1e-45
2000582984,-5.3393264,-3.7535548,13.764727,0.0,0.0,0.0,0.0,0.0,0.0,nan,nan,0.0,-2.12502,-1e-45
2001663963,-4.4175506,-3.7007697,13.688694,0.0,0.0,0.0,0.0,0.0,0.0,0.0,0.0,0.0,0.0,0.0
2004513029,-4.0724216,-4.3394628,14.108262,0.0,0.0,0.0,0.0,0.0,0.0,0.0,0.0,0.0,0.0,0.0
2005841452,-4.1543884,-4.757559,14.069991,0.0,0.0,0.0,0.0,0.0,0.0,0.0,0.0,0.0,0.0,0.0
2005842206,-4.5543156,-4.0864763,14.069991,0.0,0.0,0.0,0.0,0.0,0.0,0.0,0.0,0.0,0.0,0.0
2009811774,-4.654671,-3.942944,14.413648,0.0,0.0,0.0,0.0,0.0,0.0,0.0,0.0,0.0,0.0,0.0
2011940024,-4.255797,-3.571066,14.365031,0.0,0.0,0.0,0.0,0.0,0.0,0.0,0.0,0.0,0.0,0.0
2012392416,-4.5729947,-3.9768941,14.384318,0.0,0.0,0.0,0.0,0.0,0.0,0.0,0.0,0.0,0.0,0.0
2012395313,-4.810455,-3.9147956,14.584318,0.0,0.0,0.0,0.0,0.0,0.0,0.0,0.0,0.0,0.0,0.0
2013283964,-4.625931,-3.7156801,14.536205,0.0,0.0,0.0,0.0,0.0,0.0,0.0,0.0,0.0,0.0,0.0
2016742328,-4.5557346,-3.7143137,14.664536,0.0,0.0,0.0,0.0,0.0,0.0,0.0,0.0,0.0,0.0,0.0
2016744423,-4.5128717,-3.4723294,14.864536,0.0,0.0,0.0,0.0,0.0,0.0,0.0,0.0,0.0,0.0,0.0
2018180997,-4.5014315,-3.6475408,14.815357,0.0,0.0,0.0,0.0,0.0,0.0,0.0,0.0,0.0,0.0,0.0
2018181970,-4.555417,-3.6104445,14.815357,0.0,0.0,0.0,0.0,0.0,0.0,0.0,0.0,0.0,0.0,0.0
2018206872,-4.555417,-3.6104445,15.016235,0.0,0.0,0.0,0.0,0.0,0.0,0.0,0.0,0.0,0.0,0.0
2020080216,-4.531822,-3.652671,14.967647,0.0,0.0,0.0,0.0,0.0,0.0,0.0,0.0,0.0,0.0,0.0
2020080710,-4.6072545,-3.5159206,14.967647,0.0,0.0,0.0,0.0,0.0,0.0,0.0,0.0,0.0,0.0,0.0
2020111793,-4.6072545,-3.5159206,15.1678505,0.0,0.0,0.0,0.0,0.0,0.0,0.0,0.0,0.0,0.0,0.0
2023677597,-4.367236,-3.45493,15.120266,0.0,0.0,0.0,0.0,0.0,0.0,0.0,0.0,0.0,0.0,0.0
2023700436,-4.573763,-3.5551968,15.121799,0.0,0.0,0.0,0.0,0.0,0.0,0.0,0.0,0.0,0.0,0.0
2023701629,-4.367236,-3.45493,15.321799,0.0,0.0,0.0,0.0,0.0,0.0,0.0,0.0,0.0,0.0,0.0
2025158217,-4.286883,-3.498439,15.272825,0.0,0.0,0.0,0.0,0.0,0.0,0.0,0.0,0.0,0.0,0.0
2025182145,-4.286883,-3.498439,15.473658,0.0,0.0,0.0,0.0,0.0,0.0,0.0,0.0,0.0,0.0,0.0
2026298508,-4.2774653,-3.4265454,15.427598,0.0,0.0,0.0,0.0,0.0,0.0,0.0,0.0,0.0,0.0,0.0
2026298995,-4.1648707,-3.4073575,15.427598,0.0,0.0,0.0,0.0,0.0,0.0,0.0,0.0,0.0,0.0,0.0
2026323573,-4.1648707,-3.4073575,15.631694,0.0,0.0,0.0,0.0,0.0,0.0,0.0,0.0,0.0,0.0,0.0
2027022959,-4.1648707,-3.4073575,15.593784,0.0,0.0,0.0,0.0,0.0,0.0,0.0,0.0,0.0,0.0,0.0
2027046450,-4.220824,-3.3554525,15.593784,0.0,0.0,0.0,0.0,0.0,0.0,0.0,0.0,0.0,0.0,0.0
2027047555,-4.1648707,-3.4073575,15.793784,0.0,0.0,0.0,0.0,0.0,0.0,0.0,0.0,0.0,0.0,0.0
2027532119,-4.1730523,-3.3346503,15.747617,0.0,0.0,0.0,0.0,0.0,0.0,0.0,0.0,0.0,0.0,0.0
2027553324,-4.1648707,-3.4073575,15.967112,0.0,0.0,0.0,0.0,0.0,0.0,0.0,0.0,0.0,0.0,0.0
2028307475,-4.08177,-3.3152845,15.932344,0.0,0.0,0.0,0.0,0.0,0.0,0.0,0.0,0.0,0.0,0.0
2028314911,-4.212847,-3.24148,15.932344,0.0,0.0,0.0,0.0,0.0,0.0,0.0,0.0,0.0,0.0,0.0
2028380636,-4.212847,-3.24148,16.132345,0.0,0.0,0.0,0.0,0.0,0.0,0.0,0.0,0.0,0.0,0.0
2028876273,-4.0558844,-3.2955146,16.087267,0.0,0.0,0.0,0.0,0.0,0.0,0.0,0.0,0.0,0.0,0.0
2028876661,-4.195701,-3.328375,16.087267,0.0,0.0,0.0,0.0,0.0,0.0,0.0,0.0,0.0,0.0,0.0
2028932396,-4.195701,-3.328375,16.292542,0.0,0.0,0.0,0.0,0.0,0.0,0.0,0.0,0.0,0.0,0.0
2029364140,-4.061558,-3.272076,16.250301,0.0,0.0,0.0,0.0,0.0,0.0,0.0,0.0,0.0,0.0,0.0
2029388347,-4.195701,-3.328375,16.450302,0.0,0.0,0.0,0.0,0.0,0.0,0.0,0.0,0.0,0.0,0.0
2029804567,-4.0786333,-3.2551382,16.417557,0.0,0.0,0.0,0.0,0.0,0.0,0.0,0.0,0.0,0.0,0.0
2029806955,-4.3449597,-3.2573037,16.417557,0.0,0.0,0.0,0.0,0.0,0.0,0.0,0.0,0.0,0.0,0.0
2031113457,-4.114554,-3.304325,16.684273,0.0,0.0,0.0,0.0,0.0,0.0,0.0,0.0,0.0,0.0,0.0
2031114499,-4.3449597,-3.2573037,16.884274,0.0,0.0,0.0,0.0,0.0,0.0,0.0,0.0,0.0,0.0,0.0
2031758954,-4.2015567,-3.3235292,16.843513,0.0,0.0,0.0,0.0,0.0,0.0,0.0,0.0,0.0,0.0,0.0
2031760005,-4.3449597,-3.2573037,16.843513,0.0,0.0,0.0,0.0,0.0,0.0,0.0,0.0,0.0,0.0,0.0
2031782658,-4.3449597,-3.2573037,17.04815,0.0,0.0,0.0,0.0,0.0,0.0,0.0,0.0,0.0,0.0,0.0
2032364909,-4.2247353,-3.3563828,17.003061,0.03938453,-0.05856528,0.10024982,0.0,0.0,0.0,0.0,0.0,0.0,-0.20388636,0.00016489899
2032382598,-4.2240424,-3.357415,17.004837,0.038804542,-0.057939906,0.1008752,-0.051675558,0.070732,0.070732,0.0,4.0,4.0,-0.18999816,0.0639516
2032558951,-4.2180448,-3.3663597,17.027298,0.029230043,-0.043494795,0.1751806,-0.0573802,0.08660865,0.77423906,0.0,0.0,4.0,-0.051621214,0.47368583
2032765563,-4.2133045,-3.373386,17.085491,0.016621169,-0.02446343,0.41840494,-0.06444186,0.09727019,1.5009199,0.0,0.0,-4.0,-0.016990842,0.24588981
2032965537,-4.211329,-3.3762434,17.19245,0.00315448,-0.0041377423,0.6370355,-0.07046372,0.10634005,0.7097298,0.0,0.0,-4.0,-0.016990842,0.094919465
2033162229,-4.2120867,-3.3750355,17.32604,-0.010275649,0.013474022,0.70000005,0.00031237304,-0.008592598,-4.2915344e-06,4.0,0.0,0.0,-0.016990842,0.037205856
2033365214,-4.2137485,-3.372548,17.468132,-0.007525353,0.011458953,0.7,0.0,0.0,0.0,0.0,0.0,0.0,-0.016990842,0.014193198
2033559149,-4.215105,-3.370484,17.603888,-0.0065393127,0.009957546,0.7,0.0,0.0,0.0,0.0,0.0,0.0,-0.016990842,0.005632633
2033757106,-4.216312,-3.3686452,17.742098,-0.0057142144,0.008700714,0.7,0.0,0.0,0.0,0.0,0.0,0.0,-0.016990842,0.0021978884
2033956995,-4.21737,-3.3670363,17.880535,-0.0049983296,0.007611186,0.7,0.0,0.0,0.0,0.0,0.0,0.0,-0.016990842,0.00084878923
2034163036,-4.2183185,-3.3655927,18.022915,-0.0043723034,0.0066594575,0.7,0.0,0.0,0.0,0.0,0.0,0.0,-0.016990842,0.0003189576
2034361171,-4.219112,-3.3643837,18.159588,-0.0038054432,0.0057955184,0.7,0.0,0.0,0.0,0.0,0.0,0.0,-0.016990842,0.00012417683
2034559530,-4.219807,-3.3633263,18.29626,-0.003330719,0.0050735883,0.7,0.0,0.0,0.0,0.0,0.0,0.0,-0.016990842,4.8294674e-05
2034758747,-4.2204165,-3.3623974,18.43331,-0.0029170513,0.004442769,0.7,0.0,0.0,0.0,0.0,0.0,0.0,-0.016990842,1.871008e-05
2034960679,-4.2209573,-3.3615758,18.571928,-0.0025466424,0.00387938,0.7,0.0,0.0,0.0,0.0,0.0,0.0,-0.016990842,7.1584086e-06
2035163506,-4.2214303,-3.360856,18.710958,-0.0022365716,0.0034087147,0.7,0.0,0.0,0.0,0.0,0.0,0.0,-0.016990842,2.7286876e-06
2035361887,-4.221833,-3.3602417,18.846682,-0.0019592429,0.0029855738,0.7,0.0,0.0,0.0,0.0,0.0,0.0,-0.016990842,1.060629e-06
2035561843,-4.2221885,-3.3596997,18.983183,-0.0017082149,0.002602207,0.7,0.0,0.0,0.0,0.0,0.0,0.0,-0.016990842,4.0959983e-07
2035762875,-4.222501,-3.359224,19.12022,-0.0014965255,0.0022808586,0.7,0.0,0.0,0.0,0.0,0.0,0.0,-0.016990842,1.5739514e-07
2035957038,-4.2227664,-3.3588207,19.252651,-0.0013115811,0.0019989933,0.7,0.0,0.0,0.0,0.0,0.0,0.0,-0.016990842,6.239706e-08
2036164137,-4.223014,-3.3584447,19.393858,-0.0011491039,0.001752574,0.7,0.0,0.0,0.0,0.0,0.0,0.0,-0.016990842,2.3354115e-08
2036362608,-4.223219,-3.3581297,19.529066,-0.0010055992,0.0015319178,0.7,0.0,0.0,0.0,0.0,0.0,0.0,-0.016990842,9.075334e-09
2036560820,-4.223401,-3.3578537,19.664068,-0.0008783121,0.001339402,0.7,0.0,0.0,0.0,0.0,0.0,0.0,-0.016990842,3.5320353e-09
2036759088,-4.2235584,-3.3576121,19.798952,-0.00077142945,0.0011739903,0.7,0.0,0.0,0.0,0.0,0.0,0.0,-0.016990842,1.3743803e-09
2036957504,-4.2236958,-3.3574007,19.933765,-0.0006767822,0.0010296372,0.7,0.0,0.0,0.0,0.0,0.0,0.0,-0.016990842,5.3438004e-10
2037156696,-4.223818,-3.3572154,20.06903,-0.00059408246,0.00090367923,0.7,0.0,0.0,0.0,0.0,0.0,0.0,-0.016990842,2.0711877e-10
2037363100,-4.22393,-3.3570473,20.209076,-0.00052065327,0.0007927407,0.7,0.0,0.0,0.0,0.0,0.0,0.0,-0.016990842,7.7689445e-11
2037561487,-4.2240267,-3.3569057,20.343657,-0.0004542131,0.0006954641,0.7,0.0,0.0,0.0,0.0,0.0,0.0,-0.016990842,3.0213165e-11
2037759751,-4.1595716,-3.37255,17.896507,-0.0006518775,0.0,0.7,-0.072215095,0.0,0.0,-4.0,0.0,0.0,0.003715138,0.0
2037958282,-4.158745,-3.3769605,17.918987,-0.0005550934,0.0,0.7,-0.06663893,0.0,0.0,-4.0,0.0,0.0,0.0047287233,0.0
2038165906,-4.1597104,-3.3810787,17.947395,-0.0015394546,0.0009568213,0.7,-0.11097584,0.042703837,0.0,-4.0,0.0,0.0,-0.003639184,0.0
2038365749,-4.159631,-3.3845274,17.966003,-0.0012150357,0.0007706955,0.7,-0.09859151,0.038970023,0.0,-4.0,0.0,0.0,-0.00078294054,0.0
2038562038,-4.158579,-3.3886793,17.981102,-0.00065175426,0.0005718935,0.7,-0.07220827,0.04693207,0.0,-4.0,0.0,0.0,0.0048201354,0.0
2038760522,-4.1591697,-3.3927078,17.998108,-0.0006659709,0.00066186447,0.7,-0.07299156,0.06725991,0.0,-4.0,0.0,0.0,0.005021967,0.0
2038958704,-4.1603994,-3.3973925,18.014017,-0.0006452358,0.0006452358,0.7,-0.07184627,0.07184627,0.0,-4.0,4.0,0.0,0.0056092897,0.0
2039156975,-4.161009,-3.402482,18.027382,-0.00065703475,0.00065703475,0.7,-0.07250019,0.07250019,0.0,-4.0,4.0,0.0,0.0058959965,0.0
2039364856,-4.1616764,-3.4068992,18.040413,-0.0010644223,0.0010644223,0.7,-0.09227881,0.09227881,0.0,-4.0,4.0,0.0,0.0024186615,0.0
2039562656,-4.1635966,-3.4111915,18.042166,-0.00061148824,0.00061148824,0.7,-0.06994216,0.06994216,0.0,-4.0,4.0,0.0,0.0070805633,0.0
2039616974,-4.16368,-3.412359,18.044527,-0.00037648698,0.00037648698,0.7,-0.054880742,0.054880742,0.0,-4.0,4.0,0.0,0.021019308,-0.17856055
