timestamp,timestamp_sample,ref_timestamp,ref_lat,ref_lon,x,y,z,delta_xy[0],delta_xy[1],delta_z,vx,vy,vz,z_deriv,delta_vxy[0],delta_vxy[1],delta_vz,ax,ay,az,heading,delta_heading,ref_alt,dist_bottom,eph,epv,evh,evv,vxy_max,vz_max,hagl_min,hagl_max,xy_valid,z_valid,v_xy_valid,v_z_valid,xy_reset_counter,z_reset_counter,vxy_reset_counter,vz_reset_counter,heading_reset_counter,heading_good_for_control,xy_global,z_global,dist_bottom_valid,dist_bottom_sensor_bitfield,dead_reckoning
1905416253,1905415322,40177334,41.1790555,-8.6035789,-4.2270827,-2.4858556,18.043884,0.008950949,-0.038369656,1.4412384,-0.005572083,-0.00034569588,-0.07563913,-0.019635893,0.035676077,-0.046197742,-0.010773117,0.008023641,-0.0049119224,-0.0054191337,-1.8224418,-0.15026544,129.98909,0.1051445,0.3291493,0.30070624,0.13952385,0.11036084,inf,inf,inf,inf,1,1,1,1,3,8,3,3,5,0,1,1,0,0,0
1905425423,1905424337,40177334,41.1790555,-8.6035789,-4.227004,-2.48593,18.04367,0.008950949,-0.038369656,1.4412384,-0.005515986,-0.0006137818,-0.075812966,-0.019871024,0.035676077,-0.046197742,-0.010773117,0.01699593,-0.0072565996,-0.032886498,-1.8224174,-0.15026544,129.98909,0.10467911,0.32994634,0.30144894,0.13991387,0.11055757,inf,inf,inf,inf,1,1,1,1,3,8,3,3,5,0,1,1,0,0,0
1905524481,1905523504,40177334,41.1790555,-8.6035789,-4.2249207,-2.4870036,18.041147,0.008950949,-0.038369656,1.4412384,-0.0019556354,0.0014492813,-0.07697715,-0.021799523,0.035676077,-0.046197742,-0.010773117,0.22148627,0.07454795,-0.10261229,-1.8222088,-0.15026544,129.98909,0.10326004,0.32123667,0.2949,0.13545206,0.107606545,inf,inf,inf,inf,1,1,1,1,3,8,3,3,5,0,1,1,0,0,0
1905623622,1905622717,40177334,41.1790555,-8.6035789,-4.2230673,-2.4871523,18.038315,0.008950949,-0.038369656,1.4412384,0.0001121161,0.011713183,-0.078193836,-0.023904461,0.035676077,-0.046197742,-0.010773117,-0.10337493,0.14319348,-0.18698902,-1.822643,-0.15026544,129.98909,0.10314369,0.32975748,0.30074883,0.13972706,0.10932233,inf,inf,inf,inf,1,1,1,1,3,8,3,3,5,0,1,1,0,0,0
1905722821,1905721838,40177334,41.1790555,-8.6035789,-4.220748,-2.4874985,18.035975,0.008950949,-0.038369656,1.4412384,0.0042035272,0.02043451,-0.080027334,-0.025727507,0.035676077,-0.046197742,-0.010773117,0.28638813,0.27614498,-0.27155495,-1.8230864,-0.15026544,129.98909,0.10514641,0.32110363,0.2942995,0.13527775,0.10648996,inf,inf,inf,inf,1,1,1,1,3,8,3,3,5,0,1,1,0,0,0
1905821905,1905821005,40177334,41.1790555,-8.6035789,-4.218683,-2.4864764,18.033888,0.008950949,-0.038369656,1.4412384,0.0069082472,0.030331127,-0.08046285,-0.026019175,0.035676077,-0.046197742,-0.010773117,-0.29001445,-0.026818804,-0.036759764,-1.8236316,-0.15026544,129.98909,0.10556793,0.3295966,0.30006012,0.1396168,0.10819388,inf,inf,inf,inf,1,1,1,1,3,8,3,3,5,0,1,1,0,0,0
1905921063,1905920175,40177334,41.1790555,-8.6035789,-4.216487,-2.4843552,18.031275,0.008950949,-0.038369656,1.4412384,0.009087903,0.03748866,-0.08346798,-0.02916096,0.035676077,-0.046197742,-0.010773117,-0.04970751,-0.089124076,-0.2979249,-1.8240823,-0.15026544,129.98909,0.105566025,0.32093462,0.29366127,0.13513926,0.105446465,inf,inf,inf,inf,1,1,1,1,3,8,3,3,5,0,1,1,0,0,0
1906020263,1906019341,40177334,41.1790555,-8.6035789,-4.2144527,-2.4810424,18.028269,0.008950949,-0.038369656,1.4412384,0.010651303,0.049038943,-0.08185363,-0.02810178,0.035676077,-0.046197742,-0.010773117,-0.052302588,0.004390358,-0.26234505,-1.8243338,-0.15026544,129.98909,0.105249405,0.3293942,0.2993339,0.13949907,0.107141644,inf,inf,inf,inf,1,1,1,1,3,8,3,3,5,0,1,1,0,0,0
1906120328,1906118551,40177334,41.1790555,-8.6035789,-4.2121253,-2.4785807,18.026375,0.008950949,-0.038369656,1.4412384,0.015517446,0.057280816,-0.083315186,-0.028758833,0.035676077,-0.046197742,-0.010773117,0.7979518,-0.5902314,-0.23088227,-1.8245711,-0.15026544,129.98909,0.10747528,0.32083172,0.29307476,0.1351316,0.10452413,inf,inf,inf,inf,1,1,1,1,3,8,3,3,5,0,1,1,0,0,0
1906218661,1906217678,40177334,41.1790555,-8.6035789,-4.2099347,-2.4746323,18.024157,0.008950949,-0.038369656,1.4412384,0.016335675,0.06839541,-0.081969626,-0.027121795,0.035676077,-0.046197742,-0.010773117,0.36217752,0.06332019,0.39029816,-1.8248725,-0.15026544,129.98909,0.106256485,0.32927117,0.29867327,0.13950205,0.10621593,inf,inf,inf,inf,1,1,1,1,3,8,3,3,5,0,1,1,0,0,0
1906326895,1906325854,40177334,41.1790555,-8.6035789,-4.207146,-2.472471,18.021576,0.008950949,-0.038369656,1.4412384,0.016704032,0.07483095,-0.0846473,-0.029537,0.035676077,-0.046197742,-0.010773117,0.243468,-0.5037409,0.063942775,-1.8250446,-0.15026544,129.98909,0.10605621,0.3214385,0.29314664,0.13548945,0.10386032,inf,inf,inf,inf,1,1,1,1,3,8,3,3,5,0,1,1,0,0,0
1906421324,1906416005,40177334,41.1790555,-8.6035789,-4.204869,-2.4690166,18.018713,0.008950949,-0.038369656,1.4412384,0.019355344,0.086172685,-0.08347688,-0.028683012,0.035676077,-0.046197742,-0.010773117,0.16262104,0.4118195,0.33127725,-1.8253857,-0.15026544,129.98909,0.105457306,0.32911098,0.29798716,0.13943188,0.10536008,inf,inf,inf,inf,1,1,1,1,3,8,3,3,5,0,1,1,0,0,0
1906525095,1906524233,40177334,41.1790555,-8.6035789,-4.2041006,-2.4674,18.015892,0.008950949,-0.038369656,1.4412384,0.016869653,0.09270448,-0.0845678,-0.029662393,0.035676077,-0.046197742,-0.010773117,0.6064939,-0.71110255,0.42592168,-1.8256366,-0.15026544,129.98909,0.10582352,0.321389,0.29259244,0.13558939,0.10312002,inf,inf,inf,inf,1,1,1,1,3,8,3,3,5,0,1,1,0,0,0
1906624544,1906623354,40177334,41.1790555,-8.6035789,-4.203387,-2.463365,18.012161,0.008950949,-0.038369656,1.4412384,0.016057473,0.10355642,-0.08397409,-0.03005224,0.035676077,-0.046197742,-0.010773117,-0.048058946,0.28355378,0.7430877,-1.8259417,-0.15026544,129.98909,0.1043911,0.3298441,0.29806912,0.13993078,0.10481007,inf,inf,inf,inf,1,1,1,1,3,8,3,3,5,0,1,1,0,0,0
1906723576,1906722521,40177334,41.1790555,-8.6035789,-4.2024994,-2.4619849,18.008785,0.008950949,-0.038369656,1.4412384,0.013895954,0.10917445,-0.086059645,-0.03241828,0.035676077,-0.046197742,-0.010773117,0.10399508,-0.057571884,-0.05695952,-1.8263421,-0.15026544,129.98909,0.10564804,0.32121602,0.29196534,0.1354926,0.10241334,inf,inf,inf,inf,1,1,1,1,3,8,3,3,5,0,1,1,0,0,0
1906822543,1906821688,40177334,41.1790555,-8.6035789,-4.2016573,-2.4586558,18.004549,0.008950949,-0.038369656,1.4412384,0.013494467,0.116442166,-0.08770349,-0.03530408,0.035676077,-0.046197742,-0.010773117,-0.27618584,0.7060771,-0.5086656,-1.8267094,-0.15026544,129.98909,0.1031189,0.32964927,0.2973792,0.13991834,0.104105785,inf,inf,inf,inf,1,1,1,1,3,8,3,3,5,0,1,1,0,0,0
1906917240,1906911839,40177334,41.1790555,-8.6035789,-4.202476,-2.4579532,18.002048,0.008950949,-0.038369656,1.4412384,0.014245325,0.12194227,-0.08528545,-0.032370828,0.035676077,-0.046197742,-0.010773117,0.93446547,0.6072094,0.32287955,-1.827031,-0.15026544,129.98909,0.10747528,0.32033402,0.29070166,0.13511275,0.10160226,inf,inf,inf,inf,1,1,1,1,3,8,3,3,5,0,1,1,0,0,0
1907020888,1907020067,40177334,41.1790555,-8.6035789,-4.203522,-2.4547734,17.997911,0.008950949,-0.038369656,1.4412384,0.013524979,0.12627405,-0.09123446,-0.03908911,0.035676077,-0.046197742,-0.010773117,0.8018957,-0.53501177,-1.5061631,-1.8272042,-0.15026544,129.98909,0.104003906,0.32948953,0.29671562,0.1399309,0.103485025,inf,inf,inf,inf,1,1,1,1,3,8,3,3,5,0,1,1,0,0,0
1907120170,1907119188,40177334,41.1790555,-8.6035789,-4.205231,-2.4551156,17.995127,0.008950949,-0.038369656,1.4412384,0.0070361234,0.12809817,-0.085328296,-0.032733355,0.035676077,-0.046197742,-0.010773117,-0.107149124,-0.5981093,0.975151,-1.8275328,-0.15026544,129.98909,0.10697937,0.32102463,0.29082158,0.13560021,0.10126432,inf,inf,inf,inf,1,1,1,1,3,8,3,3,5,0,1,1,0,0,0
1907219644,1907218355,40177334,41.1790555,-8.6035789,-4.2065153,-2.4517915,17.991066,0.008950949,-0.038369656,1.4412384,0.008056013,0.14034525,-0.08607915,-0.034259718,0.035676077,-0.046197742,-0.010773117,-0.3037553,-0.16336007,-0.0008752652,-1.8279588,-0.15026544,129.98909,0.10399246,0.32943192,0.29612094,0.14004672,0.10296404,inf,inf,inf,inf,1,1,1,1,3,8,3,3,5,0,1,1,0,0,0
1907327541,1907326537,40177334,41.1790555,-8.6035789,-4.2068563,-2.4519143,17.986673,0.008950949,-0.038369656,1.4412384,0.009374828,0.1394683,-0.09245517,-0.041322716,0.035676077,-0.046197742,-0.010773117,0.3050373,-0.8876148,-1.4073622,-1.8280257,-0.15026544,129.98909,0.110925674,0.32165983,0.29091415,0.136032,0.10097289,inf,inf,inf,inf,1,1,1,1,3,8,3,3,5,0,1,1,0,0,0
1907417658,1907416688,40177334,41.1790555,-8.6035789,-4.206859,-2.4490035,17.981535,0.008950949,-0.038369656,1.4412384,0.0071662995,0.14154482,-0.09106748,-0.04167795,0.035676077,-0.046197742,-0.010773117,0.280337,-0.5160428,0.15478507,-1.828186,-0.15026544,129.98909,0.11606407,0.32931438,0.29550758,0.1400653,0.10248848,inf,inf,inf,inf,1,1,1,1,3,8,3,3,5,0,1,1,0,0,0
1907525843,1907524870,40177334,41.1790555,-8.6035789,-4.2081604,-2.449549,17.976364,0.008950949,-0.038369656,1.4412384,-0.0036796588,0.15940432,-0.094621435,-0.046022598,0.035676077,-0.046197742,-0.010773117,-0.9647584,1.446589,-0.6490373,-1.8280191,-0.15026544,129.98909,0.121234894,0.32157657,0.29036793,0.13612156,0.10055781,inf,inf,inf,inf,1,1,1,1,3,8,3,3,5,0,1,1,0,0,0
1907624936,1907624037,40177334,41.1790555,-8.6035789,-4.209583,-2.4456358,17.969767,0.008950949,-0.038369656,1.4412384,-0.0025705595,0.16719972,-0.10270916,-0.055952273,0.035676077,-0.046197742,-0.010773117,1.890887,-0.9922834,-1.3279188,-1.8269362,-0.15026544,129.98909,0.12783241,0.33001375,0.2955918,0.14056711,0.102269694,inf,inf,inf,inf,1,1,1,1,3,8,3,3,5,0,1,1,0,0,0
1907724167,1907723204,40177334,41.1790555,-8.6035789,-4.2125216,-2.446705,17.964428,0.008950949,-0.038369656,1.4412384,-0.03672754,0.18069829,-0.1151776,-0.067934066,0.035676077,-0.046197742,-0.010773117,-0.27251115,0.81021875,-0.33558795,-1.826471,-0.15026544,129.98909,0.13317108,0.3215847,0.28988668,0.13630016,0.10022645,inf,inf,inf,inf,1,1,1,1,3,8,3,3,5,0,1,1,0,0,0
1907823550,1907822370,40177334,41.1790555,-8.6035789,-4.2189937,-2.4407985,17.95563,0.008950949,-0.038369656,1.4412384,-0.070678905,0.19876297,-0.13290468,-0.08696284,0.035676077,-0.046197742,-0.010773117,1.9619416,0.46324244,-0.52888143,-1.8211204,-0.15026544,129.98909,0.14196968,0.33002174,0.2950662,0.14083247,0.10194286,inf,inf,inf,inf,1,1,1,1,3,8,3,3,5,0,1,1,0,0,0
1907922378,1907921583,40177334,41.1790555,-8.6035789,-4.228978,-2.439826,17.948942,0.008950949,-0.038369656,1.4412384,-0.08345719,0.20590517,-0.12892051,-0.08130309,0.035676077,-0.046197742,-0.010773117,1.9062669,1.3105389,0.12706566,-1.8196106,-0.15026544,129.98909,0.14865685,0.32153076,0.28939638,0.13649645,0.099925615,inf,inf,inf,inf,1,1,1,1,3,8,3,3,5,0,1,1,0,0,0
1908023287,1908020704,40177334,41.1790555,-8.6035789,-4.2392106,-2.4343615,17.940489,0.008950949,-0.038369656,1.4412384,-0.0941202,0.20930484,-0.12879807,-0.08139078,0.035676077,-0.046197742,-0.010773117,-1.5587662,1.70748,0.8734999,-1.8302658,-0.15026544,129.98909,0.15711021,0.32996866,0.2945376,0.14091143,0.1016438,inf,inf,inf,inf,1,1,1,1,3,8,3,3,5,0,1,1,0,0,0
1908120965,1908119870,40177334,41.1790555,-8.6035789,-4.250464,-2.4320793,17.935041,0.008950949,-0.038369656,1.4412384,-0.057973336,0.20624493,-0.13124484,-0.08132536,0.035676077,-0.046197742,-0.010773117,2.8354206,1.2604679,-0.7401826,-1.857118,-0.15026544,129.98909,0.1625576,0.3215062,0.28893173,0.13655241,0.0996674,inf,inf,inf,inf,1,1,1,1,3,8,3,3,5,0,1,1,0,0,0
1908224413,1908219037,40177334,41.1790555,-8.6035789,-4.258108,-2.4257956,17.927935,0.008950949,-0.038369656,1.4412384,-0.044072386,0.19522177,-0.114257164,-0.06410077,0.035676077,-0.046197742,-0.010773117,-2.874211,1.1901588,1.0594841,-1.8972284,-0.15026544,129.98909,0.16966438,0.3299447,0.29404226,0.14101009,0.10139524,inf,inf,inf,inf,1,1,1,1,3,8,3,3,5,0,1,1,0,0,0
1908319077,1908318204,40177334,41.1790555,-8.6035789,-4.267746,-2.4243107,17.923708,0.008950949,-0.038369656,1.4412384,-0.014615043,0.16202794,-0.1002821,-0.048470367,0.035676077,-0.046197742,-0.010773117,1.202549,0.14003551,0.12735254,-1.9401784,-0.15026544,129.98909,0.17389107,0.32150483,0.28849146,0.13655587,0.09946698,inf,inf,inf,inf,1,1,1,1,3,8,3,3,5,0,1,1,0,0,0
1908419123,1908417416,40177334,41.1790555,-8.6035789,-4.2739835,-2.421202,17.918074,0.008950949,-0.038369656,1.4412384,0.012664053,0.13784611,-0.10141713,-0.0508845,0.035676077,-0.046197742,-0.010773117,1.8817842,-1.8806038,-0.20087796,-1.9792234,-0.15026544,129.98909,0.17952538,0.32994363,0.29357016,0.14097744,0.10121502,inf,inf,inf,inf,1,1,1,1,3,8,3,3,5,0,1,1,0,0,0
1908517964,1908516537,40177334,41.1790555,-8.6035789,-4.278105,-2.422315,17.91348,0.008950949,-0.038369656,1.4412384,0.008783861,0.14036974,-0.10315817,-0.052416027,0.035676077,-0.046197742,-0.010773117,-0.676872,-1.8732657,-1.276069,-2.0134885,-0.15026544,129.98909,0.18411827,0.32150358,0.28806576,0.13662484,0.0993357,inf,inf,inf,inf,1,1,1,1,3,8,3,3,5,0,1,1,0,0,0
1908625851,1908624719,40177334,41.1790555,-8.6035789,-4.280573,-2.4178627,17.904613,0.008950949,-0.038369656,1.4412384,0.02615622,0.1769976,-0.14123088,-0.09220328,0.035676077,-0.046197742,-0.010773117,1.4058992,-0.1535141,-1.7386824,-2.0386677,-0.15026544,129.98909,0.19298553,0.3307338,0.29376566,0.14162594,0.10128635,inf,inf,inf,inf,1,1,1,1,3,8,3,3,5,0,1,1,0,0,0
1908724939,1908723886,40177334,41.1790555,-8.6035789,-4.280963,-2.4147897,17.894749,0.008950949,-0.038369656,1.4412384,0.010451189,0.24508697,-0.1764486,-0.1266093,0.035676077,-0.046197742,-0.010773117,1.1157969,1.2899909,0.5910805,-2.0455484,-0.15026544,129.98909,0.20285034,0.32218584,0.28824678,0.13730359,0.099403605,inf,inf,inf,inf,1,1,1,1,3,8,3,3,5,0,1,1,0,0,0
1908823968,1908823099,40177334,41.1790555,-8.6035789,-4.2830915,-2.4000962,17.877247,0.008950949,-0.038369656,1.4412384,-0.01775946,0.31267163,-0.24459851,-0.19601429,0.035676077,-0.046197742,-0.010773117,-2.4420438,0.05982168,-0.6988973,-2.0295525,-0.15026544,129.98909,0.22035217,0.33066937,0.2932892,0.14218286,0.101147644,inf,inf,inf,inf,1,1,1,1,3,8,3,3,5,0,1,1,0,0,0
1908923196,1908922220,40177334,41.1790555,-8.6035789,-4.28301,-2.3892095,17.857111,0.008950949,-0.038369656,1.4412384,-0.017349755,0.36565596,-0.3430721,-0.2904475,0.035676077,-0.046197742,-0.010773117,-2.5717351,1.3103333,0.26306203,-2.001741,-0.15026544,129.98909,0.24048805,0.32219228,0.28785637,0.1381647,0.099292174,inf,inf,inf,inf,1,1,1,1,3,8,3,3,5,0,1,1,0,0,0
1909022568,1909021386,40177334,41.1790555,-8.6035789,-4.28348,-2.3674023,17.825634,0.008950949,-0.038369656,1.4412384,-0.020335313,0.4090222,-0.41637215,-0.36297783,0.035676077,-0.046197742,-0.010773117,1.5215014,2.9283755,-0.7326655,-1.9674004,-0.15026544,129.98909,0.27196503,0.33070552,0.29288065,0.1432375,0.10103876,inf,inf,inf,inf,1,1,1,1,3,8,3,3,5,0,1,1,0,0,0
1909121417,1909120555,40177334,41.1790555,-8.6035789,-4.2867575,-2.352576,17.792288,0.008950949,-0.038369656,1.4412384,-0.028247567,0.4105097,-0.5052345,-0.4446732,0.035676077,-0.046197742,-0.010773117,3.3183894,-1.6294178,-1.5478672,-1.9284037,-0.15026544,129.98909,0.3053112,0.32216427,0.28744435,0.13898014,0.09918306,inf,inf,inf,inf,1,1,1,1,3,8,3,3,5,0,1,1,0,0,0
1909220514,1909219720,40177334,41.1790555,-8.6035789,-4.291873,-2.3309555,17.750744,0.008950949,-0.038369656,1.4412384,-0.055535093,0.41762063,-0.5303076,-0.4666156,0.035676077,-0.046197742,-0.010773117,0.9958619,-1.7249984,-0.20025834,-1.8872669,-0.15026544,129.98909,0.34685516,0.33069983,0.29245326,0.14404662,0.10093597,inf,inf,inf,inf,1,1,1,1,3,8,3,3,5,0,1,1,0,0,0
1909319993,1909318932,40177334,41.1790555,-8.6035789,-4.3016024,-2.3109462,17.71209,0.008950949,-0.038369656,1.4412384,-0.0825302,0.42607448,-0.53470033,-0.46279022,0.035676077,-0.046197742,-0.010773117,0.76616454,1.1629479,-0.13347133,-1.844906,-0.15026544,129.98909,0.3855095,0.32214963,0.28706607,0.13937704,0.099101625,inf,inf,inf,inf,1,1,1,1,3,8,3,3,5,0,1,1,0,0,0
1909428598,1909427068,40177334,41.1790555,-8.6035789,-4.314138,-2.2836618,17.664816,0.008950949,-0.038369656,1.4412384,-0.10611326,0.41165015,-0.5676224,-0.492056,0.035676077,-0.046197742,-0.010773117,-0.44415972,-1.3608011,-0.5130498,-1.799192,-0.15026544,129.98909,0.43278313,0.33149394,0.29269987,0.14439325,0.10104137,inf,inf,inf,inf,1,1,1,1,3,8,3,3,5,0,1,1,0,0,0
1909518450,1909517220,40177334,41.1790555,-8.6035789,-4.3293877,-2.2659543,17.624926,0.008950949,-0.038369656,1.4412384,-0.11547818,0.40466565,-0.60771435,-0.52570415,0.035676077,-0.046197742,-0.010773117,1.8187135,-0.95505804,-0.98485535,-1.7597758,-0.15026544,129.98909,0.47267342,0.32207704,0.286674,0.13917312,0.09901633,inf,inf,inf,inf,1,1,1,1,3,8,3,3,5,0,1,1,0,0,0
1909626336,1909625402,40177334,41.1790555,-8.6035789,-4.3479066,-2.2410386,17.570517,0.008950949,-0.038369656,1.4412384,-0.12088985,0.3931822,-0.6424738,-0.55773985,0.035676077,-0.046197742,-0.010773117,3.7977507,0.82743806,-0.11056693,-1.709819,-0.15026544,129.98909,0.52708244,0.3314184,0.2922888,0.14432688,0.10096478,inf,inf,inf,inf,1,1,1,1,3,8,3,3,5,0,1,1,0,0,0
1909725523,1909724614,40177334,41.1790555,-8.6035789,-4.364009,-2.2226326,17.519428,0.008950949,-0.038369656,1.4412384,-0.1438819,0.37802908,-0.6867066,-0.59650844,0.035676077,-0.046197742,-0.010773117,1.2990032,0.2882011,-0.36701843,-1.6648526,-0.15026544,129.98909,0.5781708,0.32270387,0.2868887,0.13946697,0.09912395,inf,inf,inf,inf,1,1,1,1,3,8,3,3,5,0,1,1,0,0,0
1909824604,1909823735,40177334,41.1790555,-8.6035789,-4.3797975,-2.200902,17.461111,0.008950949,-0.038369656,1.4412384,-0.14006272,0.35699898,-0.70724034,-0.61537373,0.035676077,-0.046197742,-0.010773117,3.4620178,-0.25388026,-1.7531282,-1.6212443,-0.15026544,129.98909,0.63648796,0.33128285,0.29186794,0.14415815,0.100882486,inf,inf,inf,inf,1,1,1,1,3,8,3,3,5,0,1,1,0,0,0
1909923751,1909922902,40177334,41.1790555,-8.6035789,-4.398767,-2.1867642,17.404694,0.008950949,-0.038369656,1.4412384,-0.14131832,0.33451992,-0.7231056,-0.6272558,0.035676077,-0.046197742,-0.010773117,2.4906728,-0.9353002,-0.49554437,-1.576696,-0.15026544,129.98909,0.6929054,0.32264793,0.28655002,0.13939866,0.09907945,inf,inf,inf,inf,1,1,1,1,3,8,3,3,5,0,1,1,0,0,0
1910023042,1910022069,40177334,41.1790555,-8.6035789,-4.416999,-2.1691074,17.341515,0.008950949,-0.038369656,1.4412384,-0.15915917,0.3137244,-0.7416889,-0.6466015,0.035676077,-0.046197742,-0.010773117,-2.889569,-1.9086736,-0.608282,-1.5367632,-0.15026544,129.98909,0.75608444,0.3312246,0.29151773,0.14396758,0.10084257,inf,inf,inf,inf,1,1,1,1,3,8,3,3,5,0,1,1,0,0,0
1910122262,1910121235,40177334,41.1790555,-8.6035789,-4.4322014,-2.1522818,17.279728,0.008950949,-0.038369656,1.4412384,-0.16013287,0.30455613,-0.76930106,-0.67081285,0.035676077,-0.046197742,-0.010773117,-0.73294836,2.077046,-0.24415702,-1.4975574,-0.15026544,129.98909,0.8178711,0.32255554,0.2862071,0.13913822,0.09903237,inf,inf,inf,inf,1,1,1,1,3,8,3,3,5,0,1,1,0,0,0
1910221287,1910220447,40177334,41.1790555,-8.6035789,-4.4462447,-2.134479,17.21373,0.008950949,-0.038369656,1.4412384,-0.14445812,0.271641,-0.7923864,-0.6940269,0.035676077,-0.046197742,-0.010773117,1.9707341,0.7841448,-0.2792771,-1.4602299,-0.15026544,129.98909,0.8838692,0.33112118,0.29116684,0.1439513,0.10079964,inf,inf,inf,inf,1,1,1,1,3,8,3,3,5,0,1,1,0,0,0
1910324830,1910319569,40177334,41.1790555,-8.6035789,-4.4632664,-2.1256862,17.145496,0.008950949,-0.038369656,1.4412384,-0.14990608,0.22343302,-0.81574816,-0.71643496,0.035676077,-0.046197742,-0.010773117,0.4632892,-1.3506489,-0.82627684,-1.4248401,-0.15026544,129.98909,0.95210266,0.32253572,0.28593183,0.13934487,0.09902569,inf,inf,inf,inf,1,1,1,1,3,8,3,3,5,0,1,1,0,0,0
1910419599,1910418735,40177334,41.1790555,-8.6035789,-4.479492,-2.1172018,17.072296,0.008950949,-0.038369656,1.4412384,-0.15674804,0.17441626,-0.83863294,-0.74173176,0.035676077,-0.046197742,-0.010773117,-2.050782,-2.2352326,0.09098831,-1.3876984,-0.15026544,129.98909,1.0253029,0.3311,0.29088163,0.1442619,0.10079013,inf,inf,inf,inf,1,1,1,1,3,8,3,3,5,0,1,1,0,0,0
1910518829,1910517902,40177334,41.1790555,-8.6035789,-4.492271,-2.116687,17.000925,0.008950949,-0.038369656,1.4412384,-0.17139125,0.12841445,-0.843548,-0.74605024,0.035676077,-0.046197742,-0.010773117,-4.600742,-0.95054436,-0.49785987,-1.3545547,-0.15026544,129.98909,1.096674,0.32247317,0.2856407,0.13970347,0.09900264,inf,inf,inf,inf,1,1,1,1,3,8,3,3,5,0,1,1,0,0,0
1910627113,1910626129,40177334,41.1790555,-8.6035789,-4.5079417,-2.1172986,16.916224,0.008950949,-0.038369656,1.4412384,-0.1666913,0.09497261,-0.85558784,-0.7608573,0.035676077,-0.046197742,-0.010773117,2.8110328,1.9958966,0.7510293,-1.3170577,-0.15026544,129.98909,1.1813755,0.33183572,0.29121903,0.1450847,0.10096262,inf,inf,inf,inf,1,1,1,1,3,8,3,3,5,0,1,1,0,0,0
1910726044,1910725250,40177334,41.1790555,-8.6035789,-4.519391,-2.1213703,16.841452,0.008950949,-0.038369656,1.4412384,-0.16863628,0.06162279,-0.85978526,-0.76518595,0.035676077,-0.046197742,-0.010773117,2.3510022,-0.31845313,-1.0622848,-1.2830358,-0.15026544,129.98909,1.2561474,0.32317287,0.2859921,0.14060035,0.09918464,inf,inf,inf,inf,1,1,1,1,3,8,3,3,5,0,1,1,0,0,0
1910827814,1910824417,40177334,41.1790555,-8.6035789,-4.5328045,-2.1247194,16.760067,0.008950949,-0.038369656,1.4412384,-0.1991412,0.030987298,-0.8859666,-0.7951895,0.035676077,-0.046197742,-0.010773117,-2.5761864,-0.32610962,0.3896246,-1.252919,-0.15026544,129.98909,1.337532,0.33177888,0.29094902,0.14570223,0.10095624,inf,inf,inf,inf,1,1,1,1,3,8,3,3,5,0,1,1,0,0,0
1910924511,1910923584,40177334,41.1790555,-8.6035789,-4.5414453,-2.1326773,16.680473,0.008950949,-0.038369656,1.4412384,-0.19443254,0.0048647416,-0.9256095,-0.83566785,0.035676077,-0.046197742,-0.010773117,0.17258672,1.4964814,-1.0692716,-1.2223493,-0.15026544,129.98909,1.4171257,0.32311982,0.28574365,0.14146438,0.09918225,inf,inf,inf,inf,1,1,1,1,3,8,3,3,5,0,1,1,0,0,0
1911023777,1911022750,40177334,41.1790555,-8.6035789,-4.5531077,-2.1392334,16.595629,0.008950949,-0.038369656,1.4412384,-0.19253731,0.005595745,-0.9086254,-0.82304305,0.035676077,-0.046197742,-0.010773117,2.6132922,1.7034422,0.17686896,-1.1937209,-0.15026544,129.98909,1.5019703,0.33173466,0.29069504,0.14692217,0.100954935,inf,inf,inf,inf,1,1,1,1,3,8,3,3,5,0,1,1,0,0,0
1911124449,1911121963,40177334,41.1790555,-8.6035789,-4.557414,-2.1462286,16.514668,0.008950949,-0.038369656,1.4412384,-0.20446154,0.0041439813,-0.8865482,-0.8010879,0.035676077,-0.046197742,-0.010773117,1.9840735,1.5285432,0.29705957,-1.169877,-0.15026544,129.98909,1.5829315,0.32307327,0.285504,0.14232586,0.09918751,inf,inf,inf,inf,1,1,1,1,3,8,3,3,5,0,1,1,0,0,0
1911222143,1911221084,40177334,41.1790555,-8.6035789,-4.5643578,-2.150494,16.433014,0.008950949,-0.038369656,1.4412384,-0.20595936,-0.0045316075,-0.8755256,-0.7936347,0.035676077,-0.046197742,-0.010773117,-1.6559371,-2.4193711,2.2138045,-1.1480595,-0.15026544,129.98909,1.6645851,0.33169633,0.29045066,0.14778343,0.10096198,inf,inf,inf,inf,1,1,1,1,3,8,3,3,5,0,1,1,0,0,0
1911321376,1911320250,40177334,41.1790555,-8.6035789,-4.565184,-2.160182,16.353863,0.008950949,-0.038369656,1.4412384,-0.1955137,-0.0025376484,-0.90844196,-0.82610726,0.035676077,-0.046197742,-0.010773117,0.7150962,1.7481922,-1.5520098,-1.3076229,-0.18606262,129.98909,1.7437363,0.32299498,0.2852723,0.14020294,0.09919508,inf,inf,inf,inf,1,1,1,1,3,8,3,3,6,0,1,1,0,0,0
1911424888,1911419417,40177334,41.1790555,-8.6035789,-4.5698214,-2.1669812,16.266281,0.008950949,-0.038369656,1.4412384,-0.19920783,0.0034247292,-0.9266597,-0.847673,0.035676077,-0.046197742,-0.010773117,-2.8304782,-1.0795434,2.057383,-1.2771695,-0.18606262,129.98909,1.8313179,0.33144563,0.29021552,0.14150898,0.10097155,inf,inf,inf,inf,1,1,1,1,3,8,3,3,6,0,1,1,0,0,0
1911519501,1911518584,40177334,41.1790555,-8.6035789,-4.569025,-2.1766863,16.181837,0.008950949,-0.038369656,1.4412384,-0.17215024,0.006759642,-0.94886905,-0.8694868,0.035676077,-0.046197742,-0.010773117,2.7479475,0.5420889,-3.0356534,-1.2528605,-0.18606262,129.98909,1.915762,0.32279706,0.2849929,0.13504936,0.09918421,inf,inf,inf,inf,1,1,1,1,3,8,3,3,6,0,1,1,0,0,0
1911618823,1911617796,40177334,41.1790555,-8.6035789,-4.5713034,-2.1833913,16.093613,0.008950949,-0.038369656,1.4412384,-0.179575,0.0046171146,-0.9533991,-0.8769972,0.035676077,-0.046197742,-0.010773117,-2.2518773,-2.182754,-0.031698227,-1.2306308,-0.18606262,129.98909,2.0039864,0.33097538,0.28993174,0.13853404,0.10095973,inf,inf,inf,inf,1,1,1,1,3,8,3,3,6,0,1,1,0,0,0
1911727401,1911725932,40177334,41.1790555,-8.6035789,-4.5686765,-2.1926036,15.998267,0.008950949,-0.038369656,1.4412384,-0.16283458,0.0002120033,-0.9712862,-0.8944549,0.035676077,-0.046197742,-0.010773117,-0.19552562,-2.1226103,-2.2503605,-1.2155893,-0.18606262,129.98909,2.0993319,0.32320434,0.28533983,0.13495325,0.099366955,inf,inf,inf,inf,1,1,1,1,3,8,3,3,6,0,1,1,0,0,0
1911817153,1911816084,40177334,41.1790555,-8.6035789,-4.5689936,-2.1988106,15.914304,0.008950949,-0.038369656,1.4412384,-0.14657298,0.0066911997,-0.98388165,-0.9104937,0.035676077,-0.046197742,-0.010773117,1.9907254,2.477164,-0.28758156,-1.2155955,-0.18606262,129.98909,2.1832952,0.33045983,0.28966165,0.13973819,0.100955166,inf,inf,inf,inf,1,1,1,1,3,8,3,3,6,0,1,1,0,0,0
1911925283,1911924266,40177334,41.1790555,-8.6035789,-4.5609527,-2.2117429,15.818737,0.008950949,-0.038369656,1.4412384,-0.12776746,-0.008791865,-0.95668507,-0.88088936,0.035676077,-0.046197742,-0.010773117,-0.98112214,-2.406623,0.6951228,-1.2244684,-0.18606262,129.98909,2.278862,0.32276747,0.28508264,0.13768445,0.09936588,inf,inf,inf,inf,1,1,1,1,3,8,3,3,6,0,1,1,0,0,0
1912024520,1912023478,40177334,41.1790555,-8.6035789,-4.5554123,-2.2219718,15.727496,0.008950949,-0.038369656,1.4412384,-0.11969107,-0.011308776,-1.0044993,-0.93057865,0.035676077,-0.046197742,-0.010773117,-3.8656728,-0.6820597,1.5613481,-1.2403474,-0.18606262,129.98909,2.370103,0.33062303,0.29003525,0.14432761,0.10114565,inf,inf,inf,inf,1,1,1,1,3,8,3,3,6,0,1,1,0,0,0
1912125065,1912122599,40177334,41.1790555,-8.6035789,-4.54299,-2.2284179,15.637702,0.008950949,-0.038369656,1.4412384,-0.074952394,-0.0066168117,-1.0187422,-0.9406073,0.035676077,-0.046197742,-0.010773117,0.9849428,-0.16075708,1.022219,-1.2655334,-0.18606262,129.98909,2.459897,0.32229924,0.28484678,0.14245804,0.09937044,inf,inf,inf,inf,1,1,1,1,3,8,3,3,6,0,1,1,0,0,0
1912222584,1912221765,40177334,41.1790555,-8.6035789,-4.5341053,-2.2324612,15.545478,0.008950949,-0.038369656,1.4412384,-0.06627698,-0.008508094,-1.0166324,-0.9402593,0.035676077,-0.046197742,-0.010773117,2.1645505,1.5611639,-2.22096,-1.2976867,-0.18606262,129.98909,2.5521212,0.33009008,0.28979555,0.150136,0.10115229,inf,inf,inf,inf,1,1,1,1,3,8,3,3,6,0,1,1,0,0,0
1912323467,1912320932,40177334,41.1790555,-8.6035789,-4.5218973,-2.239517,15.453828,0.008950949,-0.038369656,1.4412384,-0.06286175,-0.0064312215,-1.0495225,-0.9705364,0.035676077,-0.046197742,-0.010773117,0.86244464,2.4965572,-0.9463617,-1.3324685,-0.18606262,129.98909,2.6437712,0.3218193,0.28460792,0.14791636,0.099377364,inf,inf,inf,inf,1,1,1,1,3,8,3,3,6,1,1,1,0,0,0
1912421260,1912420099,40177334,41.1790555,-8.6035789,-4.5127583,-2.244092,15.355242,0.008950949,-0.038369656,1.4412384,-0.06275123,-0.014267164,-1.0777872,-1.0016451,0.035676077,-0.046197742,-0.010773117,-2.5396001,-2.4031267,0.82997453,-1.365905,-0.18606262,129.98909,2.7423573,0.32961732,0.2895588,0.1563689,0.10116203,inf,inf,inf,inf,1,1,1,1,3,8,3,3,6,1,1,1,0,0,0
1912520282,1912519311,40177334,41.1790555,-8.6035789,-4.498988,-2.2474658,15.261811,0.008950949,-0.038369656,1.4412384,-0.04765667,0.012348592,-1.065287,-0.9849551,0.035676077,-0.046197742,-0.010773117,1.8051159,0.956448,-0.7004911,-1.4039396,-0.18606262,129.98909,2.8357878,0.32133883,0.28528425,0.15347564,0.09952392,inf,inf,inf,inf,1,1,1,1,3,8,3,3,6,1,1,1,0,0,0
1912619348,1912618432,40177334,41.1790555,-8.6035789,-4.4888864,-2.2488556,15.163907,0.008950949,-0.038369656,1.4412384,-0.05720648,0.015280868,-1.0508145,-0.9712326,0.035676077,-0.046197742,-0.010773117,-1.8124415,1.3117514,-0.13574417,-1.45586,-0.18606262,129.98909,2.933692,0.3291926,0.29027894,0.16183004,0.10131951,inf,inf,inf,inf,1,1,1,1,3,8,3,3,6,1,1,1,0,0,0
1912727589,1912726613,40177334,41.1790555,-8.6035789,-4.4745917,-2.2509282,15.064684,0.008950949,-0.038369656,1.4412384,-0.01974053,0.018588698,-1.0406291,-0.95660263,0.035676077,-0.046197742,-0.010773117,4.300965,1.2998797,-0.3221159,-1.5175343,-0.18606262,129.98909,3.032915,0.32155305,0.2846752,0.15860167,0.09952979,inf,inf,inf,inf,1,1,1,1,3,8,3,3,6,1,1,1,0,0,0
1912817958,1912816765,40177334,41.1790555,-8.6035789,-4.463637,-2.251424,14.979082,0.008950949,-0.038369656,1.4412384,-0.020264182,0.01382761,-1.0621761,-0.9767508,0.035676077,-0.046197742,-0.010773117,-3.6487377,-0.78176236,1.3026018,-1.5563456,-0.18606262,129.98909,3.118517,0.3288032,0.28998983,0.16623473,0.101292245,inf,inf,inf,inf,1,1,1,1,3,8,3,3,6,1,1,1,0,0,0
1912926763,1912924992,40177334,41.1790555,-8.6035789,-4.4439034,-2.2542076,14.884461,0.008950949,-0.038369656,1.4412384,0.006589559,0.01870758,-1.0443875,-0.9504704,0.035676077,-0.046197742,-0.010773117,-3.5904915,-1.7424287,0.28900686,-1.5838144,-0.18606262,129.98909,3.2131376,0.32188687,0.2844354,0.1621847,0.09949655,inf,inf,inf,inf,1,1,1,1,3,8,3,3,6,1,1,1,0,0,0
1913026579,1913024113,40177334,41.1790555,-8.6035789,-4.4261637,-2.255751,14.793591,0.008950949,-0.038369656,1.4412384,0.0116813565,0.040384993,-1.0618526,-0.96343374,0.035676077,-0.046197742,-0.010773117,-3.2628794,0.91855234,1.7406912,-1.5960085,-0.18606262,129.98909,3.3040085,0.330024,0.28939503,0.17053184,0.101278864,inf,inf,inf,inf,1,1,1,1,3,8,3,3,6,1,1,1,0,0,0
1913124168,1913123280,40177334,41.1790555,-8.6035789,-4.403921,-2.2519376,14.710909,0.008950949,-0.038369656,1.4412384,0.02782077,0.051667336,-1.0735517,-0.96285546,0.035676077,-0.046197742,-0.010773117,-4.2087555,0.10008815,1.8499234,-1.6042324,-0.18606262,129.98909,3.3866901,0.3223489,0.28520834,0.16517968,0.099658825,inf,inf,inf,inf,1,1,1,1,3,8,3,3,6,1,1,1,0,0,0
1913223407,1913222447,40177334,41.1790555,-8.6035789,-4.3855686,-2.245262,14.623406,0.008950949,-0.038369656,1.4412384,0.042424586,0.06301978,-1.0045145,-0.8895389,0.035676077,-0.046197742,-0.010773117,1.3531075,0.06574092,0.7783811,-1.6099844,-0.18606262,129.98909,3.4741926,0.33065262,0.29021737,0.17356111,0.10145481,inf,inf,inf,inf,1,1,1,1,3,8,3,3,6,1,1,1,0,0,0
1913322571,1913321613,40177334,41.1790555,-8.6035789,-4.363789,-2.2415156,14.557139,0.008950949,-0.038369656,1.4412384,0.036506906,0.072108924,-0.8254933,-0.6967896,0.035676077,-0.046197742,-0.010773117,-5.08461,0.65264094,3.3307223,-1.6133566,-0.18606262,129.98909,3.5404596,0.32281622,0.2850471,0.16689509,0.099666804,inf,inf,inf,inf,1,1,1,1,3,8,3,3,6,1,1,1,0,0,0
1913421768,1913420825,40177334,41.1790555,-8.6035789,-4.345926,-2.2358303,14.507179,0.008950949,-0.038369656,1.4412384,0.042929877,0.079416715,-0.5655611,-0.4316613,0.035676077,-0.046197742,-0.010773117,-1.8302422,-3.0391212,1.5043952,-1.6156399,-0.18606262,129.98909,3.5904198,0.33126315,0.29005897,0.17413431,0.10146418,inf,inf,inf,inf,1,1,1,1,3,8,3,3,6,1,1,1,0,0,0
1913520987,1913519946,40177334,41.1790555,-8.6035789,-4.3250213,-2.2295587,14.485872,0.008950949,-0.038369656,1.4412384,0.05887882,0.09300563,-0.31323728,-0.17257479,0.035676077,-0.046197742,-0.010773117,1.7663087,0.16991723,1.3072485,-1.6182468,-0.18606262,129.98909,3.6117268,0.3232825,0.28489155,0.16620155,0.099676155,inf,inf,inf,inf,1,1,1,1,3,8,3,3,6,1,1,1,0,0,0
1913620120,1913619113,40177334,41.1790555,-8.6035789,-4.3081193,-2.2214057,14.478698,0.008950949,-0.038369656,1.4412384,0.06329892,0.09534511,-0.15357758,-0.012913983,0.035676077,-0.046197742,-0.010773117,2.7365284,-2.0541937,0.21816248,-1.6173264,-0.18606262,129.98909,3.6189013,0.3318218,0.28989965,0.17286694,0.10147522,inf,inf,inf,inf,1,1,1,1,3,8,3,3,6,1,1,1,0,0,0
1913719163,1913718280,40177334,41.1790555,-8.6035789,-4.2873254,-2.2175217,14.478398,0.008950949,-0.038369656,1.4412384,0.06372916,0.0985633,-0.13203557,0.0066732564,0.035676077,-0.046197742,-0.010773117,4.318769,1.1651561,-0.048199266,-1.6127197,-0.18606262,129.98909,3.6192007,0.32366723,0.2846946,0.16537048,0.09966476,inf,inf,inf,inf,1,1,1,1,3,8,3,3,6,1,1,1,0,0,0
1913820367,1913817446,40177334,41.1790555,-8.6035789,-4.26974,-2.2124698,14.470523,0.008950949,-0.038369656,1.4412384,0.03814233,0.09206411,-0.17015827,-0.0387988,0.035676077,-0.046197742,-0.010773117,-3.1799154,-1.9377326,0.024305021,-1.6062902,-0.18606262,129.98909,3.6270761,0.3323071,0.28970551,0.17282471,0.1014626,inf,inf,inf,inf,1,1,1,1,3,8,3,3,6,1,1,1,0,0,0
1913921878,1913921120,40177334,41.1790555,-8.6035789,-4.251015,-2.2079422,14.464855,0.008950949,-0.038369656,1.4412384,0.01751906,0.09244282,-0.21996507,-0.08855017,0.035676077,-0.046197742,-0.010773117,-0.97909594,-0.15529768,0.19848229,-1.6071321,-0.18606262,129.98909,3.6327438,0.32402253,0.28450468,0.16600272,0.09965149,inf,inf,inf,inf,1,1,1,1,3,8,3,3,6,1,1,1,0,0,0
1914021253,1914020287,40177334,41.1790555,-8.6035789,-4.236439,-2.2028384,14.452399,0.008950949,-0.038369656,1.4412384,-0.0021903818,0.0863481,-0.2365236,-0.10994558,0.035676077,-0.046197742,-0.010773117,-3.1064935,-2.0211103,-0.6201083,-1.6192603,-0.18606262,129.98909,3.6451998,0.33278626,0.28951386,0.17357102,0.10144847,inf,inf,inf,inf,1,1,1,1,3,8,3,3,6,1,1,1,0,0,0
1914120832,1914119503,40177334,41.1790555,-8.6035789,-4.2240076,-2.201816,14.448297,0.008950949,-0.038369656,1.4412384,-0.020649003,0.07502362,-0.23774432,-0.103696726,0.035676077,-0.046197742,-0.010773117,-2.9835722,0.26239705,2.4199965,-1.6482222,-0.18606262,129.98909,3.6493025,0.32444963,0.28436983,0.16638371,0.0996645,inf,inf,inf,inf,1,1,1,1,3,8,3,3,6,1,1,1,0,0,0
1914219421,1914218620,40177334,41.1790555,-8.6035789,-4.216194,-2.2000437,14.439273,0.008950949,-0.038369656,1.4412384,-0.023745593,0.0667315,-0.22840454,-0.09374937,0.035676077,-0.046197742,-0.010773117,-1.6430504,-0.75652474,0.76670605,-1.6882647,-0.18606262,129.98909,3.6583261,0.3333267,0.28938115,0.17358314,0.101462565,inf,inf,inf,inf,1,1,1,1,3,8,3,3,6,1,1,1,0,0,0
1914328349,1914326802,40177334,41.1790555,-8.6035789,-4.205196,-2.2002058,14.441828,0.008950949,-0.038369656,1.4412384,-0.017055623,0.05375311,-0.22011188,-0.0735246,0.035676077,-0.046197742,-0.010773117,0.6718172,1.2709397,1.9643005,-1.7385315,-0.18606262,129.98909,3.6557713,0.325572,0.28481275,0.16635983,0.09984401,inf,inf,inf,inf,1,1,1,1,3,8,3,3,6,1,1,1,0,0,0
1914417760,1914416953,40177334,41.1790555,-8.6035789,-4.1984363,-2.199718,14.439938,0.008950949,-0.038369656,1.4412384,-0.022166379,0.04678399,-0.22145519,-0.0709118,0.035676077,-0.046197742,-0.010773117,-0.84340894,-0.18189442,0.43361878,-1.7874105,-0.18606262,129.98909,3.6576614,0.33373854,0.28920493,0.172559,0.101449616,inf,inf,inf,inf,1,1,1,1,3,8,3,3,6,1,1,1,0,0,0
1914526275,1914525180,40177334,41.1790555,-8.6035789,-4.1900234,-2.2038558,14.449252,0.008950949,-0.038369656,1.4412384,-0.022683118,0.037533138,-0.21402119,-0.047919426,0.035676077,-0.046197742,-0.010773117,-3.408405,0.18083851,0.9794477,-1.8501778,-0.18606262,129.98909,3.648347,0.32590747,0.28465068,0.1653137,0.09983189,inf,inf,inf,inf,1,1,1,1,3,8,3,3,6,1,1,1,0,0,0
1914626517,1914624306,40177334,41.1790555,-8.6035789,-4.185331,-2.206468,14.450091,0.008950949,-0.038369656,1.4412384,-0.021446062,0.029965023,-0.20965835,-0.03856972,0.035676077,-0.046197742,-0.010773117,-1.3723307,-0.16906248,0.8685299,-1.9086694,-0.18606262,129.98909,3.6475077,0.3349787,0.28967902,0.17201339,0.10162904,inf,inf,inf,inf,1,1,1,1,3,8,3,3,6,1,1,1,0,0,0
1914724837,1914723468,40177334,41.1790555,-8.6035789,-4.1795406,-2.2118642,14.462237,0.008950949,-0.038369656,1.4412384,-0.02303961,0.029062964,-0.2310217,-0.044509582,0.035676077,-0.046197742,-0.010773117,3.2279613,-0.17258804,-1.5966821,-1.970501,-0.18606262,129.98909,3.6353617,0.3262246,0.28449285,0.1642181,0.09981938,inf,inf,inf,inf,1,1,1,1,3,8,3,3,6,1,1,1,0,0,0
1914823516,1914822634,40177334,41.1790555,-8.6035789,-4.1759706,-2.2149825,14.465329,0.008950949,-0.038369656,1.4412384,-0.024557449,0.025496587,-0.23254628,-0.041209444,0.035676077,-0.046197742,-0.010773117,1.1360157,-1.997079,-0.16874734,-2.0165043,-0.18606262,129.98909,3.6322699,0.33533406,0.28952578,0.17053822,0.10161596,inf,inf,inf,inf,1,1,1,1,3,8,3,3,6,1,1,1,0,0,0
1914923331,1914921801,40177334,41.1790555,-8.6035789,-4.1743135,-2.2229726,14.480725,0.008950949,-0.038369656,1.4412384,-0.025670249,0.023938965,-0.2326374,-0.024259884,0.035676077,-0.046197742,-0.010773117,2.6405299,-1.1689874,-1.7144381,-2.0457168,-0.18606262,129.98909,3.6168737,0.32650015,0.28435746,0.16283137,0.09980611,inf,inf,inf,inf,1,1,1,1,3,8,3,3,6,1,1,1,0,0,0
1915021890,1915021013,40177334,41.1790555,-8.6035789,-4.174321,-2.2285151,14.485791,0.008950949,-0.038369656,1.4412384,-0.027524946,0.0304907,-0.23940328,-0.025526065,0.035676077,-0.046197742,-0.010773117,-1.1728538,1.4792964,-0.4401555,-2.0645516,-0.18606262,129.98909,3.6118078,0.33562422,0.2893876,0.16905278,0.10159992,inf,inf,inf,inf,1,1,1,1,3,8,3,3,6,1,1,1,0,0,0
1915121041,1915120134,40177334,41.1790555,-8.6035789,-4.174541,-2.234865,14.50019,0.008950949,-0.038369656,1.4412384,-0.017015679,0.029704195,-0.23667978,-0.006974436,0.035676077,-0.046197742,-0.010773117,-3.6189034,0.7783141,-0.24648556,-2.0785804,-0.18606262,129.98909,3.5974092,0.32666448,0.28418884,0.16138694,0.099770315,inf,inf,inf,inf,1,1,1,1,3,8,3,3,6,1,1,1,0,0,0
1915220299,1915219302,40177334,41.1790555,-8.6035789,-4.175516,-2.2390795,14.502338,0.008950949,-0.038369656,1.4412384,0.007448827,0.024133837,-0.37231293,-0.1366089,0.035676077,-0.046197742,-0.010773117,1.740518,0.12507385,-3.9050858,-2.084158,-0.18606262,129.98909,3.5952606,0.33578277,0.28921422,0.16743559,0.1015613,inf,inf,inf,inf,1,1,1,1,3,8,3,3,6,1,1,1,0,0,0
1915323765,1915318467,40177334,41.1790555,-8.6035789,-4.175282,-2.2446275,14.494424,0.008950949,-0.038369656,1.4412384,0.016654734,0.019406904,-0.61122584,-0.36048606,0.035676077,-0.046197742,-0.010773117,3.1679175,0.051955123,-5.207639,-2.083581,-0.18606262,129.98909,3.6031752,0.32677045,0.28401938,0.16030814,0.0997301,inf,inf,inf,inf,1,1,1,1,3,8,3,3,6,1,1,1,0,0,0
1915418400,1915417634,40177334,41.1790555,-8.6035789,-4.174862,-2.2483582,14.450001,0.008950949,-0.038369656,1.4412384,0.009370465,0.017977498,-0.9572571,-0.7017444,0.035676077,-0.046197742,-0.010773117,-0.9686673,-0.23655061,-5.1787157,-2.0791802,-0.18606262,129.98909,3.6475983,0.33590177,0.28904358,0.1671903,0.10152056,inf,inf,inf,inf,1,1,1,1,3,8,3,3,6,1,1,1,0,0,0
1915517929,1915516846,40177334,41.1790555,-8.6035789,-4.1784563,-2.2536132,14.393543,0.008950949,-0.038369656,1.4412384,0.016249474,0.02541586,-1.2177579,-0.9376574,0.035676077,-0.046197742,-0.010773117,-2.3830612,0.25889754,0.45469746,-2.0758607,-0.18606262,129.98909,3.7040558,0.32689175,0.28388748,0.16096206,0.099714346,inf,inf,inf,inf,1,1,1,1,3,8,3,3,6,1,1,1,0,0,0
1915625911,1915624982,40177334,41.1790555,-8.6035789,-4.1809573,-2.2563899,14.293398,0.008950949,-0.038369656,1.4412384,0.04690805,0.023882272,-1.3603939,-1.0711464,0.035676077,-0.046197742,-0.010773117,2.5837467,-0.6960779,-2.421956,-2.0731387,-0.18606262,129.98909,3.8042011,0.33695802,0.28954956,0.16832395,0.1016949,inf,inf,inf,inf,1,1,1,1,3,8,3,3,6,1,1,1,0,0,0
1915725046,1915724149,40177334,41.1790555,-8.6035789,-4.188875,-2.2580218,14.220118,0.008950949,-0.038369656,1.4412384,0.03407512,0.036097836,-1.3227109,-1.0057626,0.035676077,-0.046197742,-0.010773117,3.190596,-1.0068235,-0.9154061,-2.0772948,-0.18606262,129.98909,3.8774815,0.32775074,0.28434917,0.16093332,0.09986772,inf,inf,inf,inf,1,1,1,1,3,8,3,3,6,1,1,1,0,0,0
1915825494,1915823315,40177334,41.1790555,-8.6035789,-4.196186,-2.2567546,14.136797,0.008950949,-0.038369656,1.4412384,0.020556802,0.052488133,-1.2400016,-0.9130943,0.035676077,-0.046197742,-0.010773117,-0.849582,2.0208836,1.5387605,-2.0841937,-0.18606262,129.98909,3.960802,0.33699945,0.28938726,0.16651568,0.10165781,inf,inf,inf,inf,1,1,1,1,3,8,3,3,6,1,1,1,0,0,0
1915924981,1915922527,40177334,41.1790555,-8.6035789,-4.203054,-2.250604,14.073401,0.008950949,-0.038369656,1.4412384,0.023362739,0.050600044,-1.114481,-0.769089,0.035676077,-0.046197742,-0.010773117,3.2741437,-0.015160751,1.3526903,-2.092722,-0.18606262,129.98909,4.0241976,0.32777953,0.2841791,0.1585633,0.09983324,inf,inf,inf,inf,1,1,1,1,3,8,3,3,6,1,1,1,0,0,0
1916022605,1916021652,40177334,41.1790555,-8.6035789,-4.208236,-2.243253,14.015468,0.008950949,-0.038369656,1.4412384,0.022354268,0.05737106,-0.87111616,-0.52344215,0.035676077,-0.046197742,-0.010773117,0.68008864,-0.7276938,1.9127166,-2.1022832,-0.18606262,129.98909,4.0821314,0.33696634,0.2892164,0.16367857,0.10162342,inf,inf,inf,inf,1,1,1,1,3,8,3,3,6,1,1,1,0,0,0
1916122492,1916120815,40177334,41.1790555,-8.6035789,-4.218461,-2.2378857,13.983941,0.008950949,-0.038369656,1.4412384,0.012538482,0.062474534,-0.6054406,-0.25476098,0.035676077,-0.046197742,-0.010773117,-1.7646564,0.9117734,3.7770958,-2.110876,-0.18606262,129.98909,4.113658,0.32777238,0.28401747,0.15567629,0.09980075,inf,inf,inf,inf,1,1,1,1,3,8,3,3,6,1,1,1,0,0,0
1916220955,1916219981,40177334,41.1790555,-8.6035789,-4.226508,-2.2318525,13.965624,0.008950949,-0.038369656,1.4412384,0.020930748,0.049160436,-0.3805555,-0.03846597,0.035676077,-0.046197742,-0.010773117,-0.46121877,-3.1320875,-1.8493413,-2.1201062,-0.18606262,129.98909,4.131975,0.33686563,0.28905037,0.16011806,0.10158773,inf,inf,inf,inf,1,1,1,1,3,8,3,3,6,1,1,1,0,0,0
1916320100,1916319148,40177334,41.1790555,-8.6035789,-4.2418165,-2.227136,13.960267,0.008950949,-0.038369656,1.4412384,0.033546522,0.06627326,-0.26310048,0.0676166,0.035676077,-0.046197742,-0.010773117,-1.3249974,-0.3207055,-0.8938288,-2.1270292,-0.18606262,129.98909,4.137332,0.32767832,0.28381872,0.15279767,0.09974348,inf,inf,inf,inf,1,1,1,1,3,8,3,3,6,1,1,1,0,0,0
1916421215,1916418360,40177334,41.1790555,-8.6035789,-4.253686,-2.221471,13.954641,0.008950949,-0.038369656,1.4412384,0.050994154,0.06720997,-0.22338684,0.09002418,0.035676077,-0.046197742,-0.010773117,-0.16260934,-1.7326107,1.5780795,-2.128361,-0.18606262,129.98909,4.1429577,0.33668116,0.288847,0.1577263,0.10152935,inf,inf,inf,inf,1,1,1,1,3,8,3,3,6,1,1,1,0,0,0
1916518512,1916517480,40177334,41.1790555,-8.6035789,-4.265514,-2.2171123,13.948164,0.008950949,-0.038369656,1.4412384,0.07570829,0.071047924,-0.24643786,0.052091535,0.035676077,-0.046197742,-0.010773117,2.7123609,0.94623685,1.1063148,-2.1277323,-0.18606262,129.98909,4.149435,0.32754776,0.28362083,0.15127212,0.09968833,inf,inf,inf,inf,1,1,1,1,3,8,3,3,6,1,1,1,0,0,0
1916622110,1916616647,40177334,41.1790555,-8.6035789,-4.2727456,-2.2114332,13.942045,0.008950949,-0.038369656,1.4412384,0.057110257,0.06980261,-0.14714947,0.13269708,0.035676077,-0.046197742,-0.010773117,-2.7903311,2.6093438,-1.1901995,-2.12993,-0.18606262,129.98909,4.155554,0.33650675,0.28864887,0.15659767,0.10147389,inf,inf,inf,inf,1,1,1,1,3,8,3,3,6,1,1,1,0,0,0
1916717169,1916715813,40177334,41.1790555,-8.6035789,-4.283597,-2.2018313,13.947655,0.008950949,-0.038369656,1.4412384,0.09572601,0.06621819,-0.10901299,0.16008313,0.035676077,-0.046197742,-0.010773117,3.2566009,-3.3235552,0.045257285,-2.1284735,-0.18606262,129.98909,4.1499443,0.32745615,0.283476,0.15004466,0.099662006,inf,inf,inf,inf,1,1,1,1,3,8,3,3,6,1,1,1,0,0,0
1916824998,1916824041,40177334,41.1790555,-8.6035789,-4.2905297,-2.1913493,13.952707,0.008950949,-0.038369656,1.4412384,0.08305615,0.076934114,-0.036256388,0.21588199,0.035676077,-0.046197742,-0.010773117,-0.967301,2.2885005,-1.5683422,-2.127126,-0.18606262,129.98909,4.1448917,0.33721325,0.28914186,0.15563339,0.10163789,inf,inf,inf,inf,1,1,1,1,3,8,3,3,6,1,1,1,0,0,0
1916924403,1916923164,40177334,41.1790555,-8.6035789,-4.298262,-2.182962,13.970291,0.008950949,-0.038369656,1.4412384,0.09985064,0.076643445,0.00047574705,0.24624835,0.035676077,-0.046197742,-0.010773117,-3.3560364,1.7967154,1.5843532,-2.1261253,-0.18606262,129.98909,4.127308,0.32805696,0.28391474,0.14926007,0.09980411,inf,inf,inf,inf,1,1,1,1,3,8,3,3,6,1,1,1,0,0,0
1917024522,1917022328,40177334,41.1790555,-8.6035789,-4.3012943,-2.175425,13.979672,0.008950949,-0.038369656,1.4412384,0.11714296,0.0625243,-0.070072696,0.16399756,0.035676077,-0.046197742,-0.010773117,-3.841088,1.7407035,0.36533457,-2.1218438,-0.18606262,129.98909,4.1179266,0.33697528,0.288956,0.15438734,0.10158904,inf,inf,inf,inf,1,1,1,1,3,8,3,3,6,1,1,1,0,0,0
1917122372,1917121495,40177334,41.1790555,-8.6035789,-4.3044834,-2.1670876,13.991125,0.008950949,-0.038369656,1.4412384,0.13608119,0.06415292,-0.11804092,0.11162417,0.035676077,-0.046197742,-0.010773117,0.07732548,3.711113,-1.4839234,-2.1140494,-0.18606262,129.98909,4.106474,0.32788077,0.2837353,0.14867051,0.09975695,inf,inf,inf,inf,1,1,1,1,3,8,3,3,6,1,1,1,0,0,0
1917221549,1917220661,40177334,41.1790555,-8.6035789,-4.302484,-2.1593878,13.993321,0.008950949,-0.038369656,1.4412384,0.1513986,0.040789407,-0.12839408,0.09113746,0.035676077,-0.046197742,-0.010773117,2.3285346,0.14581212,-2.0846117,-2.111627,-0.18606262,129.98909,4.1042776,0.3367774,0.28877243,0.15406053,0.10154043,inf,inf,inf,inf,1,1,1,1,3,8,3,3,6,1,1,1,0,0,0
1917320822,1917319873,40177334,41.1790555,-8.6035789,-4.305545,-2.1506693,14.005296,0.008950949,-0.038369656,1.4412384,0.16096263,0.045131173,-0.1280483,0.093110316,0.035676077,-0.046197742,-0.010773117,-0.3553336,0.6468291,-1.0623754,-2.1085486,-0.18606262,129.98909,4.0923033,0.32768568,0.2835562,0.14808874,0.09971166,inf,inf,inf,inf,1,1,1,1,3,8,3,3,6,1,1,1,0,0,0
1917419910,1917418994,40177334,41.1790555,-8.6035789,-4.30372,-2.143704,14.010044,0.008950949,-0.038369656,1.4412384,0.17352806,0.022859503,-0.11525418,0.10003025,0.035676077,-0.046197742,-0.010773117,-3.5261416,-0.137631,1.4886286,-2.1051092,-0.18606262,129.98909,4.087555,0.33655474,0.2885943,0.1529184,0.10149623,inf,inf,inf,inf,1,1,1,1,3,8,3,3,6,1,1,1,0,0,0
1917519006,1917518161,40177334,41.1790555,-8.6035789,-4.3023753,-2.1347558,14.023938,0.008950949,-0.038369656,1.4412384,0.19322404,0.025520185,-0.12734486,0.091479704,0.035676077,-0.046197742,-0.010773117,1.6202579,0.94661355,-1.144143,-2.1026905,-0.18606262,129.98909,4.073661,0.32744345,0.28335753,0.14688517,0.099650435,inf,inf,inf,inf,1,1,1,1,3,8,3,3,6,1,1,1,0,0,0
1917627183,1917626342,40177334,41.1790555,-8.6035789,-4.2963543,-2.1278567,14.029972,0.008950949,-0.038369656,1.4412384,0.21060535,-0.007933021,-0.17356735,0.041795533,0.035676077,-0.046197742,-0.010773117,1.8303901,0.13108137,-0.73465383,-2.0969296,-0.18606262,129.98909,4.067627,0.33710238,0.28902993,0.15235034,0.101624265,inf,inf,inf,inf,1,1,1,1,3,8,3,3,6,1,1,1,0,0,0
1917719021,1917716494,40177334,41.1790555,-8.6035789,-4.294226,-2.1210482,14.035423,0.008950949,-0.038369656,1.4412384,0.20178092,-0.012505197,-0.29117164,-0.06965633,0.035676077,-0.046197742,-0.010773117,2.0645125,0.46577722,-1.4757379,-2.0921564,-0.18606262,129.98909,4.0621758,0.32719293,0.2831738,0.14618823,0.0995937,inf,inf,inf,inf,1,1,1,1,3,8,3,3,6,1,1,1,0,0,0
1917825550,1917824675,40177334,41.1790555,-8.6035789,-4.2892284,-2.1162817,14.021664,0.008950949,-0.038369656,1.4412384,0.17417292,-0.03169168,-0.36442485,-0.14513849,0.035676077,-0.046197742,-0.010773117,-1.932276,-0.18527727,-0.8338965,-2.091807,-0.18606262,129.98909,4.0759354,0.33682415,0.28884053,0.15175362,0.10156769,inf,inf,inf,inf,1,1,1,1,3,8,3,3,6,1,1,1,0,0,0
1917924737,1917923842,40177334,41.1790555,-8.6035789,-4.292296,-2.1102035,14.0173,0.008950949,-0.038369656,1.4412384,0.1601456,-0.050138615,-0.3960132,-0.16571914,0.035676077,-0.046197742,-0.010773117,-0.30117202,-0.20875627,-0.8123345,-2.0940876,-0.18606262,129.98909,4.0802994,0.32773343,0.2836109,0.14580607,0.09973247,inf,inf,inf,inf,1,1,1,1,3,8,3,3,6,1,1,1,0,0,0
1918023967,1918023008,40177334,41.1790555,-8.6035789,-4.292792,-2.1084423,14.002877,0.008950949,-0.038369656,1.4412384,0.14655109,-0.07322151,-0.3913955,-0.1600757,0.035676077,-0.046197742,-0.010773117,2.6709766,0.05697747,-0.85221004,-2.0980353,-0.18606262,129.98909,4.094722,0.336556,0.2886521,0.150455,0.10151391,inf,inf,inf,inf,1,1,1,1,3,8,3,3,6,1,1,1,0,0,0
1918123586,1918122175,40177334,41.1790555,-8.6035789,-4.29581,-2.10487,14.000357,0.008950949,-0.038369656,1.4412384,0.1338271,-0.10644708,-0.37759182,-0.13474478,0.035676077,-0.046197742,-0.010773117,0.80173266,0.120519936,-0.33372447,-2.0994897,-0.18606262,129.98909,4.0972424,0.32749406,0.28343168,0.14482933,0.09968169,inf,inf,inf,inf,1,1,1,1,3,8,3,3,6,1,1,1,0,0,0
1918222403,1918221387,40177334,41.1790555,-8.6035789,-4.294696,-2.1072192,13.990491,0.008950949,-0.038369656,1.4412384,0.1382682,-0.13819505,-0.3340869,-0.09040995,0.035676077,-0.046197742,-0.010773117,0.8546975,0.41236272,0.9527588,-2.0983624,-0.18606262,129.98909,4.107108,0.3362773,0.28846872,0.14939046,0.10146193,inf,inf,inf,inf,1,1,1,1,3,8,3,3,6,1,1,1,0,0,0
1918321448,1918320507,40177334,41.1790555,-8.6035789,-4.2924666,-2.1090896,13.988786,0.008950949,-0.038369656,1.4412384,0.13666072,-0.16085203,-0.33992827,-0.0884275,0.035676077,-0.046197742,-0.010773117,2.0685582,-3.0546339,0.37906906,-2.096974,-0.18606262,129.98909,4.1088133,0.32720014,0.28322446,0.14376493,0.099613726,inf,inf,inf,inf,1,1,1,1,3,8,3,3,6,1,1,1,0,0,0
1918420614,1918419674,40177334,41.1790555,-8.6035789,-4.2864866,-2.1143808,13.980325,0.008950949,-0.038369656,1.4412384,0.13325934,-0.17466058,-0.3442568,-0.09394676,0.035676077,-0.046197742,-0.010773117,-2.9151413,-1.9677778,0.3423101,-2.0947104,-0.18606262,129.98909,4.1172743,0.33593482,0.2882586,0.1484946,0.101395525,inf,inf,inf,inf,1,1,1,1,3,8,3,3,6,1,1,1,0,0,0
1918519747,1918518840,40177334,41.1790555,-8.6035789,-4.280727,-2.118627,13.97673,0.008950949,-0.038369656,1.4412384,0.13769783,-0.19505422,-0.35847685,-0.10285535,0.035676077,-0.046197742,-0.010773117,-3.2781289,-1.6676205,0.25318003,-2.0928788,-0.18606262,129.98909,4.1208687,0.32692477,0.2830226,0.14295544,0.09955232,inf,inf,inf,inf,1,1,1,1,3,8,3,3,6,1,1,1,0,0,0
1918618971,1918618007,40177334,41.1790555,-8.6035789,-4.273255,-2.1269002,13.964453,0.008950949,-0.038369656,1.4412384,0.13891236,-0.20758846,-0.3591127,-0.10601396,0.035676077,-0.046197742,-0.010773117,-0.37582627,0.1917589,0.25999758,-2.090759,-0.18606262,129.98909,4.1331463,0.3356177,0.28804937,0.14753903,0.10133173,inf,inf,inf,inf,1,1,1,1,3,8,3,3,6,1,1,1,0,0,0
1918727324,1918726188,40177334,41.1790555,-8.6035789,-4.269231,-2.1359117,13.958442,0.008950949,-0.038369656,1.4412384,0.1360311,-0.21538785,-0.33295685,-0.07647013,0.035676077,-0.046197742,-0.010773117,2.3102295,-1.6723425,0.008322863,-2.0894604,-0.18606262,129.98909,4.1391573,0.32734564,0.28340977,0.1425015,0.09966439,inf,inf,inf,inf,1,1,1,1,3,8,3,3,6,1,1,1,0,0,0
1918818797,1918816340,40177334,41.1790555,-8.6035789,-4.2651534,-2.146103,13.952846,0.008950949,-0.038369656,1.4412384,0.12792006,-0.21768788,-0.25187644,0.0018426331,0.035676077,-0.046197742,-0.010773117,2.1331973,-1.359639,1.1078974,-2.0931125,-0.18606262,129.98909,4.1447535,0.33522812,0.28780958,0.14643018,0.10125192,inf,inf,inf,inf,1,1,1,1,3,8,3,3,6,1,1,1,0,0,0
1918925360,1918924522,40177334,41.1790555,-8.6035789,-4.25962,-2.1561558,13.964901,0.008950949,-0.038369656,1.4412384,0.11415719,-0.21794647,-0.11527293,0.14034662,0.035676077,-0.046197742,-0.010773117,2.1305518,-1.684738,0.59979415,-2.1003518,-0.18606262,129.98909,4.132698,0.3270622,0.2832141,0.14107697,0.099610955,inf,inf,inf,inf,1,1,1,1,3,8,3,3,6,1,1,1,0,0,0
1919020215,1919014673,40177334,41.1790555,-8.6035789,-4.2537456,-2.1669166,13.978031,0.008950949,-0.038369656,1.4412384,0.10786693,-0.21269329,-0.045841824,0.20482619,0.035676077,-0.046197742,-0.010773117,2.4118032,0.09213182,-0.63783705,-2.1047606,-0.18606262,129.98909,4.119568,0.33489305,0.2876139,0.1447841,0.101199426,inf,inf,inf,inf,1,1,1,1,3,8,3,3,6,1,1,1,0,0,0
1919123720,1919122900,40177334,41.1790555,-8.6035789,-4.2500124,-2.1775568,13.997159,0.008950949,-0.038369656,1.4412384,0.08356149,-0.1999922,-0.039931864,0.20583932,0.035676077,-0.046197742,-0.010773117,-2.7365167,1.7657624,0.73277557,-2.109282,-0.18606262,129.98909,4.10044,0.3267718,0.2830222,0.13974062,0.09956174,inf,inf,inf,inf,1,1,1,1,3,8,3,3,6,1,1,1,0,0,0
1919223281,1919222021,40177334,41.1790555,-8.6035789,-4.2474694,-2.188582,14.008971,0.008950949,-0.038369656,1.4412384,0.05925357,-0.19578797,-0.00074647466,0.2341925,0.035676077,-0.046197742,-0.010773117,1.2304584,-1.1736963,4.6637115,-2.119083,-0.18606262,129.98909,4.088628,0.33536172,0.28805658,0.1441645,0.101343,inf,inf,inf,inf,1,1,1,1,3,8,3,3,6,1,1,1,0,0,0
1919322891,1919321187,40177334,41.1790555,-8.6035789,-4.248816,-2.1987007,14.026198,0.008950949,-0.038369656,1.4412384,0.02162647,-0.17114781,-0.00889812,0.22044244,0.035676077,-0.046197742,-0.010773117,-3.0499377,-2.3316483,1.9352258,-2.126563,-0.18606262,129.98909,4.0714006,0.32646966,0.2828347,0.13901368,0.09951841,inf,inf,inf,inf,1,1,1,1,3,8,3,3,6,1,1,1,0,0,0
1919421245,1919420354,40177334,41.1790555,-8.6035789,-4.250272,-2.210393,14.035925,0.008950949,-0.038369656,1.4412384,0.016776204,-0.17057179,-0.020647248,0.19715121,0.035676077,-0.046197742,-0.010773117,-1.0265917,1.1544765,-0.11054549,-2.1320028,-0.18606262,129.98909,4.061674,0.33502305,0.2878693,0.1433868,0.10130014,inf,inf,inf,inf,1,1,1,1,3,8,3,3,6,1,1,1,0,0,0
1919520525,1919519520,40177334,41.1790555,-8.6035789,-4.2514277,-2.2236645,14.050199,0.008950949,-0.038369656,1.4412384,-0.0019964664,-0.1657823,-0.021438686,0.19071116,0.035676077,-0.046197742,-0.010773117,0.5851364,-4.4220805,-1.2583265,-2.1357112,-0.18606262,129.98909,4.0474005,0.32612643,0.28261858,0.13843673,0.09945732,inf,inf,inf,inf,1,1,1,1,3,8,3,3,6,1,1,1,0,0,0
1919619688,1919618732,40177334,41.1790555,-8.6035789,-4.2532954,-2.2366793,14.0560055,0.008950949,-0.038369656,1.4412384,-0.0033539035,-0.1387176,-0.039357975,0.16102047,0.035676077,-0.046197742,-0.010773117,2.142183,-0.43200782,-1.6082348,-2.1353927,-0.18606262,129.98909,4.0415936,0.33464134,0.28764388,0.14291523,0.101238236,inf,inf,inf,inf,1,1,1,1,3,8,3,3,6,1,1,1,0,0,0
1919718745,1919717853,40177334,41.1790555,-8.6035789,-4.257084,-2.2491117,14.064427,0.008950949,-0.038369656,1.4412384,-0.02242943,-0.12678394,-0.03972812,0.15326174,0.035676077,-0.046197742,-0.010773117,-0.15002863,-0.7256383,-0.6501322,-2.1342463,-0.18606262,129.98909,4.0331717,0.32578433,0.2823913,0.13803047,0.09939842,inf,inf,inf,inf,1,1,1,1,3,8,3,3,6,1,1,1,0,0,0
1919818050,1919817020,40177334,41.1790555,-8.6035789,-4.261074,-2.2614095,14.068228,0.008950949,-0.038369656,1.4412384,-0.029412504,-0.12734875,-0.03309877,0.1481884,0.035676077,-0.046197742,-0.010773117,-1.7021004,1.8578482,-2.418051,-2.1329513,-0.18606262,129.98909,4.0293713,0.33427033,0.2874115,0.14240845,0.1011776,inf,inf,inf,inf,1,1,1,1,3,8,3,3,6,1,1,1,0,0,0
1919926095,1919925203,40177334,41.1790555,-8.6035789,-4.268063,-2.2762809,14.08031,0.008950949,-0.038369656,1.4412384,-0.030945238,-0.11693238,-0.03038334,0.14722934,0.035676077,-0.046197742,-0.010773117,-2.7952983,-0.5212079,0.23799698,-2.1282618,-0.18606262,129.98909,4.017289,0.32619098,0.28278795,0.13806161,0.09953318,inf,inf,inf,inf,1,1,1,1,3,8,3,3,6,1,1,1,0,0,0
1920025382,1920024413,40177334,41.1790555,-8.6035789,-4.2754045,-2.289204,14.085276,0.008950949,-0.038369656,1.4412384,-0.045908775,-0.114426956,-0.04919026,0.11997928,0.035676077,-0.046197742,-0.010773117,0.85948163,-0.760796,0.32473803,-2.1257377,-0.18606262,129.98909,4.0123234,0.33469337,0.28782663,0.1424198,0.10131278,inf,inf,inf,inf,1,1,1,1,3,8,3,3,6,1,1,1,0,0,0
1920124411,1920123534,40177334,41.1790555,-8.6035789,-4.284484,-2.3025818,14.094867,0.008950949,-0.038369656,1.4412384,-0.05013463,-0.12030395,-0.094225466,0.073675804,0.035676077,-0.046197742,-0.010773117,-1.4162506,0.36523724,-2.2881308,-2.1237721,-0.18606262,129.98909,4.0027323,0.32579193,0.2825372,0.13769497,0.09946151,inf,inf,inf,inf,1,1,1,1,3,8,3,3,6,1,1,1,0,0,0
1920223546,1920222700,40177334,41.1790555,-8.6035789,-4.292274,-2.3151402,14.097229,0.008950949,-0.038369656,1.4412384,-0.039478283,-0.106136225,-0.06796748,0.09290712,0.035676077,-0.046197742,-0.010773117,2.3013592,-0.71461976,-0.554704,-2.1194458,-0.18606262,129.98909,4.00037,0.33426616,0.28756902,0.14231235,0.1012407,inf,inf,inf,inf,1,1,1,1,3,8,3,3,6,1,1,1,0,0,0
1920315487,1920312852,40177334,41.1790555,-8.6035789,-4.30175,-2.3271556,14.108028,0.008950949,-0.038369656,1.4412384,-0.01245771,-0.10166449,-0.043436766,0.11928817,0.035676077,-0.046197742,-0.010773117,3.0643718,-0.37916926,-0.4559485,-2.112266,-0.18606262,129.98909,3.9895706,0.3246584,0.28167784,0.13707061,0.099204585,inf,inf,inf,inf,1,1,1,1,3,8,3,3,6,1,1,1,0,0,0
1920422958,1920421033,40177334,41.1790555,-8.6035789,-4.308781,-2.339931,14.119075,0.008950949,-0.038369656,1.4412384,0.0013180496,-0.084565215,-0.038293347,0.121598415,0.035676077,-0.046197742,-0.010773117,1.6477755,-0.7124811,-0.22436452,-2.1081712,-0.18606262,129.98909,3.9785242,0.33384678,0.28732017,0.14177203,0.101168364,inf,inf,inf,inf,1,1,1,1,3,8,3,3,6,1,1,1,0,0,0
1920521962,1920520245,40177334,41.1790555,-8.6035789,-4.31595,-2.3495653,14.13415,0.008950949,-0.038369656,1.4412384,0.03599698,-0.0897605,-0.02680947,0.1362603,0.035676077,-0.046197742,-0.010773117,3.6278791,0.8629252,0.59045714,-2.1064327,-0.18606262,129.98909,3.9634495,0.32504663,0.2820685,0.13710955,0.09933023,inf,inf,inf,inf,1,1,1,1,3,8,3,3,6,1,1,1,0,0,0
1920620374,1920619366,40177334,41.1790555,-8.6035789,-4.319321,-2.3585591,14.143999,0.008950949,-0.038369656,1.4412384,0.037577517,-0.0714286,-0.06552716,0.09546444,0.035676077,-0.046197742,-0.010773117,3.409363,-0.08030927,-0.430835,-2.1031694,-0.18606262,129.98909,3.9536,0.33346334,0.28708965,0.14146453,0.10110313,inf,inf,inf,inf,1,1,1,1,3,8,3,3,6,1,1,1,0,0,0
1920719656,1920718532,40177334,41.1790555,-8.6035789,-4.3258286,-2.3651426,14.159725,0.008950949,-0.038369656,1.4412384,0.045787457,-0.06432007,-0.08601107,0.080973305,0.035676077,-0.046197742,-0.010773117,2.6039832,-1.1716598,-1.7281173,-2.1044865,-0.18606262,129.98909,3.9378738,0.32475626,0.28188512,0.13704994,0.09929379,inf,inf,inf,inf,1,1,1,1,3,8,3,3,6,1,1,1,0,0,0
1920827995,1920826718,40177334,41.1790555,-8.6035789,-4.3294883,-2.3708103,14.165913,0.008950949,-0.038369656,1.4412384,0.040625308,-0.04311415,-0.1112311,0.05375773,0.035676077,-0.046197742,-0.010773117,2.7601514,1.675193,-1.2456913,-2.1071112,-0.18606262,129.98909,3.9316864,0.3339496,0.2875391,0.14194493,0.1012591,inf,inf,inf,inf,1,1,1,1,3,8,3,3,6,1,1,1,0,0,0
1920917982,1920916865,40177334,41.1790555,-8.6035789,-4.3374386,-2.3746426,14.178919,0.008950949,-0.038369656,1.4412384,0.028689446,-0.05490517,-0.106967844,0.064989716,0.035676077,-0.046197742,-0.010773117,-2.106136,2.3022962,-2.2705607,-2.1087847,-0.18606262,129.98909,3.9186802,0.32440865,0.28166658,0.13705172,0.09923871,inf,inf,inf,inf,1,1,1,1,3,8,3,3,6,1,1,1,0,0,0
1921025832,1921025046,40177334,41.1790555,-8.6035789,-4.343944,-2.3799872,14.18418,0.008950949,-0.038369656,1.4412384,0.028976224,-0.05345063,-0.11852269,0.05286012,0.035676077,-0.046197742,-0.010773117,-1.0108314,-1.3526274,0.6947076,-2.107726,-0.18606262,129.98909,3.9134188,0.33358765,0.28732,0.14184338,0.101208895,inf,inf,inf,inf,1,1,1,1,3,8,3,3,6,1,1,1,0,0,0
1921125262,1921124213,40177334,41.1790555,-8.6035789,-4.352532,-2.3800955,14.197073,0.008950949,-0.038369656,1.4412384,0.02016595,-0.066159196,-0.14336324,0.035896983,0.035676077,-0.046197742,-0.010773117,2.57338,-0.85217077,-1.7649235,-2.1108751,-0.18606262,129.98909,3.900526,0.32483596,0.2820729,0.13734111,0.09938214,inf,inf,inf,inf,1,1,1,1,3,8,3,3,6,1,1,1,0,0,0
1921224392,1921223379,40177334,41.1790555,-8.6035789,-4.3591647,-2.382111,14.199119,0.008950949,-0.038369656,1.4412384,0.017069183,-0.051961746,-0.14185739,0.036064133,0.035676077,-0.046197742,-0.010773117,2.7882707,0.8928424,1.4327117,-2.1115415,-0.18606262,129.98909,3.8984804,0.3332626,0.28710353,0.14186728,0.10116053,inf,inf,inf,inf,1,1,1,1,3,8,3,3,6,1,1,1,0,0,0
1921323448,1921322546,40177334,41.1790555,-8.6035789,-4.3683357,-2.3819704,14.207194,0.008950949,-0.038369656,1.4412384,0.0015166459,-0.060504172,-0.16517435,0.017475134,0.035676077,-0.046197742,-0.010773117,-2.4688148,2.3180645,-1.1114275,-2.1110039,-0.18606262,129.98909,3.8904047,0.3245495,0.28187668,0.13733691,0.099339105,inf,inf,inf,inf,1,1,1,1,3,8,3,3,6,1,1,1,0,0,0
