timestamp,position[0],position[1],position[2],velocity[0],velocity[1],velocity[2],acceleration[0],acceleration[1],acceleration[2],jerk[0],jerk[1],jerk[2],yaw,yawspeed
289462698,nan,nan,nan,0.0056444416,0.0046727685,0.7,-0.15588641,-0.12905106,0.0,nan,nan,0.0,nan,0.0
289482654,nan,nan,nan,0.005835847,0.004313633,0.7,-0.16197714,-0.11972723,0.0,nan,nan,0.0,nan,0.0
289662513,nan,nan,nan,0.0072513646,0.0109105455,0.7,-0.13253818,-0.19215646,0.0,nan,nan,0.0,nan,0.0
289872364,nan,nan,nan,0.0069576716,0.005796095,0.69519573,-0.16915733,-0.14091665,-0.1602,nan,nan,-8.0,nan,0.0
290052235,-0.9581262,-0.18058705,nan,0.0,0.0,0.64887226,0.0,0.0,-0.79928005,nan,nan,-8.0,nan,0.0
290252154,-0.9581262,-0.18058705,nan,0.0,0.0,0.32920575,0.0,0.0,-2.398648,nan,nan,-8.0,nan,0.0
290452106,-0.9581262,-0.18058705,nan,0.0,0.0,-0.31029594,0.0,0.0,-3.998192,nan,nan,-8.0,nan,0.0
290652029,-0.9581262,-0.18058705,nan,0.0,0.0,-1.1100278,0.0,0.0,-4.0,nan,nan,0.0,nan,0.0
290852095,-0.9581262,-0.18058705,nan,0.0,0.0,-1.9102479,0.0,0.0,-4.0,nan,nan,0.0,nan,0.0
291071876,-0.9581262,-0.18058705,nan,0.0,0.0,-2.6336243,0.0,0.0,-2.421161,nan,nan,8.0,nan,0.0
291271883,-0.9581262,-0.18058705,nan,0.0,0.0,-2.9578328,0.0,0.0,-0.82139283,nan,nan,8.0,nan,0.0
291471639,-0.9581262,-0.18058705,nan,0.0,0.0,-2.9622748,0.0,0.0,0.7769272,nan,nan,8.0,nan,0.0
291651644,-0.9581262,-0.18058705,nan,0.0,0.0,-2.6928833,0.0,0.0,2.2167273,nan,nan,8.0,nan,0.0
291851384,-0.9581262,-0.18058705,nan,0.0,0.0,-2.1191301,0.0,0.0,2.8564794,nan,nan,-8.0,nan,0.0
292051324,-0.9581262,-0.18058705,nan,0.0,0.0,-1.7079073,0.0,0.0,1.2569437,nan,nan,-8.0,nan,0.0
292251226,-0.9581262,-0.18058705,nan,0.0,0.0,-1.616486,0.0,0.0,-0.34228835,nan,nan,-8.0,nan,0.0
292471138,-0.9581262,-0.18058705,nan,0.0,0.0,-1.8582593,0.0,0.0,-1.1731607,nan,nan,8.0,nan,0.0
292671066,-0.9581262,-0.18058705,nan,0.0,0.0,-1.9329232,0.0,0.0,0.42623937,nan,nan,8.0,nan,0.0
292871092,-0.9581262,-0.18058705,nan,0.0,0.0,-1.6876267,0.0,0.0,2.0264313,nan,nan,8.0,nan,0.0
293071382,-0.9581262,-0.18058705,nan,0.0,0.0,-1.1868999,0.0,0.0,2.6916347,nan,nan,8.0,nan,0.0
293271034,-0.9581262,-0.18058705,nan,0.0,0.0,-0.76255953,0.0,0.0,1.336882,nan,nan,-8.0,nan,0.0
293450754,-0.9581262,-0.18058705,nan,0.0,0.0,-0.65149224,0.0,0.0,-0.10086994,nan,nan,-8.0,nan,0.0
293650856,-0.9581262,-0.18058705,nan,0.0,0.0,-0.8316901,0.0,0.0,-1.700982,nan,nan,-8.0,nan,0.0
293870701,-0.9581262,-0.18058705,nan,0.0,0.0,-1.1964198,0.0,0.0,-0.9130192,nan,nan,8.0,nan,0.0
294070491,-0.9581262,-0.18058705,nan,0.0,0.0,-1.2485199,0.0,0.0,0.0,nan,nan,0.0,nan,0.0
294270421,-0.9581262,-0.18058705,nan,0.0,0.0,-1.2485199,0.0,0.0,0.0,nan,nan,0.0,nan,0.0
294471070,-0.9581262,-0.18058705,nan,0.0,0.0,-1.2485199,0.0,0.0,0.0,nan,nan,0.0,nan,0.0
294670398,-0.9581262,-0.18058705,nan,0.0,0.0,-1.208981,0.0,0.0,0.795376,nan,nan,8.0,nan,0.0
294870298,-0.9581262,-0.18058705,nan,0.0,0.0,-0.94680125,0.0,0.0,1.5633234,nan,nan,-8.0,nan,0.0
295050246,-0.9581262,-0.18058705,nan,0.0,0.0,-0.666729,0.0,0.0,1.2156286,nan,nan,-8.0,0.7039008,0.0
295269996,-0.9581262,-0.18058705,nan,0.0,0.0,-0.57436943,0.0,0.0,0.0,nan,nan,0.0,0.7039008,0.0
295469908,-0.9581262,-0.18058705,nan,0.0,0.0,-0.5741081,0.0,0.0,-0.06466682,nan,nan,8.0,0.7039008,0.0
295670652,-0.9581262,-0.18058705,nan,0.0,0.0,-0.5726432,0.0,0.0,0.166192,nan,nan,8.0,0.7039008,0.0
295869840,-0.9581262,-0.18058705,nan,0.0,0.0,-0.57374465,0.0,0.0,-0.09998547,nan,nan,8.0,0.7039008,0.0
296069670,-0.9581262,-0.18058705,nan,0.0,0.0,-0.56977993,0.0,0.0,0.0,nan,nan,0.0,0.7039008,0.0
296269484,-0.9581262,-0.18058705,nan,0.0,0.0,-0.56977993,0.0,0.0,0.0,nan,nan,0.0,0.7039008,0.0
296469298,-0.9581262,-0.18058705,nan,0.0,0.0,-0.57436943,0.0,0.0,0.0,nan,nan,0.0,0.7039008,0.0
296669223,-0.9581262,-0.18058705,nan,0.0,0.0,-0.57436943,0.0,0.0,0.0,nan,nan,0.0,0.7039008,0.0
296869444,-0.9581262,-0.18058705,nan,0.0,0.0,-0.5727579,0.0,0.0,0.160576,nan,nan,8.0,0.7039008,0.0
297069104,-0.9581262,-0.18058705,nan,0.0,0.0,-0.56977993,0.0,0.0,0.0,nan,nan,0.0,nan,-0.3171822
297269081,-0.9581262,-0.18058705,nan,0.0,0.0,-0.56977993,0.0,0.0,0.0,nan,nan,0.0,nan,-0.35952052
297469123,-0.9581262,-0.18058705,nan,0.0,0.0,-0.56816965,0.0,0.0,0.160512,nan,nan,8.0,nan,-0.038592502
297668947,-0.9581262,-0.18058705,nan,0.0,0.0,-0.3762943,0.0,0.0,1.75948,nan,nan,8.0,nan,-0.0041497815
297868883,-0.9581262,-0.18058705,nan,0.0,0.0,-0.051871743,0.0,0.0,0.9110148,nan,nan,-8.0,nan,-0.00044591734
298068780,-0.9581262,-0.18058705,-2.3793497,0.0,0.0,0.0,0.0,0.0,0.0,nan,nan,0.0,nan,-4.7936297e-05
298268686,-0.9581262,-0.18058705,-2.3793497,0.0,0.0,0.0,0.0,0.0,0.0,nan,nan,0.0,nan,-5.1525344e-06
298468740,-0.9581262,-0.18058705,-2.3793497,0.0,0.0,0.0,0.0,0.0,0.0,nan,nan,0.0,nan,-5.530335e-07
298668625,-0.9581262,-0.18058705,-2.3793497,0.0,0.0,0.0,0.0,0.0,0.0,nan,nan,0.0,0.45794314,-5.945649e-08
298868510,-0.9581262,-0.18058705,-2.3793497,0.0,0.0,0.0,0.0,0.0,0.0,nan,nan,0.0,0.45794314,-6.394475e-09
299068483,-0.9581262,-0.18058705,-2.3793497,0.0,0.0,0.0,0.0,0.0,0.0,nan,nan,0.0,0.45794314,-6.8669054e-10
299268344,-0.9581262,-0.18058705,-2.3793497,0.0,0.0,0.0,0.0,0.0,0.0,nan,nan,0.0,0.45794314,-7.384148e-11
299468236,-0.9581262,-0.18058705,-2.3793497,0.0,0.0,0.0,0.0,0.0,0.0,nan,nan,0.0,0.45794314,-7.940595e-12
299668056,-0.9581262,-0.18058705,nan,0.0,0.0,-0.053069763,0.0,0.0,-0.63927996,nan,nan,-8.0,0.45794314,-8.5402497e-13
299867870,-0.9581262,-0.18058705,nan,0.0,0.0,-0.1602605,0.0,0.0,0.0,nan,nan,0.0,0.45794314,-9.187364e-14
300067789,-0.9581262,-0.18058705,nan,0.0,0.0,-0.1602605,0.0,0.0,0.0,nan,nan,0.0,0.45794314,-9.873812e-15
300267713,-0.9581262,-0.18058705,nan,0.0,0.0,-0.06718785,0.0,0.0,0.7355634,nan,nan,-8.0,0.45794314,-1.0611843e-15
300467586,-0.9581262,-0.18058705,nan,0.0,0.0,-0.036114533,0.0,0.0,0.0,nan,nan,0.0,0.45794314,-1.1409809e-16
300668139,-0.9581262,-0.18058705,nan,0.0,0.0,-0.036114533,0.0,0.0,0.0,nan,nan,0.0,nan,-0.120117515
300867444,-0.9581262,-0.18058705,nan,0.0,0.0,-0.09664101,0.0,0.0,-0.08584832,nan,nan,8.0,nan,-0.50949633
301067505,-0.9581262,-0.18058705,nan,0.0,0.0,-0.097101614,0.0,0.0,0.0,nan,nan,0.0,nan,-0.5429999
301267870,-0.9581262,-0.18058705,nan,0.0,0.0,-0.097101614,0.0,0.0,0.0,nan,nan,0.0,nan,-0.55196536
301467146,-0.9581262,-0.18058705,nan,0.0,0.0,-0.097101614,0.0,0.0,0.0,nan,nan,0.0,nan,-0.5519565
301667192,-0.9581262,-0.18058705,nan,0.0,0.0,-0.097101614,0.0,0.0,0.0,nan,nan,0.0,nan,-0.55314624
301867630,-0.9581262,-0.18058705,nan,0.0,0.0,-0.097101614,0.0,0.0,0.0,nan,nan,0.0,nan,-0.55305034
302066912,-0.9581262,-0.18058705,nan,0.0,0.0,-0.097101614,0.0,0.0,0.0,nan,nan,0.0,nan,-0.5530401
302266914,-0.9581262,-0.18058705,nan,0.0,0.0,-0.097101614,0.0,0.0,0.0,nan,nan,0.0,nan,-0.5530389
302467468,-0.9581262,-0.18058705,nan,0.0,0.0,-0.097101614,0.0,0.0,0.0,nan,nan,0.0,nan,-0.55402714
302666658,-0.9581262,-0.18058705,nan,0.0,0.0,-0.097101614,0.0,0.0,0.0,nan,nan,0.0,nan,-0.5531458
302866799,-0.9581262,-0.18058705,nan,0.0,0.0,-0.097101614,0.0,0.0,0.0,nan,nan,0.0,nan,-0.5530502
303066534,-0.9581262,-0.18058705,nan,0.0,0.0,-0.097101614,0.0,0.0,0.0,nan,nan,0.0,nan,-0.552818
303266425,-0.9581262,-0.18058705,nan,0.0,0.0,-0.097101614,0.0,0.0,0.0,nan,nan,0.0,nan,-0.5527926
303466365,-0.9581262,-0.18058705,nan,0.0,0.0,-0.097101614,0.0,0.0,0.0,nan,nan,0.0,nan,-0.5530124
303666256,-0.9581262,-0.18058705,nan,0.0,0.0,-0.097101614,0.0,0.0,0.0,nan,nan,0.0,nan,-0.5460865
303866256,-0.9581262,-0.18058705,nan,0.0,0.0,-0.097101614,0.0,0.0,0.0,nan,nan,0.0,nan,-0.5414271
304065993,-0.9581262,-0.18058705,nan,0.0,0.0,-0.097101614,0.0,0.0,0.0,nan,nan,0.0,nan,-0.54223937
304265978,-0.9581262,-0.18058705,nan,0.0,0.0,-0.097101614,0.0,0.0,0.0,nan,nan,0.0,nan,-0.54172516
304465877,-0.9581262,-0.18058705,nan,0.0,0.0,-0.097101614,0.0,0.0,0.0,nan,nan,0.0,nan,-0.11072804
304665762,-0.9581262,-0.18058705,nan,0.0,0.0,-0.09552556,0.0,0.0,0.14045422,nan,nan,-8.0,nan,-0.34018242
304865653,-0.9581262,-0.18058705,nan,0.0,0.0,-0.094292596,0.0,0.0,0.0,nan,nan,0.0,nan,-1.3506551
305065660,-0.9581262,-0.18058705,nan,0.0,0.0,-0.097101614,0.0,0.0,0.0,nan,nan,0.0,nan,-0.39771068
305265535,-0.9581262,-0.18058705,nan,0.0,0.0,-0.097101614,0.0,0.0,0.0,nan,nan,0.0,nan,-0.042760026
305465466,-0.9581262,-0.18058705,nan,0.0,0.0,-0.097101614,0.0,0.0,0.0,nan,nan,0.0,nan,-0.090944305
305665270,-0.9581262,-0.18058705,nan,0.0,0.0,-0.097101614,0.0,0.0,0.0,nan,nan,0.0,nan,-0.028256224
305865161,-0.9581262,-0.18058705,nan,0.0,0.0,-0.097101614,0.0,0.0,0.0,nan,nan,0.0,nan,-0.0030376054
306065041,-0.9581262,-0.18058705,nan,0.0,0.0,-0.097101614,0.0,0.0,0.0,nan,nan,0.0,nan,-0.00032657397
306264930,-0.9581262,-0.18058705,nan,0.0,0.0,-0.097101614,0.0,0.0,0.0,nan,nan,0.0,nan,-3.510877e-05
306464961,nan,nan,nan,0.38454193,-0.6460766,-0.097101614,-1.0090797,0.1635923,0.0,nan,nan,0.0,nan,-3.7693712e-06
306664754,nan,nan,nan,0.13299519,-0.69975114,-0.097101614,-0.8804492,-0.3295768,0.0,nan,nan,0.0,nan,-4.055723e-07
306865422,nan,nan,nan,0.05780826,-0.62933093,-0.097101614,-0.10715714,1.0139009,0.0,nan,nan,0.0,-1.7842007,-4.326213e-08
307064838,nan,nan,nan,0.039471786,-0.42971045,-0.097101614,-0.087710686,0.9548644,0.0,nan,nan,0.0,-1.7842007,-4.6744515e-09
307264803,nan,nan,nan,-0.014316011,-0.4053496,-0.097101614,-0.51104784,-0.55057263,0.0,nan,nan,0.0,-1.7842007,-5.0206417e-10
307465330,nan,nan,nan,-0.044601575,-0.38412443,-0.097101614,0.08989319,0.7741917,0.0,nan,nan,0.0,-1.7842007,-5.3631002e-11
307664603,nan,nan,nan,-0.034048725,-0.2676136,-0.097101614,-0.04768291,0.10219045,0.0,nan,nan,0.0,-1.7842007,-5.800973e-12
307864480,nan,nan,nan,-0.079957396,-0.41912395,-0.097101614,-0.37622225,-1.4624383,0.0,nan,nan,0.0,-1.7842007,-6.239376e-13
308064696,nan,nan,nan,-0.13205111,-0.6369782,-0.097101614,-0.10189989,-0.4056002,0.0,nan,nan,0.0,-1.7842007,-6.69363e-14
308264347,nan,nan,nan,-0.15364805,-0.7302202,-0.097101614,-0.18101814,-0.8112854,0.0,nan,nan,0.0,-1.7842007,-7.201461e-15
308464121,nan,nan,nan,-0.15253642,-0.72068894,-0.097101614,0.15809461,0.7504903,0.0,nan,nan,0.0,-1.7842007,-7.7508983e-16
308664230,nan,nan,nan,-0.11397434,-0.5384945,-0.097101614,0.19287531,0.9112779,0.0,nan,nan,0.0,-1.7842007,-8.3133736e-17
308863962,nan,nan,nan,-0.07681486,-0.36292717,-0.097101614,0.17795952,0.84080535,0.0,nan,nan,0.0,-1.7842007,-8.950702e-18
309063829,nan,nan,nan,-0.04434653,-0.20952412,-0.097101614,0.14771372,0.6979032,0.0,nan,nan,0.0,-1.7842007,-9.623691e-19
309263780,nan,nan,nan,-0.019299038,-0.0911822,-0.097101614,0.105257265,0.4973092,0.0,nan,nan,0.0,-1.7842007,-1.033857e-19
309463599,nan,nan,nan,-0.003879048,-0.018327348,-0.097101614,0.052727923,0.24912374,0.0,nan,nan,0.0,-1.7842007,-1.1121262e-20
309663509,-1.2009524,0.44272444,nan,0.0,0.0,-0.097101614,0.0,0.0,0.0,nan,nan,0.0,-1.7842007,-1.1952865e-21
309863693,-1.2009524,0.44272444,nan,0.0,0.0,-0.097101614,0.0,0.0,0.0,nan,nan,0.0,-1.7842007,-1.2812338e-22
310063273,-1.2009524,0.44272444,nan,0.0,0.0,-0.097101614,0.0,0.0,0.0,nan,nan,0.0,-1.7842007,-1.3814122e-23
310263217,-1.2009524,0.44272444,nan,0.0,0.0,-0.097101614,0.0,0.0,0.0,nan,nan,0.0,-1.7842007,-1.4841733e-24
310463181,-1.2009524,0.44272444,nan,0.0,0.0,-0.097101614,0.0,0.0,0.0,nan,nan,0.0,-1.7842007,-1.5942825e-25
310663018,nan,nan,nan,0.11330879,-0.025887452,-0.097101614,-0.24145426,-0.23905744,0.0,nan,nan,0.0,-1.7842007,-1.7147021e-26
310862926,nan,nan,nan,-0.040157653,-0.19548416,-0.097101614,-1.1147952,-1.0697705,0.0,nan,nan,0.0,-1.7842007,-1.8429726e-27
311062959,nan,nan,nan,-0.21802719,-0.41163462,-0.097101614,-0.5786036,-0.9033288,0.0,nan,nan,0.0,-1.7842007,-1.9789918e-28
311262880,nan,nan,nan,-0.23317459,-0.45116904,-0.097101614,0.24811953,0.4438377,0.0,nan,nan,0.0,-1.7842007,-2.1259074e-29
311462802,nan,nan,nan,-0.15390219,-0.29822236,-0.097101614,0.3890064,0.7537931,0.0,nan,nan,0.0,-1.7842007,-2.284491e-30
311662819,nan,nan,nan,-0.08413161,-0.16302517,-0.09869938,0.31178004,0.60414857,-0.13946792,nan,nan,8.0,-1.7842007,-2.4528507e-31
311862698,nan,nan,nan,-0.032693855,-0.063352175,-0.097101614,0.20965604,0.40625885,0.0,nan,nan,0.0,-1.7842007,-2.6378055e-32
312072343,nan,nan,nan,-0.0031850694,-0.0061718347,-0.0006052987,0.08617308,0.16698097,0.72262204,nan,nan,-8.0,-1.7842007,-2.5829773e-33
312272243,-1.6774937,0.40540788,nan,0.0,0.0,0.05016097,0.0,0.0,0.3996236,nan,nan,-8.0,-1.7842007,-2.8283267e-34
312452248,-1.6774937,0.40540788,nan,0.0,0.0,0.06300589,0.0,0.0,0.0,nan,nan,0.0,-1.7842007,-3.8336229e-35
312652247,-1.6774937,0.40540788,nan,0.0,0.0,0.17293394,0.0,0.0,0.9354048,nan,nan,-8.0,-1.7842007,-4.1586445e-36
312852070,-1.6774937,0.40540788,nan,0.0,0.0,0.2276203,0.0,0.0,0.0,nan,nan,0.0,-1.7842007,-4.512368e-37
313052050,-1.6774937,0.40540788,nan,0.0,0.0,0.22756559,0.0,0.0,0.029588401,nan,nan,-8.0,-1.7842007,-4.8459715e-38
313251920,-1.6774937,0.40540788,nan,0.0,0.0,0.2527768,0.0,0.0,0.634432,nan,nan,8.0,-1.7842007,-5.260647e-39
313471887,-1.6774937,0.40540788,nan,0.0,0.0,0.38931996,0.0,0.0,-0.11116435,nan,nan,-8.0,-1.7842007,-4.52064e-40
313671888,-1.6774937,0.40540788,nan,0.0,0.0,0.38729855,0.0,0.0,0.0,nan,nan,0.0,-1.7842007,-4.854e-41
313871696,-1.6774937,0.40540788,nan,0.0,0.0,0.41286853,0.0,0.0,0.639624,nan,nan,8.0,-1.7842007,-5.223e-42
314051416,-1.6774937,0.40540788,nan,0.0,0.0,0.6263019,0.0,0.0,1.0858963,nan,nan,-8.0,-1.7842007,-7.03e-43
314251368,-1.6774937,0.40540788,nan,0.0,0.0,0.7,0.0,0.0,0.0,nan,nan,0.0,-1.7842007,-7.6e-44
314451426,-1.6774937,0.40540788,nan,0.0,0.0,0.62147236,0.0,0.0,-1.120912,nan,nan,-8.0,-1.7842007,-8e-45
314651449,-1.6774937,0.40540788,nan,0.0,0.0,0.2556101,0.0,0.0,-1.9712762,nan,nan,8.0,-1.7842007,-3e-45
314871193,-1.6774937,0.40540788,nan,0.0,0.0,-0.009044837,0.0,0.0,-0.43293902,nan,nan,8.0,-1.7842007,-3e-45
315071250,-1.6774937,0.40540788,-2.0836644,0.0,0.0,0.0,0.0,0.0,0.0,nan,nan,0.0,-1.7842007,-3e-45
315271026,-1.6774937,0.40540788,nan,0.0,0.0,0.003322941,0.0,0.0,0.479648,nan,nan,8.0,-1.7842007,-3e-45
315470982,-1.6774937,0.40540788,nan,0.0,0.0,0.10919686,0.0,0.0,0.0,nan,nan,0.0,-1.7842007,-3e-45
315670821,-1.6774937,0.40540788,nan,0.0,0.0,0.10919686,0.0,0.0,0.0,nan,nan,0.0,-1.7842007,-3e-45
315850904,-1.6774937,0.40540788,nan,0.0,0.0,0.110502675,0.0,0.0,0.06352927,nan,nan,-8.0,-1.7842007,-3e-45
316051164,nan,nan,nan,-0.071565226,-0.06835214,0.109196864,0.028476277,-0.46718654,0.0,nan,nan,0.0,-1.7842007,-3e-45
316270543,nan,nan,nan,-0.11692948,-0.30141494,0.109196864,-0.21751702,-0.8363664,0.0,nan,nan,0.0,-1.7842007,-3e-45
316470424,nan,nan,nan,-0.10750457,-0.3009544,0.109196864,0.25744572,0.69042814,0.0,nan,nan,0.0,-1.7842007,-3e-45
316670314,nan,nan,nan,-0.054117568,-0.15149981,0.109196864,0.23126541,0.6474176,0.0,nan,nan,0.0,-1.7842007,-3e-45
316870198,nan,nan,nan,-0.062230684,-0.034636702,0.109196864,-0.60276496,0.6428447,0.0,nan,nan,0.0,-1.7842007,-3e-45
317070197,nan,nan,nan,-0.19121973,0.057719387,0.109196864,-0.091063395,0.16995996,0.0,nan,nan,0.0,-1.7842007,-3e-45
317270076,nan,nan,nan,-0.10110743,0.03383684,0.109196864,0.52105975,-0.17437905,0.0,nan,nan,0.0,-1.7842007,-3e-45
317450247,nan,nan,nan,-0.02867743,0.009597253,0.109196864,0.3018958,-0.10103313,0.0,nan,nan,0.0,-1.7842007,-3e-45
317649966,-1.6800236,0.17957568,nan,0.0,0.0,0.109196864,0.0,0.0,0.0,nan,nan,0.0,-1.7842007,-3e-45
317869851,-1.6800236,0.17957568,nan,0.0,0.0,0.109196864,0.0,0.0,0.0,nan,nan,0.0,-1.7842007,-3e-45
318069964,-1.6800236,0.17957568,nan,0.0,0.0,0.109196864,0.0,0.0,0.0,nan,nan,0.0,-1.7842007,-3e-45
318269864,-1.6800236,0.17957568,nan,0.0,0.0,0.109196864,0.0,0.0,0.0,nan,nan,0.0,-1.7842007,-3e-45
318469618,-1.6800236,0.17957568,nan,0.0,0.0,0.109196864,0.0,0.0,0.0,nan,nan,0.0,-1.7842007,-3e-45
318669628,-1.6800236,0.17957568,nan,0.0,0.0,0.109196864,0.0,0.0,0.0,nan,nan,0.0,-1.7842007,-3e-45
318869433,-1.6800236,0.17957568,nan,0.0,0.0,0.109196864,0.0,0.0,0.0,nan,nan,0.0,-1.7842007,-3e-45
319069449,-1.6800236,0.17957568,nan,0.0,0.0,0.109196864,0.0,0.0,0.0,nan,nan,0.0,-1.7842007,-3e-45
319269416,-1.6800236,0.17957568,nan,0.0,0.0,0.109196864,0.0,0.0,0.0,nan,nan,0.0,-1.7842007,-3e-45
319469141,-1.6800236,0.17957568,nan,0.0,0.0,0.109196864,0.0,0.0,0.0,nan,nan,0.0,-1.7842007,-3e-45
319669137,-1.6800236,0.17957568,nan,0.0,0.0,0.109196864,0.0,0.0,0.0,nan,nan,0.0,-1.7842007,-3e-45
319869058,-1.6800236,0.17957568,nan,0.0,0.0,0.10919687,0.0,0.0,0.0,nan,nan,0.0,-1.7842007,-3e-45
320068941,nan,nan,nan,0.048119232,-0.0878349,0.108236186,-0.5982145,0.21938439,0.09736471,nan,nan,8.0,-1.7842007,-3e-45
320268693,nan,nan,nan,-0.17946629,-0.0038290787,0.109196864,-0.9096946,0.43933257,0.0,nan,nan,0.0,-1.7842007,-3e-45
320468595,nan,nan,nan,-0.3286265,0.056039486,0.109196864,-1.277236,0.37477395,0.0,nan,nan,0.0,-1.7842007,-3e-45
320668648,nan,nan,nan,-0.58219653,0.12503423,0.109196864,-0.6626567,0.19225915,0.0,nan,nan,0.0,-1.7842007,-3e-45
320868357,nan,nan,nan,-0.54411364,0.12139572,0.109196864,0.8883177,-0.19230458,0.0,nan,nan,0.0,-1.7842007,-3e-45
321068329,nan,nan,nan,-0.34433544,0.076835066,0.109196864,0.9251154,-0.20643042,0.0,nan,nan,0.0,-1.7842007,-3e-45
321268190,nan,nan,nan,-0.18197179,0.040605217,0.109196864,0.71303177,-0.15910603,0.0,nan,nan,0.0,-1.7842007,-3e-45
321468093,nan,nan,nan,-0.06669518,0.014882374,0.109196864,0.45903525,-0.1024292,0.0,nan,nan,0.0,-1.7842007,-3e-45
321668012,nan,nan,nan,-0.00622944,0.0013900383,0.109196864,0.16741985,-0.03735809,0.0,nan,nan,0.0,-1.7842007,-3e-45
321867914,-2.1871748,0.2597332,nan,0.0,0.0,0.109196864,0.0,0.0,0.0,nan,nan,0.0,-1.7842007,-3e-45
322067967,-2.1871748,0.2597332,nan,0.0,0.0,0.109196864,0.0,0.0,0.0,nan,nan,0.0,-1.7842007,-3e-45
322267773,-2.1871748,0.2597332,nan,0.0,0.0,0.109196864,0.0,0.0,0.0,nan,nan,0.0,-1.7842007,-3e-45
322467626,-2.1871748,0.2597332,nan,0.0,0.0,0.109196864,0.0,0.0,0.0,nan,nan,0.0,-1.7842007,-3e-45
322667585,-2.1871748,0.2597332,nan,0.0,0.0,0.109196864,0.0,0.0,0.0,nan,nan,0.0,-1.7842007,-3e-45
322867565,-2.1871748,0.2597332,nan,0.0,0.0,0.109196864,0.0,0.0,0.0,nan,nan,0.0,-1.7842007,-3e-45
323067413,-2.1871748,0.2597332,nan,0.0,0.0,0.109196864,0.0,0.0,0.0,nan,nan,0.0,-1.7842007,-3e-45
323267473,-2.1871748,0.2597332,nan,0.0,0.0,0.110513054,0.0,0.0,0.062208727,nan,nan,-8.0,-1.7842007,-3e-45
323467309,-2.1871748,0.2597332,nan,0.0,0.0,0.23992185,0.0,0.0,1.4375921,nan,nan,8.0,-1.7842007,-3e-45
323667635,-2.1871748,0.2597332,nan,0.0,0.0,0.54520434,0.0,0.0,0.90236884,nan,nan,-8.0,-1.7842007,-3e-45
323867130,-2.1871748,0.2597332,nan,0.0,0.0,0.59609616,0.0,0.0,0.0,nan,nan,0.0,-1.7842007,-3e-45
324066987,-2.1871748,0.2597332,nan,0.0,0.0,0.59609616,0.0,0.0,0.0,nan,nan,0.0,-1.7842007,-3e-45
324266933,-2.1871748,0.2597332,nan,0.0,0.0,0.5945175,0.0,0.0,-0.158928,nan,nan,-8.0,-1.7842007,-3e-45
324466765,-2.1871748,0.2597332,nan,0.0,0.0,0.4030327,0.0,0.0,-1.75756,nan,nan,-8.0,-1.7842007,-3e-45
324666809,-2.1871748,0.2597332,nan,0.0,0.0,0.06373085,0.0,0.0,-1.009799,nan,nan,8.0,-1.7842007,-3e-45
324866710,-2.1871748,0.2597332,-0.38080925,0.0,0.0,0.0,0.0,0.0,0.0,nan,nan,0.0,-1.7842007,-3e-45
325066486,-2.1871748,0.2597332,-0.38080925,0.0,0.0,0.0,0.0,0.0,0.0,nan,nan,0.0,-1.7842007,-3e-45
325266472,-2.1871748,0.2597332,-0.38080925,0.0,0.0,0.0,0.0,0.0,0.0,nan,nan,0.0,-1.7842007,-3e-45
325466540,-2.1871748,0.2597332,-0.38080925,0.0,0.0,0.0,0.0,0.0,0.0,nan,nan,0.0,-1.7842007,-3e-45
325666271,-2.1871748,0.2597332,-0.38080925,0.0,0.0,0.0,0.0,0.0,0.0,nan,nan,0.0,-1.7842007,-3e-45
325866152,-2.1871748,0.2597332,-0.38080925,0.0,0.0,0.0,0.0,0.0,0.0,nan,nan,0.0,-1.7842007,-3e-45
326066022,-2.1871748,0.2597332,-0.38080925,0.0,0.0,0.0,0.0,0.0,0.0,nan,nan,0.0,-1.7842007,-3e-45
326265935,-2.1871748,0.2597332,-0.38080925,0.0,0.0,0.0,0.0,0.0,0.0,nan,nan,0.0,-1.7842007,-3e-45
326465859,-2.1871748,0.2597332,-0.38080925,0.0,0.0,0.0,0.0,0.0,0.0,nan,nan,0.0,-1.7842007,-3e-45
326665676,-2.1871748,0.2597332,-0.38080925,0.0,0.0,0.0,0.0,0.0,0.0,nan,nan,0.0,-1.7842007,-3e-45
326865536,-2.1871748,0.2597332,-0.38080925,0.0,0.0,0.0,0.0,0.0,0.0,nan,nan,0.0,-1.7842007,-3e-45
327065501,-2.1871748,0.2597332,-0.38080925,0.0,0.0,0.0,0.0,0.0,0.0,nan,nan,0.0,-1.7842007,-3e-45
327265621,-2.1871748,0.2597332,-0.38080925,0.0,0.0,0.0,0.0,0.0,0.0,nan,nan,0.0,-1.7842007,-3e-45
327465520,-2.1871748,0.2597332,-0.38080925,0.0,0.0,0.0,0.0,0.0,0.0,nan,nan,0.0,-1.7842007,-3e-45
327665428,-2.1871748,0.2597332,-0.38080925,0.0,0.0,0.0,0.0,0.0,0.0,nan,nan,0.0,-1.7842007,-3e-45
327865332,-2.1871748,0.2597332,-0.38080925,0.0,0.0,0.0,0.0,0.0,0.0,nan,nan,0.0,-1.7842007,-3e-45
328065256,-2.1871748,0.2597332,-0.38080925,0.0,0.0,0.0,0.0,0.0,0.0,nan,nan,0.0,-1.7842007,-3e-45
328265079,-2.1871748,0.2597332,-0.38080925,0.0,0.0,0.0,0.0,0.0,0.0,nan,nan,0.0,-1.7842007,-3e-45
328464968,-2.1871748,0.2597332,-0.38080925,0.0,0.0,0.0,0.0,0.0,0.0,nan,nan,0.0,-1.7842007,-3e-45
328664954,-2.1871748,0.2597332,-0.38080925,0.0,0.0,0.0,0.0,0.0,0.0,nan,nan,0.0,-1.7842007,-3e-45
328864907,-2.1871748,0.2597332,-0.38080925,0.0,0.0,0.0,0.0,0.0,0.0,nan,nan,0.0,-1.7842007,-3e-45
329064818,-2.1871748,0.2597332,-0.38080925,0.0,0.0,0.0,0.0,0.0,0.0,nan,nan,0.0,-1.7842007,-3e-45
329264512,-2.1871748,0.2597332,-0.38080925,0.0,0.0,0.0,0.0,0.0,0.0,nan,nan,0.0,-1.7842007,-3e-45
329464482,-2.1871748,0.2597332,-0.38080925,0.0,0.0,0.0,0.0,0.0,0.0,nan,nan,0.0,-1.7842007,-3e-45
329664365,-2.1871748,0.2597332,-0.38080925,0.0,0.0,0.0,0.0,0.0,0.0,nan,nan,0.0,-1.7842007,-3e-45
329864439,-2.1871748,0.2597332,-0.38080925,0.0,0.0,0.0,0.0,0.0,0.0,nan,nan,0.0,-1.7842007,-3e-45
330064192,-2.1871748,0.2597332,-0.38080925,0.0,0.0,0.0,0.0,0.0,0.0,nan,nan,0.0,-1.7842007,-3e-45
330263993,-2.1871748,0.2597332,-0.38080925,0.0,0.0,0.0,0.0,0.0,0.0,nan,nan,0.0,-1.7842007,-3e-45
330463999,-2.1871748,0.2597332,-0.38080925,0.0,0.0,0.0,0.0,0.0,0.0,nan,nan,0.0,-1.7842007,-3e-45
330663799,-2.1871748,0.2597332,-0.38080925,0.0,0.0,0.0,0.0,0.0,0.0,nan,nan,0.0,-1.7842007,-3e-45
330863685,-2.1871748,0.2597332,-0.38080925,0.0,0.0,0.0,0.0,0.0,0.0,nan,nan,0.0,-1.7842007,-3e-45
331063695,-2.1871748,0.2597332,-0.38080925,0.0,0.0,0.0,0.0,0.0,0.0,nan,nan,0.0,-1.7842007,-3e-45
331263541,-2.1871748,0.2597332,-0.38080925,0.0,0.0,0.0,0.0,0.0,0.0,nan,nan,0.0,-1.7842007,-3e-45
331463488,-2.1871748,0.2597332,-0.38080925,0.0,0.0,0.0,0.0,0.0,0.0,nan,nan,0.0,-1.7842007,-3e-45
331663724,-2.1871748,0.2597332,-0.38080925,0.0,0.0,0.0,0.0,0.0,0.0,nan,nan,0.0,-1.7842007,-3e-45
331863379,-2.1871748,0.2597332,-0.38080925,0.0,0.0,0.0,0.0,0.0,0.0,nan,nan,0.0,-1.7842007,-3e-45
332063283,-2.1871748,0.2597332,-0.38080925,0.0,0.0,0.0,0.0,0.0,0.0,nan,nan,0.0,-1.7842007,-3e-45
332263156,-2.1871748,0.2597332,-0.38080925,0.0,0.0,0.0,0.0,0.0,0.0,nan,nan,0.0,-1.7842007,-3e-45
332462982,-2.1871748,0.2597332,-0.38080925,0.0,0.0,0.0,0.0,0.0,0.0,nan,nan,0.0,-1.7842007,-3e-45
332662942,-2.1871748,0.2597332,-0.38080925,0.0,0.0,0.0,0.0,0.0,0.0,nan,nan,0.0,-1.7842007,-3e-45
332862856,-2.1871748,0.2597332,-0.38080925,0.0,0.0,0.0,0.0,0.0,0.0,nan,nan,0.0,-1.7842007,-3e-45
333062721,-2.1871748,0.2597332,-0.38080925,0.0,0.0,0.0,0.0,0.0,0.0,nan,nan,0.0,-1.7842007,-3e-45
333262613,-2.1871748,0.2597332,-0.38080925,0.0,0.0,0.0,0.0,0.0,0.0,nan,nan,0.0,-1.7842007,-3e-45
333462712,-2.1871748,0.2597332,-0.38080925,0.0,0.0,0.0,0.0,0.0,0.0,nan,nan,0.0,-1.7842007,-3e-45
333662568,-2.1871748,0.2597332,-0.38080925,0.0,0.0,0.0,0.0,0.0,0.0,nan,nan,0.0,-1.7842007,-3e-45
333862488,-2.1871748,0.2597332,-0.38080925,0.0,0.0,0.0,0.0,0.0,0.0,nan,nan,0.0,-1.7842007,-1e-45
334052390,-2.1871748,0.2597332,-0.38080925,0.0,0.0,0.0,0.0,0.0,0.0,nan,nan,0.0,-1.7842007,-1e-45
334252107,-2.1871748,0.2597332,-0.38080925,0.0,0.0,0.0,0.0,0.0,0.0,nan,nan,0.0,-1.7842007,-1e-45
334472071,-2.1871748,0.2597332,-0.38080925,0.0,0.0,0.0,0.0,0.0,0.0,nan,nan,0.0,-1.7842007,-1e-45
334671957,-2.1871748,0.2597332,-0.38080925,0.0,0.0,0.0,0.0,0.0,0.0,nan,nan,0.0,-1.7842007,-1e-45
334872088,-2.1871748,0.2597332,-0.38080925,0.0,0.0,0.0,0.0,0.0,0.0,nan,nan,0.0,-1.7842007,-1e-45
335051837,-2.1871748,0.2597332,-0.38080925,0.0,0.0,0.0,0.0,0.0,0.0,nan,nan,0.0,-1.7842007,-1e-45
335252168,-2.1871748,0.2597332,-0.38080925,0.0,0.0,0.0,0.0,0.0,0.0,nan,nan,0.0,-1.7842007,-1e-45
335451736,-2.1871748,0.2597332,-0.38080925,0.0,0.0,0.0,0.0,0.0,0.0,nan,nan,0.0,-1.7842007,-1e-45
335651727,-2.1871748,0.2597332,-0.38080925,0.0,0.0,0.0,0.0,0.0,0.0,nan,nan,0.0,-1.7842007,-1e-45
335871537,-2.1871748,0.2597332,-0.38080925,0.0,0.0,0.0,0.0,0.0,0.0,nan,nan,0.0,-1.7842007,-1e-45
336071478,-2.1871748,0.2597332,-0.38080925,0.0,0.0,0.0,0.0,0.0,0.0,nan,nan,0.0,-1.7842007,-1e-45
336271327,-2.1871748,0.2597332,-0.38080925,0.0,0.0,0.0,0.0,0.0,0.0,nan,nan,0.0,-1.7842007,-1e-45
336471024,-2.1871748,0.2597332,-0.38080925,0.0,0.0,0.0,0.0,0.0,0.0,nan,nan,0.0,-1.7842007,-1e-45
336650995,-2.1871748,0.2597332,-0.38080925,0.0,0.0,0.0,0.0,0.0,0.0,nan,nan,0.0,-1.7842007,-1e-45
336850958,-2.1871748,0.2597332,-0.38080925,0.0,0.0,0.0,0.0,0.0,0.0,nan,nan,0.0,-1.7842007,-1e-45
337050794,-2.1871748,0.2597332,-0.38080925,0.0,0.0,0.0,0.0,0.0,0.0,nan,nan,0.0,-1.7842007,-1e-45
337270685,-2.1871748,0.2597332,-0.38080925,0.0,0.0,0.0,0.0,0.0,0.0,nan,nan,0.0,-1.7842007,-1e-45
337470826,-2.1871748,0.2597332,-0.38080925,0.0,0.0,0.0,0.0,0.0,0.0,nan,nan,0.0,-1.7842007,-1e-45
337670511,-2.1871748,0.2597332,-0.38080925,0.0,0.0,0.0,0.0,0.0,0.0,nan,nan,0.0,-1.7842007,-1e-45
337870384,-2.1871748,0.2597332,-0.38080925,0.0,0.0,0.0,0.0,0.0,0.0,nan,nan,0.0,-1.7842007,-1e-45
338070282,-2.1871748,0.2597332,-0.38080925,0.0,0.0,0.0,0.0,0.0,0.0,nan,nan,0.0,-1.7842007,-1e-45
338270258,-2.1871748,0.2597332,-0.38080925,0.0,0.0,0.0,0.0,0.0,0.0,nan,nan,0.0,-1.7842007,-1e-45
338450051,-2.1871748,0.2597332,-0.38080925,0.0,0.0,0.0,0.0,0.0,0.0,nan,nan,0.0,-1.7842007,-1e-45
338670100,-2.1871748,0.2597332,-0.38080925,0.0,0.0,0.0,0.0,0.0,0.0,nan,nan,0.0,-1.7842007,-1e-45
338870062,-2.1871748,0.2597332,-0.38080925,0.0,0.0,0.0,0.0,0.0,0.0,nan,nan,0.0,-1.7842007,-1e-45
339070010,-2.1871748,0.2597332,-0.38080925,0.0,0.0,0.0,0.0,0.0,0.0,nan,nan,0.0,-1.7842007,-1e-45
339269898,-2.1871748,0.2597332,-0.38080925,0.0,0.0,0.0,0.0,0.0,0.0,nan,nan,0.0,-1.7842007,-1e-45
339469816,-2.1871748,0.2597332,-0.38080925,0.0,0.0,0.0,0.0,0.0,0.0,nan,nan,0.0,-1.7842007,-1e-45
339669719,-2.1871748,0.2597332,-0.38080925,0.0,0.0,0.0,0.0,0.0,0.0,nan,nan,0.0,-1.7842007,-1e-45
339869613,-2.1871748,0.2597332,-0.38080925,0.0,0.0,0.0,0.0,0.0,0.0,nan,nan,0.0,-1.7842007,-1e-45
340069528,-2.1871748,0.2597332,-0.38080925,0.0,0.0,0.0,0.0,0.0,0.0,nan,nan,0.0,-1.7842007,-1e-45
340269318,-2.1871748,0.2597332,-0.38080925,0.0,0.0,0.0,0.0,0.0,0.0,nan,nan,0.0,-1.7842007,-1e-45
340469235,-2.1871748,0.2597332,-0.38080925,0.0,0.0,0.0,0.0,0.0,0.0,nan,nan,0.0,-1.7842007,-1e-45
340669029,-2.1871748,0.2597332,-0.38080925,0.0,0.0,0.0,0.0,0.0,0.0,nan,nan,0.0,-1.7842007,-1e-45
340868937,-2.1871748,0.2597332,-0.38080925,0.0,0.0,0.0,0.0,0.0,0.0,nan,nan,0.0,-1.7842007,-1e-45
341068996,-2.1871748,0.2597332,-0.38080925,0.0,0.0,0.0,0.0,0.0,0.0,nan,nan,0.0,-1.7842007,-1e-45
341268923,-2.1871748,0.2597332,-0.38080925,0.0,0.0,0.0,0.0,0.0,0.0,nan,nan,0.0,-1.7842007,-1e-45
341468720,-2.1871748,0.2597332,-0.38080925,0.0,0.0,0.0,0.0,0.0,0.0,nan,nan,0.0,-1.7842007,-1e-45
341668795,-2.1871748,0.2597332,-0.38080925,0.0,0.0,0.0,0.0,0.0,0.0,nan,nan,0.0,-1.7842007,-1e-45
341868486,-2.1871748,0.2597332,-0.38080925,0.0,0.0,0.0,0.0,0.0,0.0,nan,nan,0.0,-1.7842007,-1e-45
342068430,-2.1871748,0.2597332,-0.38080925,0.0,0.0,0.0,0.0,0.0,0.0,nan,nan,0.0,-1.7842007,-1e-45
342268426,-2.1871748,0.2597332,-0.38080925,0.0,0.0,0.0,0.0,0.0,0.0,nan,nan,0.0,-1.7842007,-1e-45
342468192,-2.1871748,0.2597332,-0.38080925,0.0,0.0,0.0,0.0,0.0,0.0,nan,nan,0.0,-1.7842007,-1e-45
342668011,-2.1871748,0.2597332,-0.38080925,0.0,0.0,0.0,0.0,0.0,0.0,nan,nan,0.0,-1.7842007,-1e-45
342868126,-2.1871748,0.2597332,-0.38080925,0.0,0.0,0.0,0.0,0.0,0.0,nan,nan,0.0,-1.7842007,-1e-45
343067812,-2.1871748,0.2597332,-0.38080925,0.0,0.0,0.0,0.0,0.0,0.0,nan,nan,0.0,-1.7842007,-1e-45
343267683,-2.1871748,0.2597332,-0.38080925,0.0,0.0,0.0,0.0,0.0,0.0,nan,nan,0.0,-1.7842007,-1e-45
343467575,-2.1871748,0.2597332,-0.38080925,0.0,0.0,0.0,0.0,0.0,0.0,nan,nan,0.0,-1.7842007,-1e-45
343667593,-2.1871748,0.2597332,-0.38080925,0.0,0.0,0.0,0.0,0.0,0.0,nan,nan,0.0,-1.7842007,-1e-45
343867660,-2.1871748,0.2597332,-0.38080925,0.0,0.0,0.0,0.0,0.0,0.0,nan,nan,0.0,-1.7842007,-1e-45
344067456,-2.1871748,0.2597332,-0.38080925,0.0,0.0,0.0,0.0,0.0,0.0,nan,nan,0.0,-1.7842007,-1e-45
344267349,-2.1871748,0.2597332,-0.38080925,0.0,0.0,0.0,0.0,0.0,0.0,nan,nan,0.0,-1.7842007,-1e-45
344467324,-2.1871748,0.2597332,-0.38080925,0.0,0.0,0.0,0.0,0.0,0.0,nan,nan,0.0,-1.7842007,-1e-45
344667235,-2.1871748,0.2597332,-0.38080925,0.0,0.0,0.0,0.0,0.0,0.0,nan,nan,0.0,-1.7842007,-1e-45
344867012,-2.1871748,0.2597332,-0.38080925,0.0,0.0,0.0,0.0,0.0,0.0,nan,nan,0.0,-1.7842007,-1e-45
345067047,-2.1871748,0.2597332,-0.38080925,0.0,0.0,0.0,0.0,0.0,0.0,nan,nan,0.0,-1.7842007,-1e-45
345266740,-2.1871748,0.2597332,-0.38080925,0.0,0.0,0.0,0.0,0.0,0.0,nan,nan,0.0,-1.7842007,-1e-45
345466672,-2.1871748,0.2597332,-0.38080925,0.0,0.0,0.0,0.0,0.0,0.0,nan,nan,0.0,-1.7842007,-1e-45
345666588,-2.1871748,0.2597332,-0.38080925,0.0,0.0,0.0,0.0,0.0,0.0,nan,nan,0.0,-1.7842007,-1e-45
345866567,-2.1871748,0.2597332,-0.38080925,0.0,0.0,0.0,0.0,0.0,0.0,nan,nan,0.0,-1.7842007,-1e-45
346066481,-2.1871748,0.2597332,-0.38080925,0.0,0.0,0.0,0.0,0.0,0.0,nan,nan,0.0,-1.7842007,-1e-45
346266339,-2.1871748,0.2597332,-0.38080925,0.0,0.0,0.0,0.0,0.0,0.0,nan,nan,0.0,-1.7842007,-1e-45
346466371,-2.1871748,0.2597332,-0.38080925,0.0,0.0,0.0,0.0,0.0,0.0,nan,nan,0.0,-1.7842007,-1e-45
346666275,-2.1871748,0.2597332,-0.38080925,0.0,0.0,0.0,0.0,0.0,0.0,nan,nan,0.0,-1.7842007,-1e-45
346866079,-2.1871748,0.2597332,-0.38080925,0.0,0.0,0.0,0.0,0.0,0.0,nan,nan,0.0,-1.7842007,-1e-45
347065877,-2.1871748,0.2597332,-0.38080925,0.0,0.0,0.0,0.0,0.0,0.0,nan,nan,0.0,-1.7842007,-1e-45
347265853,-2.1871748,0.2597332,nan,0.0,0.0,0.09538241,0.0,0.0,1.0311116,nan,nan,-8.0,-1.7842007,-1e-45
347465707,-2.1871748,0.2597332,nan,0.0,0.0,0.26955616,0.0,0.0,0.9967011,nan,nan,-8.0,-1.7842007,-1e-45
347665686,-2.1871748,0.2597332,nan,0.0,0.0,0.30891028,0.0,0.0,-0.6031149,nan,nan,-8.0,-1.7842007,-1e-45
347865775,-2.1871748,0.2597332,nan,0.0,0.0,0.24263565,0.0,0.0,-0.09754516,nan,nan,8.0,-1.7842007,-1e-45
348065544,-2.1871748,0.2597332,nan,0.0,0.0,0.09022142,0.0,0.0,-1.1425905,nan,nan,8.0,-1.7842007,-1e-45
348265734,-2.1871748,0.2597332,nan,0.0,0.0,0.0017795748,0.0,0.0,0.0,nan,nan,0.0,-1.7842007,-1e-45
348465439,-2.1871748,0.2597332,nan,0.0,0.0,0.0017795747,0.0,0.0,0.0,nan,nan,0.0,-1.7842007,-1e-45
348665299,-2.1871748,0.2597332,nan,0.0,0.0,0.0030089766,0.0,0.0,0.04726605,nan,nan,-8.0,-1.7842007,-1e-45
348865217,-2.1871748,0.2597332,nan,0.0,0.0,0.0031486065,0.0,0.0,0.0,nan,nan,0.0,-1.7842007,-1e-45
349064840,-2.1871748,0.2597332,nan,0.0,0.0,0.0017795749,0.0,0.0,0.0,nan,nan,0.0,-1.7842007,-1e-45
349264797,-2.1871748,0.2597332,nan,0.0,0.0,0.0017795749,0.0,0.0,0.0,nan,nan,0.0,-1.7842007,-1e-45
349464708,-2.1871748,0.2597332,nan,0.0,0.0,0.0031486065,0.0,0.0,0.0,nan,nan,0.0,-1.7842007,-1e-45
349664669,-2.1871748,0.2597332,nan,0.0,0.0,0.0017795749,0.0,0.0,0.0,nan,nan,0.0,-1.7842007,-1e-45
349864658,-2.1871748,0.2597332,nan,0.0,0.0,0.0030040178,0.0,0.0,0.04809803,nan,nan,-8.0,-1.7842007,-1e-45
350064569,-2.1871748,0.2597332,nan,0.0,0.0,0.0023852768,0.0,0.0,-0.098444074,nan,nan,8.0,-1.7842007,-1e-45
350264334,-2.1871748,0.2597332,nan,0.0,0.0,0.0031486065,0.0,0.0,0.0,nan,nan,0.0,-1.7842007,-1e-45
350464255,-2.1871748,0.2597332,nan,0.0,0.0,0.0031486065,0.0,0.0,0.0,nan,nan,0.0,-1.7842007,-1e-45
350664078,-2.1871748,0.2597332,nan,0.0,0.0,0.0017795748,0.0,0.0,0.0,nan,nan,0.0,-1.7842007,-1e-45
350864147,-2.1871748,0.2597332,nan,0.0,0.0,0.0031486065,0.0,0.0,0.0,nan,nan,0.0,-1.7842007,-1e-45
351063872,-2.1871748,0.2597332,nan,0.0,0.0,0.0017795749,0.0,0.0,0.0,nan,nan,0.0,-1.7842007,-1e-45
351263800,-2.1871748,0.2597332,nan,0.0,0.0,0.0031486063,0.0,0.0,0.0,nan,nan,0.0,-1.7842007,-1e-45
351463689,-2.1871748,0.2597332,nan,0.0,0.0,0.07472974,0.0,0.0,0.6727039,nan,nan,-8.0,-1.7842007,-1e-45
351663584,-2.1871748,0.2597332,nan,0.0,0.0,0.115459114,0.0,0.0,0.0,nan,nan,0.0,-1.7842007,-1e-45
351863671,-2.1871748,0.2597332,nan,0.0,0.0,0.115459114,0.0,0.0,0.0,nan,nan,0.0,-1.7842007,-1e-45
352063478,-2.1871748,0.2597332,nan,0.0,0.0,0.113885984,0.0,0.0,0.0,nan,nan,0.0,-1.7842007,-1e-45
352263322,-2.1871748,0.2597332,nan,0.0,0.0,0.09955215,0.0,0.0,-0.47889596,nan,nan,-8.0,-1.7842007,-1e-45
352463204,-2.1871748,0.2597332,0.034008324,0.0,0.0,-2.1684043e-19,0.0,0.0,0.0,nan,nan,0.0,-1.7842007,-1e-45
352663103,-2.1871748,0.2597332,0.034008324,0.0,0.0,0.0,0.0,0.0,0.0,nan,nan,0.0,-1.7842007,-1e-45
352862965,-2.1871748,0.2597332,0.034008324,0.0,0.0,0.0,0.0,0.0,0.0,nan,nan,0.0,-1.7842007,-1e-45
353063065,-2.1871748,0.2597332,0.034008324,0.0,0.0,0.0,0.0,0.0,0.0,nan,nan,0.0,-1.7842007,-1e-45
353262711,-2.1871748,0.2597332,0.034008324,0.0,0.0,0.0,0.0,0.0,0.0,nan,nan,0.0,-1.7842007,-1e-45
353462822,-2.1871748,0.2597332,0.034008324,0.0,0.0,0.0,0.0,0.0,0.0,nan,nan,0.0,-1.7842007,-1e-45
353662783,-2.1871748,0.2597332,0.034008324,0.0,0.0,0.0,0.0,0.0,0.0,nan,nan,0.0,-1.7842007,-1e-45
353862564,-2.1871748,0.2597332,0.034008324,0.0,0.0,0.0,0.0,0.0,0.0,nan,nan,0.0,-1.7842007,-1e-45
354062539,-2.1871748,0.2597332,0.034008324,0.0,0.0,0.0,0.0,0.0,0.0,nan,nan,0.0,-1.7842007,-1e-45
354272272,-2.1871748,0.2597332,0.034008324,0.0,0.0,0.0,0.0,0.0,0.0,nan,nan,0.0,-1.7842007,-1e-45
354452255,-2.1871748,0.2597332,0.034008324,0.0,0.0,0.0,0.0,0.0,0.0,nan,nan,0.0,-1.7842007,-1e-45
354652076,-2.1871748,0.2597332,0.034008324,0.0,0.0,0.0,0.0,0.0,0.0,nan,nan,0.0,-1.7842007,-1e-45
354851969,-2.1871748,0.2597332,0.034008324,0.0,0.0,0.0,0.0,0.0,0.0,nan,nan,0.0,-1.7842007,-1e-45
355051998,-2.1871748,0.2597332,0.034008324,0.0,0.0,0.0,0.0,0.0,0.0,nan,nan,0.0,-1.7842007,-1e-45
355251974,-2.1871748,0.2597332,0.034008324,0.0,0.0,0.0,0.0,0.0,0.0,nan,nan,0.0,-1.7842007,-1e-45
355471801,-2.1871748,0.2597332,0.034008324,0.0,0.0,0.0,0.0,0.0,0.0,nan,nan,0.0,-1.7842007,-1e-45
355671684,-2.1871748,0.2597332,0.034008324,0.0,0.0,0.0,0.0,0.0,0.0,nan,nan,0.0,-1.7842007,-1e-45
355871543,-2.1871748,0.2597332,0.034008324,0.0,0.0,0.0,0.0,0.0,0.0,nan,nan,0.0,-1.7842007,-1e-45
356071393,-2.1871748,0.2597332,0.034008324,0.0,0.0,0.0,0.0,0.0,0.0,nan,nan,0.0,-1.7842007,-1e-45
356251420,-2.1871748,0.2597332,0.034008324,0.0,0.0,0.0,0.0,0.0,0.0,nan,nan,0.0,-1.7842007,-1e-45
356451349,-2.1871748,0.2597332,0.034008324,0.0,0.0,0.0,0.0,0.0,0.0,nan,nan,0.0,-1.7842007,-1e-45
356651133,-2.1871748,0.2597332,0.034008324,0.0,0.0,0.0,0.0,0.0,0.0,nan,nan,0.0,-1.7842007,-1e-45
356870947,-2.1871748,0.2597332,0.034008324,0.0,0.0,0.0,0.0,0.0,0.0,nan,nan,0.0,-1.7842007,-1e-45
357070867,-2.1871748,0.2597332,0.034008324,0.0,0.0,0.0,0.0,0.0,0.0,nan,nan,0.0,-1.7842007,-1e-45
357270714,-2.1871748,0.2597332,0.034008324,0.0,0.0,0.0,0.0,0.0,0.0,nan,nan,0.0,-1.7842007,-1e-45
357470638,-2.1871748,0.2597332,0.034008324,0.0,0.0,0.0,0.0,0.0,0.0,nan,nan,0.0,-1.7842007,-1e-45
357670531,-2.1871748,0.2597332,0.034008324,0.0,0.0,0.0,0.0,0.0,0.0,nan,nan,0.0,-1.7842007,-1e-45
357790402,-2.1871748,0.2597332,0.034008324,0.0,0.0,0.0,0.0,0.0,0.0,nan,nan,0.0,-1.7842007,-1e-45
360461263,-3.1090577,1.0382315,0.052706603,0.0,0.0,0.0,0.0,0.0,0.0,0.0,0.0,0.0,0.0,0.0
365079193,-3.0576355,0.7625776,0.00594422,0.0,0.0,0.0,0.0,0.0,0.0,0.0,0.0,0.0,0.0,0.0
365080086,-3.1344075,0.993687,0.20594423,0.0,0.0,0.0,0.0,0.0,0.0,0.0,0.0,0.0,0.0,0.0
367617598,-3.5095816,0.6108694,0.1586554,0.0,0.0,0.0,0.0,0.0,0.0,0.0,0.0,0.0,0.0,0.0
368078556,-3.1915853,0.7978086,0.17136751,0.0,0.0,0.0,0.0,0.0,0.0,0.0,0.0,0.0,0.0,0.0
368079327,-3.4142356,0.82092285,0.3713675,0.0,0.0,0.0,0.0,0.0,0.0,0.0,0.0,0.0,0.0,0.0
369228792,-3.4484336,0.72495925,0.32638115,0.0,0.0,0.0,0.0,0.0,0.0,0.0,0.0,0.0,0.0,0.0
369230775,-3.6801302,0.61109126,0.32638115,0.0,0.0,0.0,0.0,0.0,0.0,0.0,0.0,0.0,0.0,0.0
369323454,-3.6801302,0.61109126,0.5366581,0.0,0.0,0.0,0.0,0.0,0.0,0.0,0.0,0.0,0.0,0.0
370696887,-3.6554775,0.68888533,0.4894184,0.0,0.0,0.0,0.0,0.0,0.0,0.0,0.0,0.0,0.0,0.0
370697345,-3.4603271,0.66888726,0.4894184,0.0,0.0,0.0,0.0,0.0,0.0,0.0,0.0,0.0,0.0,0.0
370724768,-3.4603271,0.66888726,0.6911922,0.0,0.0,0.0,0.0,0.0,0.0,0.0,0.0,0.0,0.0,0.0
371920150,-3.5289793,0.6599165,0.64370424,0.0,0.0,0.0,0.0,0.0,0.0,0.0,0.0,0.0,0.0,0.0
371921446,-3.3288202,0.41055292,0.64370424,0.0,0.0,0.0,0.0,0.0,0.0,0.0,0.0,0.0,0.0,0.0
373878601,-3.0636141,0.19763133,0.8588776,0.0,0.0,0.0,0.0,0.0,0.0,0.0,0.0,0.0,0.0,0.0
375783174,-3.5075977,0.58810246,0.8119023,0.0,0.0,0.0,0.0,0.0,0.0,0.0,0.0,0.0,0.0,0.0
376668343,-3.3191328,0.47195804,0.85187566,0.0,0.0,0.0,0.0,0.0,0.0,0.0,0.0,0.0,0.0,0.0
376669106,-3.2915041,0.71421206,1.0518757,0.0,0.0,0.0,0.0,0.0,0.0,0.0,0.0,0.0,0.0,0.0
377652921,-3.6189017,1.2807816,1.0116595,0.0,0.0,0.0,0.0,0.0,0.0,0.0,0.0,0.0,0.0,0.0
378040286,-3.436023,0.89077777,1.0479174,0.0,0.0,0.0,0.0,0.0,0.0,0.0,0.0,0.0,0.0,0.0
378041175,-3.3125074,1.0031073,1.2479174,0.0,0.0,0.0,0.0,0.0,0.0,0.0,0.0,0.0,0.0,0.0
378835251,-3.4336288,1.1653286,1.2075408,0.0,0.0,0.0,0.0,0.0,0.0,0.0,0.0,0.0,0.0,0.0
378837075,-3.3616087,1.1436362,1.2075408,0.0,0.0,0.0,0.0,0.0,0.0,0.0,0.0,0.0,0.0,0.0
378874224,-3.3616087,1.1436362,1.4075408,0.0,0.0,0.0,0.0,0.0,0.0,0.0,0.0,0.0,0.0,0.0
380299523,-3.3616087,1.1436362,1.357707,0.0,0.0,0.0,0.0,0.0,0.0,0.0,0.0,0.0,0.0,0.0
380320396,-3.3616087,1.1436362,1.5574489,0.0,0.0,0.0,0.0,0.0,0.0,0.0,0.0,0.0,0.0,0.0
381645370,-3.6502655,0.39345044,1.5145279,0.0,0.0,0.0,0.0,0.0,0.0,0.0,0.0,0.0,0.0,0.0
384019908,-3.6000254,0.49828067,1.5455028,0.0,0.0,0.0,0.0,0.0,0.0,0.0,0.0,0.0,0.0,0.0
384022155,-3.485442,0.30484182,1.7455028,0.0,0.0,0.0,0.0,0.0,0.0,0.0,0.0,0.0,0.0,0.0
385078980,-3.6141455,0.3824105,1.6997905,0.0,0.0,0.0,0.0,0.0,0.0,0.0,0.0,0.0,0.0,0.0
385079482,-3.4725013,0.43675634,1.6997905,0.0,0.0,0.0,0.0,0.0,0.0,0.0,0.0,0.0,0.0,0.0
385099325,-3.4725013,0.43675634,1.9024454,0.0,0.0,0.0,0.0,0.0,0.0,0.0,0.0,0.0,0.0,0.0
386241101,-3.4887419,0.3742692,1.8546603,0.0,0.0,0.0,0.0,0.0,0.0,0.0,0.0,0.0,0.0,0.0
386242018,-3.153823,0.5744432,1.8546603,0.0,0.0,0.0,0.0,0.0,0.0,0.0,0.0,0.0,0.0,0.0
387698863,-3.2845979,0.52984047,1.872318,0.0,0.0,0.0,0.0,0.0,0.0,0.0,0.0,0.0,0.0,0.0
387699562,-3.1914356,0.75478613,2.072318,0.0,0.0,0.0,0.0,0.0,0.0,0.0,0.0,0.0,0.0,0.0
390614823,-3.2928088,0.8217111,2.0225275,0.0,0.0,0.0,0.0,0.0,0.0,0.0,0.0,0.0,0.0,0.0
390615493,-3.4956632,0.8456392,2.0225275,0.0,0.0,0.0,0.0,0.0,0.0,0.0,0.0,0.0,0.0,0.0
390643720,-3.4956632,0.8456392,2.22237,0.0,0.0,0.0,0.0,0.0,0.0,0.0,0.0,0.0,0.0,0.0
392286263,-3.5985172,0.8020629,2.1734962,0.0,0.0,0.0,0.0,0.0,0.0,0.0,0.0,0.0,0.0,0.0
392301140,-3.5985172,0.8020629,2.3734963,0.0,0.0,0.0,0.0,0.0,0.0,0.0,0.0,0.0,0.0,0.0
393402716,-3.5965323,0.9136705,2.3270276,0.0,0.0,0.0,0.0,0.0,0.0,0.0,0.0,0.0,0.0,0.0
393404162,-3.539614,0.79864603,2.3270276,0.0,0.0,0.0,0.0,0.0,0.0,0.0,0.0,0.0,0.0,0.0
393422050,-3.539614,0.79864603,2.5270276,0.0,0.0,0.0,0.0,0.0,0.0,0.0,0.0,0.0,0.0,0.0
394659213,-3.549092,0.8964439,2.4810162,0.0,0.0,0.0,0.0,0.0,0.0,0.0,0.0,0.0,0.0,0.0
394661262,-3.539614,0.79864603,2.4810162,0.0,0.0,0.0,0.0,0.0,0.0,0.0,0.0,0.0,0.0,0.0
394683361,-3.539614,0.79864603,2.682726,0.0,0.0,0.0,0.0,0.0,0.0,0.0,0.0,0.0,0.0,0.0
395864144,-3.3061764,0.5490622,2.63535,0.0,0.0,0.0,0.0,0.0,0.0,0.0,0.0,0.0,0.0,0.0
396377020,-3.480705,0.73084,2.664112,0.0,0.0,0.0,0.0,0.0,0.0,0.0,0.0,0.0,0.0,0.0
396377504,-3.352004,0.52227205,2.8641121,0.0,0.0,0.0,0.0,0.0,0.0,0.0,0.0,0.0,0.0,0.0
397737975,-3.3469577,0.58580935,2.8145335,0.0,0.0,0.0,0.0,0.0,0.0,0.0,0.0,0.0,0.0,0.0
397738485,-3.1967177,0.46760082,2.8145335,0.0,0.0,0.0,0.0,0.0,0.0,0.0,0.0,0.0,0.0,0.0
397759241,-3.1967177,0.46760082,3.0145335,0.0,0.0,0.0,0.0,0.0,0.0,0.0,0.0,0.0,0.0,0.0
398957183,-3.171578,0.5442146,2.9721758,0.0,0.0,0.0,0.0,0.0,0.0,0.0,0.0,0.0,0.0,0.0
398976642,-3.2221844,0.45048103,2.9737682,0.0,0.0,0.0,0.0,0.0,0.0,0.0,0.0,0.0,0.0,0.0
398977073,-3.171578,0.5442146,3.1737683,0.0,0.0,0.0,0.0,0.0,0.0,0.0,0.0,0.0,0.0,0.0
400348063,-3.057071,0.44657898,3.1198654,0.07295029,0.039520014,0.041403163,0.0,0.0,0.0,0.0,0.0,0.0,-0.20000106,0.00014919731
400368275,-3.0556064,0.44737023,3.1207051,0.07213816,0.03882615,0.042215288,-0.080604,-0.049845576,0.080604,-4.0,0.0,4.0,-0.18417451,0.072025105
400547315,-3.0442276,0.45349723,3.133391,0.054551426,0.029403893,0.12082022,-0.10350637,-0.05535853,0.79708004,0.0,0.0,4.0,-0.043494776,0.48164186
400747569,-3.0354836,0.45822027,3.1788757,0.032409146,0.01757289,0.3604391,-0.116406605,-0.06214112,1.5975881,0.0,0.0,4.0,0.01801556,0.32264617
400947011,-3.0314245,0.46044263,3.2783213,0.007893271,0.0045024175,0.60964507,-0.12773933,-0.06802347,0.85019934,0.0,0.0,-4.0,0.01801556,0.124625094
401147044,-3.0324275,0.45996585,3.4114883,-0.017285945,-0.009318483,0.70043325,-0.05158987,-0.06954847,0.13012803,4.0,0.0,-4.0,0.01801556,0.048049092
401346857,-3.03565,0.458191,3.549993,-0.015090008,-0.008257154,0.7,0.0,0.0,0.0,0.0,0.0,0.0,0.01801556,0.01853802
401546745,-3.0384336,0.45666775,3.6882968,-0.013190889,-0.0072179846,0.7,0.0,0.0,0.0,0.0,0.0,0.0,0.01801556,0.0071508903
401746557,-3.0408628,0.45533904,3.8263512,-0.01153134,-0.006310188,0.7,0.0,0.0,0.0,0.0,0.0,0.0,0.01801556,0.0027593945
401946471,-3.0429833,0.4541784,3.964303,-0.01008315,-0.00551777,0.7,0.0,0.0,0.0,0.0,0.0,0.0,0.01801556,0.0010643608
402146371,-3.038288,0.48369065,3.2593617,-0.00028658076,-0.0008020508,0.7,-0.015885964,-0.08010247,0.0,0.0,-4.0,0.0,0.04395069,0.0
402346198,-3.0383701,0.48241404,3.2579086,-0.0003179165,-0.00080332713,0.7,-0.017850175,-0.08016618,0.0,0.0,-4.0,0.0,0.044640318,0.0
402546222,-3.03839,0.4790385,3.2595994,-0.00040949273,-0.0007912206,0.7,-0.024298415,-0.07955982,0.0,0.0,-4.0,0.0,0.044804797,0.0
402746498,-3.0418048,0.47763166,3.2639616,-0.0001339746,-0.0008166331,0.7,-0.0069269836,-0.08082738,0.0,0.0,-4.0,0.0,0.044736996,0.0
402945902,-3.0413928,0.47508278,3.2674103,-0.00023253859,-0.00079651823,0.7,-0.0126555115,-0.07982572,0.0,0.0,-4.0,0.0,0.045144275,0.0
403145799,-3.040574,0.47162482,3.2713692,-0.00047191672,-0.00079624006,0.7,-0.028874695,-0.07981178,0.0,0.0,-4.0,0.0,0.04527075,0.0
403345637,-3.0422158,0.4682131,3.275588,-0.00048017164,-0.00079528627,0.7,-0.029555231,-0.079763964,0.0,0.0,-4.0,0.0,0.04543042,0.0
403545685,-3.041487,0.46640477,3.2782867,-0.0006501889,-0.00080804346,0.7,-0.04486476,-0.08040117,0.0,0.0,-4.0,0.0,0.045472473,0.0
403745423,-3.0423958,0.46293783,3.2812424,-0.000765157,-0.0007994085,0.7,-0.06341711,-0.07997042,0.0,0.0,-4.0,0.0,0.045674264,0.0
403945319,-3.044143,0.45809028,3.2842658,-0.0007973392,-0.0007966055,0.7,-0.07986685,-0.0774441,0.0,-4.0,0.0,0.0,0.045865316,0.0
404050335,-3.0456734,0.4568791,3.288939,-0.0012670216,-0.0005771204,0.7,-0.10067856,-0.026387177,0.0,-4.0,0.0,0.0,0.06164743,-0.17336193
