timestamp,position[0],position[1],position[2],velocity[0],velocity[1],velocity[2],acceleration[0],acceleration[1],acceleration[2],jerk[0],jerk[1],jerk[2],yaw,yawspeed
185891970,nan,nan,nan,0.009424966,0.011364109,0.7,-0.17207156,-0.20747449,0.0,nan,nan,0.0,nan,0.0
185911910,nan,nan,nan,0.009793821,0.011504121,0.7,-0.17622764,-0.20700236,0.0,nan,nan,0.0,nan,0.0
186091870,nan,nan,nan,0.008648345,0.012153876,0.7,-0.15684327,-0.2204183,0.0,nan,nan,0.0,nan,0.0
186291728,nan,nan,nan,0.009657844,0.010342903,0.7,-0.18043038,-0.19322886,0.0,nan,nan,0.0,nan,0.0
186491626,nan,nan,nan,0.009074096,0.011061326,0.7,-0.16847248,-0.20536801,0.0,nan,nan,0.0,nan,0.0
186691585,nan,nan,nan,0.007326288,0.0123636965,0.7,-0.13572325,-0.22904384,0.0,nan,nan,0.0,nan,0.0
186891571,nan,nan,nan,0.010055554,0.008954984,0.69840014,-0.1934863,-0.17230943,-0.159992,nan,nan,-8.0,nan,0.0
187091371,nan,nan,nan,0.008690855,0.010236899,0.68242216,-0.16701096,-0.19672108,-0.157152,nan,nan,-8.0,nan,0.0
187291189,nan,nan,nan,0.009035919,0.00588765,0.66645116,-0.19765636,-0.12878951,-0.158528,nan,nan,-8.0,nan,0.0
187491148,nan,nan,nan,0.0060682073,0.007207152,0.6496858,-0.14407851,-0.17112064,-0.160168,nan,nan,-8.0,nan,0.0
187691102,nan,nan,nan,0.007502879,0.0052568503,0.6321691,-0.18086798,-0.12672414,-0.158904,nan,nan,-8.0,nan,0.0
187900974,-0.7404622,0.9484259,nan,0.0,0.0,0.5253187,0.0,0.0,-1.2748159,nan,nan,-8.0,nan,0.0
188100781,-0.7404622,0.9484259,nan,0.0,0.0,0.110915914,0.0,0.0,-2.8732562,nan,nan,-8.0,nan,0.0
188300659,-0.7404622,0.9484259,nan,0.0,0.0,-0.5968864,0.0,0.0,-3.630395,nan,nan,8.0,nan,0.0
188500649,-0.7404622,0.9484259,nan,0.0,0.0,-1.1629431,0.0,0.0,-2.0304832,nan,nan,8.0,nan,0.0
188700558,-0.7404622,0.9484259,nan,0.0,0.0,-1.6398498,0.0,0.0,-2.1271193,nan,nan,8.0,nan,0.0
188900441,-0.7404622,0.9484259,nan,0.0,0.0,-1.9130256,0.0,0.0,-0.5714688,nan,nan,8.0,nan,0.0
189100329,-0.7404622,0.9484259,nan,0.0,0.0,-1.9226396,0.0,0.0,0.0,nan,nan,0.0,nan,0.0
189300185,-0.7404622,0.9484259,nan,0.0,0.0,-1.9226396,0.0,0.0,0.0,nan,nan,0.0,nan,0.0
189500041,-0.7404622,0.9484259,nan,0.0,0.0,-1.9242351,0.0,0.0,-0.159776,nan,nan,-8.0,nan,0.0
189699961,-0.7404622,0.9484259,nan,0.0,0.0,-1.9226396,0.0,0.0,0.0,nan,nan,0.0,nan,0.0
189899817,-0.7404622,0.9484259,nan,0.0,0.0,-1.9226396,0.0,0.0,0.0,nan,nan,0.0,nan,0.0
190099778,-0.7404622,0.9484259,nan,0.0,0.0,-1.9226396,0.0,0.0,0.00026528537,nan,nan,-8.0,nan,0.0
190299690,-0.7404622,0.9484259,nan,0.0,0.0,-1.9226396,0.0,0.0,0.0,nan,nan,0.0,nan,0.0
190499604,-0.7404622,0.9484259,nan,0.0,0.0,-1.9226396,0.0,0.0,0.0,nan,nan,0.0,nan,0.0
190699627,-0.7404622,0.9484259,nan,0.0,0.0,-1.9226396,0.0,0.0,0.0,nan,nan,0.0,nan,0.0
190899374,-0.7404622,0.9484259,nan,0.0,0.0,-1.9226396,0.0,0.0,0.0,nan,nan,0.0,nan,0.0
191099257,-0.7404622,0.9484259,nan,0.0,0.0,-1.8684218,0.0,0.0,0.9585279,nan,nan,8.0,nan,0.0
191299353,-0.7404622,0.9484259,nan,0.0,0.0,-1.6765753,0.0,0.0,0.7702936,nan,nan,8.0,nan,0.0
191499037,-0.7404622,0.9484259,nan,0.0,0.0,-1.4422492,0.0,0.0,0.94392073,nan,nan,-8.0,nan,0.0
191698932,-0.7404622,0.9484259,nan,0.0,0.0,-1.1601926,0.0,0.0,2.1547394,nan,nan,8.0,nan,0.0
191898843,-0.7404622,0.9484259,nan,0.0,0.0,-0.65771174,0.0,0.0,2.176398,nan,nan,-8.0,nan,0.0
192098733,-0.7404622,0.9484259,nan,0.0,0.0,-0.37720895,0.0,0.0,0.6038139,nan,nan,-8.0,nan,-0.032125928
192298699,-0.7404622,0.9484259,nan,0.0,0.0,-0.3639097,0.0,0.0,-0.14984542,nan,nan,8.0,nan,-0.4453237
192498600,-0.7404622,0.9484259,nan,0.0,0.0,-0.3621349,0.0,0.0,-0.0012719929,nan,nan,-8.0,nan,-0.2137887
192698477,-0.7404622,0.9484259,nan,0.0,0.0,-0.36807078,0.0,0.0,-0.32007998,nan,nan,-8.0,nan,-0.022985606
192899047,-0.7404622,0.9484259,nan,0.0,0.0,-0.33683914,0.0,0.0,0.933198,nan,nan,8.0,nan,-0.0024542387
193098405,-0.7404622,0.9484259,nan,0.0,0.0,-0.15785803,0.0,0.0,0.23544669,nan,nan,-8.0,nan,-0.00026525586
193298254,-0.7404622,0.9484259,nan,0.0,0.0,-0.15439335,0.0,0.0,0.0,nan,nan,0.0,nan,-2.8537874e-05
193498792,-0.7404622,0.9484259,nan,0.0,0.0,-0.15732333,0.0,0.0,0.0,nan,nan,0.0,nan,-3.0468952e-06
193697960,-0.7404622,0.9484259,nan,0.0,0.0,-0.040435456,0.0,0.0,0.8043429,nan,nan,-8.0,nan,-3.2992443e-07
193897867,-0.7404622,0.9484259,-1.1844517,0.0,0.0,0.0,0.0,0.0,0.0,nan,nan,0.0,-1.095895,-3.5462328e-08
194098583,-0.7404622,0.9484259,-1.1844517,0.0,0.0,0.0,0.0,0.0,0.0,nan,nan,0.0,-1.095895,-3.781078e-09
194297613,-0.7404622,0.9484259,-1.1844517,0.0,0.0,0.0,0.0,0.0,0.0,nan,nan,0.0,-1.095895,-4.0999457e-10
194497687,-0.7404622,0.9484259,-1.1844517,0.0,0.0,0.0,0.0,0.0,0.0,nan,nan,0.0,-1.095895,-4.399671e-11
194697618,-0.7404622,0.9484259,nan,0.0,0.0,-0.08205603,0.0,0.0,-1.441512,nan,nan,-8.0,-1.095895,-4.7275348e-12
194897416,-0.7404622,0.9484259,nan,0.0,0.0,-0.26187915,0.0,0.0,-0.68458873,nan,nan,-8.0,-1.095895,-5.088327e-13
195097338,-0.7404622,0.9484259,nan,0.0,0.0,-0.4199348,0.0,0.0,-0.17758769,nan,nan,8.0,-1.095895,-5.4693358e-14
195297080,-0.7404622,0.9484259,nan,0.0,0.0,-0.40148443,0.0,0.0,0.60994613,nan,nan,8.0,-1.095895,-5.885061e-15
195496905,-0.7404622,0.9484259,nan,0.0,0.0,-0.2391555,0.0,0.0,0.44193882,nan,nan,-8.0,-1.095895,-6.33011e-16
195696800,-0.7404622,0.9484259,nan,0.0,0.0,-0.103913024,0.0,0.0,0.252917,nan,nan,-8.0,-1.095895,-6.8042296e-17
195896766,-0.7404622,0.9484259,nan,0.0,0.0,-0.09991509,0.0,0.0,0.0,nan,nan,0.0,-1.095895,-7.308879e-18
196096609,-0.7404622,0.9484259,nan,0.0,0.0,-0.09991509,0.0,0.0,0.0,nan,nan,0.0,-1.095895,-7.8639265e-19
196296430,-0.7404622,0.9484259,nan,0.0,0.0,-0.09991509,0.0,0.0,0.0,nan,nan,0.0,nan,-1.6289263
196496422,-0.7404622,0.9484259,nan,0.0,0.0,-0.09991509,0.0,0.0,0.0,nan,nan,0.0,nan,-2.4650192
196696397,-0.7404622,0.9484259,nan,0.0,0.0,-0.10273318,0.0,0.0,0.0,nan,nan,0.0,nan,-1.1223111
196896244,-0.7404622,0.9484259,nan,0.0,0.0,-0.10273318,0.0,0.0,0.0,nan,nan,0.0,nan,-0.12070374
197096183,-0.7404622,0.9484259,nan,0.0,0.0,-0.10553304,0.0,0.0,0.019176707,nan,nan,8.0,nan,-0.012969033
197296087,-0.7404622,0.9484259,nan,0.0,0.0,-0.10273318,0.0,0.0,0.0,nan,nan,0.0,nan,-0.0013944245
197495850,-0.7404622,0.9484259,nan,0.0,0.0,-0.10282065,0.0,0.0,-0.037409596,nan,nan,-8.0,nan,-0.00015005423
197695881,-0.7404622,0.9484259,nan,0.0,0.0,-0.17881604,0.0,0.0,-1.1007913,nan,nan,-8.0,nan,-1.6109163e-05
197895710,-0.7404622,0.9484259,nan,0.0,0.0,-0.5584802,0.0,0.0,-2.6993275,nan,nan,-8.0,nan,-1.7329895e-06
198095606,-0.7404622,0.9484259,nan,0.0,0.0,-1.2523699,0.0,0.0,-4.0,nan,nan,0.0,nan,-1.8629196e-07
198295590,-0.7404622,0.9484259,nan,0.0,0.0,-1.8923364,0.0,0.0,-2.4001122,nan,nan,8.0,-2.1236503,-2.0006906e-08
198495334,-0.7404622,0.9484259,nan,0.0,0.0,-2.2121534,0.0,0.0,-0.80216026,nan,nan,8.0,-2.1236503,-2.153855e-09
198695432,-0.7404622,0.9484259,nan,0.0,0.0,-2.212531,0.0,0.0,0.7983917,nan,nan,8.0,-2.1236503,-2.3114294e-10
198895394,-0.7404622,0.9484259,nan,0.0,0.0,-1.8928697,0.0,0.0,2.3983355,nan,nan,8.0,-2.1236503,-2.4822932e-11
199095779,-0.7404622,0.9484259,nan,0.0,0.0,-1.3144387,0.0,0.0,3.0,nan,nan,0.0,-2.1236503,-2.6561585e-12
199295009,-0.7404622,0.9484259,nan,0.0,0.0,-0.7166557,0.0,0.0,3.0,nan,nan,0.0,-2.1236503,-2.8734916e-13
199494900,-0.7404622,0.9484259,nan,0.0,0.0,-0.11698264,0.0,0.0,3.0,nan,nan,0.0,-2.1236503,-3.089295e-14
199694845,-0.7404622,0.9484259,nan,0.0,0.0,0.4578783,0.0,0.0,2.3678725,nan,nan,-8.0,-2.1236503,-3.319112e-15
199894714,-0.7404622,0.9484259,nan,0.0,0.0,0.7713513,0.0,0.0,0.7689285,nan,nan,-8.0,-2.1236503,-3.5686197e-16
200094494,-0.7404622,0.9484259,nan,0.0,0.0,0.76665694,0.0,0.0,-0.79665434,nan,nan,-8.0,-2.1236503,-3.840429e-17
200294430,-0.7404622,0.9484259,nan,0.0,0.0,0.44748184,0.0,0.0,-2.3961341,nan,nan,-8.0,-2.1236503,-4.126591e-18
200494299,-0.7404622,0.9484259,nan,0.0,0.0,0.07351387,0.0,0.0,-1.0845379,nan,nan,8.0,-2.1236503,-4.4368474e-19
200694274,-0.7404622,0.9484259,nan,0.0,0.0,0.016591871,0.0,0.0,0.51523817,nan,nan,8.0,-2.1236503,-4.765763e-20
200894265,-0.7404622,0.9484259,nan,0.0,0.0,0.27239472,0.0,0.0,1.636185,nan,nan,-8.0,-2.1236503,-5.1198162e-21
201094060,-0.7404622,0.9484259,nan,0.0,0.0,0.43962514,0.0,0.0,0.037625268,nan,nan,-8.0,-2.1236503,-5.5073225e-22
201293974,-0.7404622,0.9484259,nan,0.0,0.0,0.36289814,0.0,0.0,-0.048169702,nan,nan,8.0,-2.1236503,-5.9215295e-23
201493884,-0.7404622,0.9484259,nan,0.0,0.0,0.3564297,0.0,0.0,-0.31808,nan,nan,-8.0,-2.1236503,-6.361022e-24
201693812,-0.7404622,0.9484259,nan,0.0,0.0,0.2017058,0.0,0.0,-0.4539795,nan,nan,8.0,-2.1236503,-6.8349275e-25
201893610,-0.7404622,0.9484259,nan,0.0,0.0,0.18882471,0.0,0.0,0.0,nan,nan,0.0,-2.1236503,-7.3541885e-26
202093710,-0.7404622,0.9484259,nan,0.0,0.0,0.19068512,0.0,0.0,0.0,nan,nan,0.0,-2.1236503,-7.8945255e-27
202293479,-0.7404622,0.9484259,nan,0.0,0.0,0.19068512,0.0,0.0,0.0,nan,nan,0.0,-2.1236503,-8.490024e-28
202493373,-0.7404622,0.9484259,nan,0.0,0.0,0.19068512,0.0,0.0,0.0,nan,nan,0.0,-2.1236503,-9.1256044e-29
202693347,-0.7404622,0.9484259,nan,0.0,0.0,0.19068512,0.0,0.0,0.0,nan,nan,0.0,-2.1236503,-9.8052e-30
202893257,-0.7404622,0.9484259,nan,0.0,0.0,0.22086623,0.0,0.0,0.71600586,nan,nan,8.0,-2.1236503,-1.0537435e-30
203093229,-0.7404622,0.9484259,nan,0.0,0.0,0.42094362,0.0,0.0,0.5017866,nan,nan,-8.0,-2.1236503,-1.131438e-31
203293070,-0.7404622,0.9484259,nan,0.0,0.0,0.43668053,0.0,0.0,0.0,nan,nan,0.0,-2.1236503,-1.2168974e-32
203492838,-0.7404622,0.9484259,nan,0.0,0.0,0.43157464,0.0,0.0,-0.12108594,nan,nan,8.0,-2.1236503,-1.3096295e-33
203692836,-0.7404622,0.9484259,nan,0.0,0.0,0.43668053,0.0,0.0,0.0,nan,nan,0.0,-2.1236503,-1.4067422e-34
203892623,-0.7404622,0.9484259,nan,0.0,0.0,0.43668053,0.0,0.0,0.0,nan,nan,0.0,-2.1236503,-1.5133033e-35
204092459,-0.7404622,0.9484259,nan,0.0,0.0,0.43668056,0.0,0.0,0.0,nan,nan,0.0,-2.1236503,-1.6275748e-36
204292338,-0.7404622,0.9484259,nan,0.0,0.0,0.4366805,0.0,0.0,0.0,nan,nan,0.0,-2.1236503,-1.7497398e-37
204492438,-0.7404622,0.9484259,nan,0.0,0.0,0.4366805,0.0,0.0,0.0,nan,nan,0.0,-2.1236503,-1.8768818e-38
204692132,-0.7404622,0.9484259,nan,0.0,0.0,0.43668053,0.0,0.0,0.0,nan,nan,0.0,-2.1236503,-2.0229e-39
204892192,-0.7404622,0.9484259,nan,0.0,0.0,0.59282255,0.0,0.0,1.3095188,nan,nan,-8.0,-2.1236503,-2.16997e-40
205091987,-0.7404622,0.9484259,nan,0.0,0.0,0.69477576,0.0,0.0,-0.28911316,nan,nan,-8.0,-2.1236503,-2.3341e-41
205291857,-0.7404622,0.9484259,nan,0.0,0.0,0.47724965,0.0,0.0,-1.8878572,nan,nan,-8.0,-2.1236503,-2.51e-42
205491756,-0.7404622,0.9484259,nan,0.0,0.0,0.09696972,0.0,0.0,-1.2455987,nan,nan,8.0,-2.1236503,-2.7e-43
205691548,-0.7404622,0.9484259,-1.5466964,0.0,0.0,0.0,0.0,0.0,0.0,nan,nan,0.0,-2.1236503,-3e-44
205891997,nan,nan,-1.5466964,0.0863799,-0.44364753,0.0,-0.58681935,0.138612,0.0,nan,nan,0.0,-2.1236503,-3e-45
206091348,nan,nan,-1.5466964,-0.08338132,-0.49874735,0.0,-0.70803416,-0.27172583,0.0,nan,nan,0.0,-2.1236503,-3e-45
206291312,nan,nan,-1.5466964,-0.118676,-0.4132822,0.0,0.2788366,0.9710322,0.0,nan,nan,0.0,-2.1236503,-3e-45
206491355,nan,nan,-1.5466964,-0.0999605,-0.28865266,0.0,-0.22906095,0.0767964,0.0,nan,nan,0.0,-2.1236503,-3e-45
206691232,nan,nan,-1.5466964,-0.23701084,-0.4233107,0.0,-1.0121194,-1.3132215,0.0,nan,nan,0.0,-2.1236503,-3e-45
206901003,nan,nan,-1.5466964,-0.34375617,-0.5836579,0.0,-0.11856811,-0.13954912,0.0,nan,nan,0.0,-2.1236503,-1e-45
207100884,nan,nan,-1.5466964,-0.40082097,-0.6551296,0.0,-0.68436444,-0.90735805,0.0,nan,nan,0.0,-2.1236503,-1e-45
207300744,nan,nan,-1.5466964,-0.5750478,-0.8565975,0.0,-0.5626419,-0.57450706,0.0,nan,nan,0.0,-2.1236503,-1e-45
207500604,nan,nan,-1.5466964,-0.61199284,-0.83000684,0.0,-0.30663922,0.6964414,0.0,nan,nan,0.0,-2.1236503,-1e-45
207700479,nan,nan,-1.5466964,-0.7752747,-0.59547806,0.0,-0.691582,1.3353063,0.0,nan,nan,0.0,-2.1236503,-1e-45
207900381,nan,nan,-1.5466964,-1.0571874,-0.23870182,0.0,-1.7907249,1.9926534,0.0,nan,nan,0.0,-2.1236503,-1e-45
208100301,nan,nan,-1.5466964,-1.4526085,0.16146934,0.0,-2.169696,1.9717085,0.0,nan,nan,0.0,-2.1236503,-1e-45
208300188,nan,nan,-1.5466964,-1.7380718,0.46099916,0.0,-0.81989443,1.1147946,0.0,nan,nan,0.0,-2.1236503,-1e-45
208500166,nan,nan,-1.5466964,-1.7527004,0.5908323,0.0,0.53721535,0.2672405,0.0,nan,nan,0.0,-2.1236503,-1e-45
208699995,nan,nan,-1.5466964,-1.4981893,0.5482333,0.0,1.8653514,-0.6218168,0.0,nan,nan,0.0,-2.1236503,-1e-45
208899954,nan,nan,-1.5466964,-1.0825632,0.51266944,0.0,2.1850252,0.31414115,0.0,nan,nan,0.0,-2.1236503,-1e-45
209099866,nan,nan,-1.5466964,-0.784843,0.48992583,0.0,1.0041599,-0.6268309,0.0,nan,nan,0.0,-2.1236503,-1e-45
209299781,nan,nan,-1.5466964,-0.5276062,0.3297754,0.0,1.8158102,-1.1274236,0.0,nan,nan,0.0,-2.1236503,-1e-45
209499613,nan,nan,-1.5466964,-0.16142385,0.10248012,0.0,1.5527328,-0.96486574,0.0,nan,nan,0.0,-2.1236503,-1e-45
209700227,nan,nan,-1.5466964,0.24519494,-0.1501732,0.0,1.8196443,-1.1318337,0.0,nan,nan,0.0,-2.1236503,-1e-45
209899412,nan,nan,-1.5466964,0.45933437,-0.28353113,0.0,0.4657851,-0.29105663,0.0,nan,nan,0.0,-2.1236503,-1e-45
210099301,nan,nan,-1.5466964,0.40727544,-0.25162724,0.0,-0.7182734,0.4437713,0.0,nan,nan,0.0,-2.1236503,-1e-45
210299961,nan,nan,-1.5466964,0.26811004,-0.1656466,0.0,-0.6625116,0.4093199,0.0,nan,nan,0.0,-2.1236503,-1e-45
210499141,nan,nan,-1.5466964,0.28298387,-0.17473792,0.0,0.68482465,-0.42218804,0.0,nan,nan,0.0,-2.1236503,-1e-45
210699042,nan,nan,-1.5466964,0.37427038,-0.23101974,0.0,-0.1281576,0.07927293,0.0,nan,nan,0.0,-2.1236503,-1e-45
210899679,nan,nan,-1.5466964,0.2530603,-0.15619832,0.0,-0.6691371,0.4130166,0.0,nan,nan,0.0,-2.1236503,-1e-45
211098958,nan,nan,-1.5466964,0.18312475,-0.117426425,0.0,0.16608045,-0.16809249,0.0,nan,nan,0.0,-2.1236503,-1e-45
211298663,nan,nan,-1.5466964,0.21038371,-0.15232758,0.0,-0.34626383,0.21993317,0.0,nan,nan,0.0,-2.1236503,-1e-45
211498713,nan,nan,-1.5466964,0.10952251,-0.07944782,0.0,-0.45593452,0.33073574,0.0,nan,nan,0.0,-2.1236503,-1e-45
211698415,nan,nan,-1.5466964,-0.0017489567,-0.08316621,0.0,-0.8370489,-0.55603737,0.0,nan,nan,0.0,-2.1236503,-1e-45
211898297,nan,nan,-1.5466964,-0.2435016,-0.35339195,0.0,-1.4824858,-2.0174243,0.0,nan,nan,0.0,-2.1236503,-1e-45
212098362,nan,nan,-1.5466964,-0.5608364,-0.85883045,0.0,-1.3952589,-2.322329,0.0,nan,nan,0.0,-2.1236503,-1e-45
212297981,nan,nan,-1.5466964,-0.74764603,-1.1730028,0.0,-0.5594348,-0.9613305,0.0,nan,nan,0.0,-2.1236503,-1e-45
212497991,nan,nan,-1.5466964,-0.7674415,-1.2152693,0.0,0.277429,0.40245637,0.0,nan,nan,0.0,-2.1236503,-1e-45
212698056,nan,nan,-1.5466964,-0.6256321,-0.9931756,0.0,0.9246014,1.4677819,0.0,nan,nan,0.0,-2.1236503,-1e-45
212897775,nan,nan,-1.5466964,-0.44534513,-0.70636433,0.0,1.0844545,1.7334439,0.0,nan,nan,0.0,-2.1236503,-1e-45
213097865,nan,nan,-1.5466964,-0.13597158,-0.2095163,0.0,1.9245944,3.0959942,0.0,nan,nan,0.0,-2.1236503,-1e-45
213297748,nan,nan,-1.5466964,0.22200373,0.36306956,0.0,1.43181,2.2828922,0.0,nan,nan,0.0,-2.1236503,-1e-45
213497671,nan,nan,-1.5466964,0.41517928,0.6703396,0.0,0.5844394,0.92566526,0.0,nan,nan,0.0,-2.1236503,-1e-45
213697435,nan,nan,-1.5466964,0.4390749,0.706219,0.0,-0.2598506,-0.43120897,0.0,nan,nan,0.0,-2.1236503,-1e-45
213897415,nan,nan,-1.5466964,0.30030522,0.48072195,0.0,-0.86946183,-1.4004682,0.0,nan,nan,0.0,-2.1236503,-1e-45
214097285,nan,nan,-1.5466964,0.19583139,0.31313837,0.0,-0.49211252,-0.7891959,0.0,nan,nan,0.0,-2.1236503,-1e-45
214297183,nan,nan,-1.5466964,0.016135927,0.023563836,0.0,-1.2558856,-2.0248518,0.0,nan,nan,0.0,-2.1236503,-1e-45
214496938,nan,nan,-1.5466964,-0.14391577,-0.23377301,0.0,-0.4195663,-0.6777506,0.0,nan,nan,0.0,-2.1236503,-1e-45
214696987,nan,nan,-1.5466964,-0.13829446,-0.22447023,0.0,0.30379683,0.49310252,0.0,nan,nan,0.0,-2.1236503,-1e-45
214896782,nan,nan,-1.5466964,-0.080462694,-0.1306016,0.0,0.27111185,0.4400504,0.0,nan,nan,0.0,-2.1236503,-1e-45
215096643,nan,nan,-1.5466964,-0.033662364,-0.05463847,0.0,0.19815107,0.3216254,0.0,nan,nan,0.0,-2.1236503,-1e-45
215296495,nan,nan,-1.5466964,-0.005159123,-0.0083739385,0.0,0.09201446,0.14935164,0.0,nan,nan,0.0,-2.1236503,-1e-45
215496434,-3.4524891,-0.01592538,-1.5466964,0.0,0.0,0.0,0.0,0.0,0.0,nan,nan,0.0,-2.1236503,-1e-45
215696301,-3.4524891,-0.01592538,-1.5466964,0.0,0.0,0.0,0.0,0.0,0.0,nan,nan,0.0,-2.1236503,-1e-45
215896163,-3.4524891,-0.01592538,-1.5466964,0.0,0.0,0.0,0.0,0.0,0.0,nan,nan,0.0,-2.1236503,-1e-45
216096091,-3.4524891,-0.01592538,-1.5466964,0.0,0.0,0.0,0.0,0.0,0.0,nan,nan,0.0,-2.1236503,-1e-45
216296047,-3.4524891,-0.01592538,-1.5466964,0.0,0.0,0.0,0.0,0.0,0.0,nan,nan,0.0,-2.1236503,-1e-45
216496043,-3.4524891,-0.01592538,-1.5466964,0.0,0.0,0.0,0.0,0.0,0.0,nan,nan,0.0,-2.1236503,-1e-45
216695779,-3.4524891,-0.01592538,-1.5466964,0.0,0.0,0.0,0.0,0.0,0.0,nan,nan,0.0,-2.1236503,-1e-45
216895665,nan,nan,-1.5466964,-0.07655744,-0.02549966,0.0,-0.18736026,-0.9935669,0.0,nan,nan,0.0,-2.1236503,-1e-45
217095702,nan,nan,-1.5466964,-0.050319646,-0.06355684,0.0,0.29735842,0.3755822,0.0,nan,nan,0.0,-2.1236503,-1e-45
217295455,nan,nan,-1.5466964,-0.008156653,-0.010302358,0.0,0.13619734,0.17202568,0.0,nan,nan,0.0,-2.1236503,-1e-45
217495453,-3.354583,-0.13126399,-1.5466964,0.0,0.0,0.0,0.0,0.0,0.0,nan,nan,0.0,-2.1236503,-1e-45
217695353,-3.354583,-0.13126399,-1.5466964,0.0,0.0,0.0,0.0,0.0,0.0,nan,nan,0.0,-2.1236503,-1e-45
217895098,-3.354583,-0.13126399,-1.5466964,0.0,0.0,0.0,0.0,0.0,0.0,nan,nan,0.0,-2.1236503,-1e-45
218094990,-3.354583,-0.13126399,-1.5466964,0.0,0.0,0.0,0.0,0.0,0.0,nan,nan,0.0,-2.1236503,-1e-45
218294971,-3.354583,-0.13126399,-1.5466964,0.0,0.0,0.0,0.0,0.0,0.0,nan,nan,0.0,-2.1236503,-1e-45
218494659,-3.354583,-0.13126399,-1.5466964,0.0,0.0,0.0,0.0,0.0,0.0,nan,nan,0.0,-2.1236503,-1e-45
218694757,-3.354583,-0.13126399,-1.5466964,0.0,0.0,0.0,0.0,0.0,0.0,nan,nan,0.0,-2.1236503,-1e-45
218894627,-3.354583,-0.13126399,-1.5466964,0.0,0.0,0.0,0.0,0.0,0.0,nan,nan,0.0,-2.1236503,-1e-45
219094598,-3.354583,-0.13126399,-1.5466964,0.0,0.0,0.0,0.0,0.0,0.0,nan,nan,0.0,-2.1236503,-1e-45
219294514,-3.354583,-0.13126399,-1.5466964,0.0,0.0,0.0,0.0,0.0,0.0,nan,nan,0.0,-2.1236503,-1e-45
219494384,-3.354583,-0.13126399,-1.5466964,0.0,0.0,0.0,0.0,0.0,0.0,nan,nan,0.0,-2.1236503,-1e-45
219694194,-3.354583,-0.13126399,-1.5466964,0.0,0.0,0.0,0.0,0.0,0.0,nan,nan,0.0,-2.1236503,-1e-45
219894086,-3.354583,-0.13126399,-1.5466964,0.0,0.0,0.0,0.0,0.0,0.0,nan,nan,0.0,-2.1236503,-1e-45
220093914,-3.354583,-0.13126399,-1.5466964,0.0,0.0,0.0,0.0,0.0,0.0,nan,nan,0.0,-2.1236503,-1e-45
220293816,-3.354583,-0.13126399,-1.5466964,0.0,0.0,0.0,0.0,0.0,0.0,nan,nan,0.0,-2.1236503,-1e-45
220493615,-3.354583,-0.13126399,-1.5466964,0.0,0.0,0.0,0.0,0.0,0.0,nan,nan,0.0,-2.1236503,-1e-45
220693580,-3.354583,-0.13126399,-1.5466964,0.0,0.0,0.0,0.0,0.0,0.0,nan,nan,0.0,-2.1236503,-1e-45
220893539,-3.354583,-0.13126399,-1.5466964,0.0,0.0,0.0,0.0,0.0,0.0,nan,nan,0.0,-2.1236503,-1e-45
221093524,-3.354583,-0.13126399,-1.5466964,0.0,0.0,0.0,0.0,0.0,0.0,nan,nan,0.0,-2.1236503,-1e-45
221293254,-3.354583,-0.13126399,-1.5466964,0.0,0.0,0.0,0.0,0.0,0.0,nan,nan,0.0,-2.1236503,-1e-45
221493138,-3.354583,-0.13126399,-1.5466964,0.0,0.0,0.0,0.0,0.0,0.0,nan,nan,0.0,-2.1236503,-1e-45
221693067,-3.354583,-0.13126399,-1.5466964,0.0,0.0,0.0,0.0,0.0,0.0,nan,nan,0.0,-2.1236503,-1e-45
221893009,-3.354583,-0.13126399,-1.5466964,0.0,0.0,0.0,0.0,0.0,0.0,nan,nan,0.0,-2.1236503,-1e-45
222092865,-3.354583,-0.13126399,-1.5466964,0.0,0.0,0.0,0.0,0.0,0.0,nan,nan,0.0,-2.1236503,-1e-45
222292731,-3.354583,-0.13126399,-1.5466964,0.0,0.0,0.0,0.0,0.0,0.0,nan,nan,0.0,-2.1236503,-1e-45
222492598,-3.354583,-0.13126399,-1.5466964,0.0,0.0,0.0,0.0,0.0,0.0,nan,nan,0.0,-2.1236503,-1e-45
222692563,-3.354583,-0.13126399,-1.5466964,0.0,0.0,0.0,0.0,0.0,0.0,nan,nan,0.0,-2.1236503,-1e-45
222892537,-3.354583,-0.13126399,-1.5466964,0.0,0.0,0.0,0.0,0.0,0.0,nan,nan,0.0,-2.1236503,-1e-45
223092346,-3.354583,-0.13126399,-1.5466964,0.0,0.0,0.0,0.0,0.0,0.0,nan,nan,0.0,-2.1236503,-1e-45
223292592,-3.354583,-0.13126399,-1.5466964,0.0,0.0,0.0,0.0,0.0,0.0,nan,nan,0.0,-2.1236503,-1e-45
223492207,-3.354583,-0.13126399,-1.5466964,0.0,0.0,0.0,0.0,0.0,0.0,nan,nan,0.0,-2.1236503,-1e-45
223692090,-3.354583,-0.13126399,-1.5466964,0.0,0.0,0.0,0.0,0.0,0.0,nan,nan,0.0,-2.1236503,-1e-45
223891960,-3.354583,-0.13126399,-1.5466964,0.0,0.0,0.0,0.0,0.0,0.0,nan,nan,0.0,-2.1236503,-1e-45
224091865,-3.354583,-0.13126399,-1.5466964,0.0,0.0,0.0,0.0,0.0,0.0,nan,nan,0.0,-2.1236503,-1e-45
224291652,-3.354583,-0.13126399,-1.5466964,0.0,0.0,0.0,0.0,0.0,0.0,nan,nan,0.0,-2.1236503,-1e-45
224491581,-3.354583,-0.13126399,-1.5466964,0.0,0.0,0.0,0.0,0.0,0.0,nan,nan,0.0,-2.1236503,-1e-45
224691476,-3.354583,-0.13126399,-1.5466964,0.0,0.0,0.0,0.0,0.0,0.0,nan,nan,0.0,-2.1236503,-1e-45
224891353,-3.354583,-0.13126399,-1.5466964,0.0,0.0,0.0,0.0,0.0,0.0,nan,nan,0.0,-2.1236503,-1e-45
225091406,-3.354583,-0.13126399,-1.5466964,0.0,0.0,0.0,0.0,0.0,0.0,nan,nan,0.0,-2.1236503,-1e-45
225291096,-3.354583,-0.13126399,-1.5466964,0.0,0.0,0.0,0.0,0.0,0.0,nan,nan,0.0,-2.1236503,-1e-45
225501136,-3.354583,-0.13126399,-1.5466964,0.0,0.0,0.0,0.0,0.0,0.0,nan,nan,0.0,-2.1236503,-1e-45
225700911,-3.354583,-0.13126399,-1.5466964,0.0,0.0,0.0,0.0,0.0,0.0,nan,nan,0.0,-2.1236503,-1e-45
225900699,-3.354583,-0.13126399,-1.5466964,0.0,0.0,0.0,0.0,0.0,0.0,nan,nan,0.0,-2.1236503,-1e-45
226100651,-3.354583,-0.13126399,-1.5466964,0.0,0.0,0.0,0.0,0.0,0.0,nan,nan,0.0,-2.1236503,-1e-45
226300506,-3.354583,-0.13126399,-1.5466964,0.0,0.0,0.0,0.0,0.0,0.0,nan,nan,0.0,-2.1236503,-1e-45
226500451,-3.354583,-0.13126399,-1.5466964,0.0,0.0,0.0,0.0,0.0,0.0,nan,nan,0.0,-2.1236503,-1e-45
226700279,-3.354583,-0.13126399,-1.5466964,0.0,0.0,0.0,0.0,0.0,0.0,nan,nan,0.0,-2.1236503,-1e-45
226900196,-3.354583,-0.13126399,-1.5466964,0.0,0.0,0.0,0.0,0.0,0.0,nan,nan,0.0,-2.1236503,-1e-45
227100481,-3.354583,-0.13126399,-1.5466964,0.0,0.0,0.0,0.0,0.0,0.0,nan,nan,0.0,-2.1236503,-1e-45
227300027,-3.354583,-0.13126399,-1.5466964,0.0,0.0,0.0,0.0,0.0,0.0,nan,nan,0.0,-2.1236503,-1e-45
227499886,-3.354583,-0.13126399,-1.5466964,0.0,0.0,0.0,0.0,0.0,0.0,nan,nan,0.0,-2.1236503,-1e-45
227699877,-3.354583,-0.13126399,-1.5466964,0.0,0.0,0.0,0.0,0.0,0.0,nan,nan,0.0,-2.1236503,-1e-45
227899612,-3.354583,-0.13126399,-1.5466964,0.0,0.0,0.0,0.0,0.0,0.0,nan,nan,0.0,-2.1236503,-1e-45
228099518,-3.354583,-0.13126399,-1.5466964,0.0,0.0,0.0,0.0,0.0,0.0,nan,nan,0.0,-2.1236503,-1e-45
228299920,-3.354583,-0.13126399,-1.5466964,0.0,0.0,0.0,0.0,0.0,0.0,nan,nan,0.0,-2.1236503,-1e-45
228499228,-3.354583,-0.13126399,-1.5466964,0.0,0.0,0.0,0.0,0.0,0.0,nan,nan,0.0,-2.1236503,-1e-45
228699189,-3.354583,-0.13126399,-1.5466964,0.0,0.0,0.0,0.0,0.0,0.0,nan,nan,0.0,-2.1236503,-1e-45
228899252,-3.354583,-0.13126399,-1.5466964,0.0,0.0,0.0,0.0,0.0,0.0,nan,nan,0.0,-2.1236503,-1e-45
229099011,-3.354583,-0.13126399,-1.5466964,0.0,0.0,0.0,0.0,0.0,0.0,nan,nan,0.0,-2.1236503,-1e-45
229299096,-3.354583,-0.13126399,-1.5466964,0.0,0.0,0.0,0.0,0.0,0.0,nan,nan,0.0,-2.1236503,-1e-45
229498833,-3.354583,-0.13126399,-1.5466964,0.0,0.0,0.0,0.0,0.0,0.0,nan,nan,0.0,-2.1236503,-1e-45
229698786,-3.354583,-0.13126399,-1.5466964,0.0,0.0,0.0,0.0,0.0,0.0,nan,nan,0.0,-2.1236503,-1e-45
229898487,-3.354583,-0.13126399,-1.5466964,0.0,0.0,0.0,0.0,0.0,0.0,nan,nan,0.0,-2.1236503,-1e-45
230098354,-3.354583,-0.13126399,-1.5466964,0.0,0.0,0.0,0.0,0.0,0.0,nan,nan,0.0,-2.1236503,-1e-45
230298193,-3.354583,-0.13126399,-1.5466964,0.0,0.0,0.0,0.0,0.0,0.0,nan,nan,0.0,-2.1236503,-1e-45
230498139,-3.354583,-0.13126399,-1.5466964,0.0,0.0,0.0,0.0,0.0,0.0,nan,nan,0.0,-2.1236503,-1e-45
230697961,-3.354583,-0.13126399,-1.5466964,0.0,0.0,0.0,0.0,0.0,0.0,nan,nan,0.0,-2.1236503,-1e-45
230897951,-3.354583,-0.13126399,-1.5466964,0.0,0.0,0.0,0.0,0.0,0.0,nan,nan,0.0,-2.1236503,-1e-45
231097913,-3.354583,-0.13126399,-1.5466964,0.0,0.0,0.0,0.0,0.0,0.0,nan,nan,0.0,-2.1236503,-1e-45
231297971,-3.354583,-0.13126399,-1.5466964,0.0,0.0,0.0,0.0,0.0,0.0,nan,nan,0.0,-2.1236503,-1e-45
231498056,-3.354583,-0.13126399,-1.5466964,0.0,0.0,0.0,0.0,0.0,0.0,nan,nan,0.0,-2.1236503,-1e-45
231697700,-3.354583,-0.13126399,-1.5466964,0.0,0.0,0.0,0.0,0.0,0.0,nan,nan,0.0,-2.1236503,-1e-45
231897651,-3.354583,-0.13126399,-1.5466964,0.0,0.0,0.0,0.0,0.0,0.0,nan,nan,0.0,-2.1236503,-1e-45
232097331,-3.354583,-0.13126399,-1.5466964,0.0,0.0,0.0,0.0,0.0,0.0,nan,nan,0.0,-2.1236503,-1e-45
232297202,-3.354583,-0.13126399,-1.5466964,0.0,0.0,0.0,0.0,0.0,0.0,nan,nan,0.0,-2.1236503,-1e-45
232497011,-3.354583,-0.13126399,-1.5466964,0.0,0.0,0.0,0.0,0.0,0.0,nan,nan,0.0,-2.1236503,-1e-45
232696887,-3.354583,-0.13126399,-1.5466964,0.0,0.0,0.0,0.0,0.0,0.0,nan,nan,0.0,-2.1236503,-1e-45
232896904,-3.354583,-0.13126399,-1.5466964,0.0,0.0,0.0,0.0,0.0,0.0,nan,nan,0.0,-2.1236503,-1e-45
233096907,-3.354583,-0.13126399,-1.5466964,0.0,0.0,0.0,0.0,0.0,0.0,nan,nan,0.0,-2.1236503,-1e-45
233296789,-3.354583,-0.13126399,-1.5466964,0.0,0.0,0.0,0.0,0.0,0.0,nan,nan,0.0,-2.1236503,-1e-45
233496587,-3.354583,-0.13126399,-1.5466964,0.0,0.0,0.0,0.0,0.0,0.0,nan,nan,0.0,-2.1236503,-1e-45
233697002,-3.354583,-0.13126399,-1.5466964,0.0,0.0,0.0,0.0,0.0,0.0,nan,nan,0.0,-2.1236503,-1e-45
233896466,-3.354583,-0.13126399,-1.5466964,0.0,0.0,0.0,0.0,0.0,0.0,nan,nan,0.0,-2.1236503,-1e-45
234096190,-3.354583,-0.13126399,-1.5466964,0.0,0.0,0.0,0.0,0.0,0.0,nan,nan,0.0,-2.1236503,-1e-45
234296138,-3.354583,-0.13126399,-1.5466964,0.0,0.0,0.0,0.0,0.0,0.0,nan,nan,0.0,-2.1236503,-1e-45
234496140,-3.354583,-0.13126399,-1.5466964,0.0,0.0,0.0,0.0,0.0,0.0,nan,nan,0.0,-2.1236503,-1e-45
234695792,-3.354583,-0.13126399,-1.5466964,0.0,0.0,0.0,0.0,0.0,0.0,nan,nan,0.0,-2.1236503,-1e-45
234895693,-3.354583,-0.13126399,-1.5466964,0.0,0.0,0.0,0.0,0.0,0.0,nan,nan,0.0,-2.1236503,-1e-45
235095758,-3.354583,-0.13126399,-1.5466964,0.0,0.0,0.0,0.0,0.0,0.0,nan,nan,0.0,-2.1236503,-1e-45
235295578,-3.354583,-0.13126399,-1.5466964,0.0,0.0,0.0,0.0,0.0,0.0,nan,nan,0.0,-2.1236503,-1e-45
235495672,-3.354583,-0.13126399,-1.5466964,0.0,0.0,0.0,0.0,0.0,0.0,nan,nan,0.0,-2.1236503,-1e-45
235695494,-3.354583,-0.13126399,-1.5466964,0.0,0.0,0.0,0.0,0.0,0.0,nan,nan,0.0,-2.1236503,-1e-45
235895181,-3.354583,-0.13126399,-1.5466964,0.0,0.0,0.0,0.0,0.0,0.0,nan,nan,0.0,-2.1236503,-1e-45
236094986,-3.354583,-0.13126399,-1.5466964,0.0,0.0,0.0,0.0,0.0,0.0,nan,nan,0.0,-2.1236503,-1e-45
236295050,-3.354583,-0.13126399,-1.5466964,0.0,0.0,0.0,0.0,0.0,0.0,nan,nan,0.0,-2.1236503,-1e-45
236454874,-3.354583,-0.13126399,-1.5466964,0.0,0.0,0.0,0.0,0.0,0.0,nan,nan,0.0,-2.1236503,-1e-45
237611679,-3.333931,-0.043024,-1.5709109,0.0,0.0,0.0,0.0,0.0,0.0,0.0,0.0,0.0,0.0,0.0
237612938,-3.9895895,0.72493756,-1.5709109,0.0,0.0,0.0,0.0,0.0,0.0,0.0,0.0,0.0,0.0,0.0
242167247,-3.8812573,0.33292738,-1.5222383,0.0,0.0,0.0,0.0,0.0,0.0,0.0,0.0,0.0,0.0,0.0
242168034,-4.111549,0.42992535,-1.3222382,0.0,0.0,0.0,0.0,0.0,0.0,0.0,0.0,0.0,0.0,0.0
243405828,-3.9337244,0.24706003,-1.3703742,0.0,0.0,0.0,0.0,0.0,0.0,0.0,0.0,0.0,0.0,0.0
243406293,-4.3124094,0.21629934,-1.3703742,0.0,0.0,0.0,0.0,0.0,0.0,0.0,0.0,0.0,0.0,0.0
245370536,-4.5514297,-0.011986199,-1.1039213,0.0,0.0,0.0,0.0,0.0,0.0,0.0,0.0,0.0,0.0,0.0
246810102,-4.386814,0.21230127,-1.1505432,0.0,0.0,0.0,0.0,0.0,0.0,0.0,0.0,0.0,0.0,0.0
247368455,-4.6253595,-0.15459327,-1.1262506,0.0,0.0,0.0,0.0,0.0,0.0,0.0,0.0,0.0,0.0,0.0
247369605,-4.47582,0.009329335,-0.92625064,0.0,0.0,0.0,0.0,0.0,0.0,0.0,0.0,0.0,0.0,0.0
248690228,-4.51094,-0.028140394,-0.9741662,0.0,0.0,0.0,0.0,0.0,0.0,0.0,0.0,0.0,0.0,0.0
248690711,-3.9624808,0.38074324,-0.9741662,0.0,0.0,0.0,0.0,0.0,0.0,0.0,0.0,0.0,0.0,0.0
249415659,-4.0865855,0.07294373,-0.7807379,0.0,0.0,0.0,0.0,0.0,0.0,0.0,0.0,0.0,0.0,0.0
253035997,-4.292569,0.13550411,-0.82995415,0.0,0.0,0.0,0.0,0.0,0.0,0.0,0.0,0.0,0.0,0.0
253807179,-4.1647205,0.0022474853,-0.82016706,0.0,0.0,0.0,0.0,0.0,0.0,0.0,0.0,0.0,0.0,0.0
253807858,-4.301805,0.20267296,-0.6201671,0.0,0.0,0.0,0.0,0.0,0.0,0.0,0.0,0.0,0.0,0.0
254947272,-4.371438,0.1119606,-0.6668,0.0,0.0,0.0,0.0,0.0,0.0,0.0,0.0,0.0,0.0,0.0
254948445,-4.39426,0.41099137,-0.6668,0.0,0.0,0.0,0.0,0.0,0.0,0.0,0.0,0.0,0.0,0.0
255453001,-4.397286,0.1966366,-0.6505689,0.0,0.0,0.0,0.0,0.0,0.0,0.0,0.0,0.0,0.0,0.0
255454774,-4.295979,0.41805264,-0.4505689,0.0,0.0,0.0,0.0,0.0,0.0,0.0,0.0,0.0,0.0,0.0
256965939,-4.3883276,0.5110958,-0.4991643,0.0,0.0,0.0,0.0,0.0,0.0,0.0,0.0,0.0,0.0,0.0
256966648,-4.0690055,0.60151356,-0.4991643,0.0,0.0,0.0,0.0,0.0,0.0,0.0,0.0,0.0,0.0,0.0
262932531,-4.2351418,0.2685081,-0.29284832,0.0,0.0,0.0,0.0,0.0,0.0,0.0,0.0,0.0,0.0,0.0
264105953,-4.1475196,0.31423852,-0.33959648,0.0,0.0,0.0,0.0,0.0,0.0,0.0,0.0,0.0,0.0,0.0
264137817,-4.1475196,0.31423852,-0.13724841,0.0,0.0,0.0,0.0,0.0,0.0,0.0,0.0,0.0,0.0,0.0
265207797,-4.5966024,0.010336635,-0.18324225,0.0,0.0,0.0,0.0,0.0,0.0,0.0,0.0,0.0,0.0,0.0
265751737,-4.2941093,0.20995869,-0.14831772,0.0,0.0,0.0,0.0,0.0,0.0,0.0,0.0,0.0,0.0,0.0
265752789,-4.497487,0.08311748,0.051682275,0.0,0.0,0.0,0.0,0.0,0.0,0.0,0.0,0.0,0.0,0.0
267088995,-4.582743,0.04225236,0.004022682,0.0,0.0,0.0,0.0,0.0,0.0,0.0,0.0,0.0,0.0,0.0
267091347,-4.7427864,0.084225684,0.004022682,0.0,0.0,0.0,0.0,0.0,0.0,0.0,0.0,0.0,0.0,0.0
267123260,-4.7427864,0.084225684,0.20526683,0.0,0.0,0.0,0.0,0.0,0.0,0.0,0.0,0.0,0.0,0.0
268361857,-4.521303,0.27214223,0.15775874,0.0,0.0,0.0,0.0,0.0,0.0,0.0,0.0,0.0,0.0,0.0
269508298,-4.7303762,0.1445565,0.15594696,0.0,0.0,0.0,0.0,0.0,0.0,0.0,0.0,0.0,0.0,0.0
269512563,-4.521303,0.27214223,0.35594696,0.0,0.0,0.0,0.0,0.0,0.0,0.0,0.0,0.0,0.0,0.0
271291783,-4.5472803,0.30098453,0.3076841,0.0,0.0,0.0,0.0,0.0,0.0,0.0,0.0,0.0,0.0,0.0
271292252,-4.521303,0.27214223,0.3076841,0.0,0.0,0.0,0.0,0.0,0.0,0.0,0.0,0.0,0.0,0.0
271326167,-4.521303,0.27214223,0.50864446,0.0,0.0,0.0,0.0,0.0,0.0,0.0,0.0,0.0,0.0,0.0
273147980,-4.521303,0.27214223,0.4593011,0.0,0.0,0.0,0.0,0.0,0.0,0.0,0.0,0.0,0.0,0.0
273177936,-4.5180516,0.25793946,0.4593011,0.0,0.0,0.0,0.0,0.0,0.0,0.0,0.0,0.0,0.0,0.0
273179243,-4.521303,0.27214223,0.6593011,0.0,0.0,0.0,0.0,0.0,0.0,0.0,0.0,0.0,0.0,0.0
274828666,-4.5039268,0.34277296,0.6110784,0.0,0.0,0.0,0.0,0.0,0.0,0.0,0.0,0.0,0.0,0.0
274829229,-4.345538,0.4326866,0.6110784,0.0,0.0,0.0,0.0,0.0,0.0,0.0,0.0,0.0,0.0,0.0
274847998,-4.345538,0.4326866,0.81250197,0.0,0.0,0.0,0.0,0.0,0.0,0.0,0.0,0.0,0.0,0.0
276366812,-4.3068223,0.41736582,0.77013034,0.0,0.0,0.0,0.0,0.0,0.0,0.0,0.0,0.0,0.0,0.0
276367241,-4.3438754,0.36169013,0.77013034,0.0,0.0,0.0,0.0,0.0,0.0,0.0,0.0,0.0,0.0,0.0
276387296,-4.3438754,0.36169013,0.9736425,0.0,0.0,0.0,0.0,0.0,0.0,0.0,0.0,0.0,0.0,0.0
278947381,-4.3938556,0.5520609,0.9404268,0.0,0.0,0.0,0.0,0.0,0.0,0.0,0.0,0.0,0.0,0.0
278947855,-4.1880503,0.52806634,0.9404268,0.0,0.0,0.0,0.0,0.0,0.0,0.0,0.0,0.0,0.0,0.0
278968259,-4.1880503,0.52806634,1.1428744,0.0,0.0,0.0,0.0,0.0,0.0,0.0,0.0,0.0,0.0,0.0
279786967,-4.2882986,0.46880507,1.0982094,0.0,0.0,0.0,0.0,0.0,0.0,0.0,0.0,0.0,0.0,0.0
279787437,-4.1880503,0.52806634,1.0982094,0.0,0.0,0.0,0.0,0.0,0.0,0.0,0.0,0.0,0.0,0.0
279805828,-4.1880503,0.52806634,1.3009498,0.0,0.0,0.0,0.0,0.0,0.0,0.0,0.0,0.0,0.0,0.0
281259838,-4.2652793,0.40301305,1.2531492,-0.0054530064,0.0013255291,0.011033426,0.0,0.0,0.0,0.0,0.0,0.0,-0.24534987,0.00016097362
281278990,-4.265383,0.40303817,1.253365,-0.0053304234,0.0012998906,0.011766718,0.006694436,-0.0013508797,0.076592,0.0,0.0,4.0,-0.23031107,0.06877087
281458887,-4.266228,0.4032492,1.2606018,-0.0040613394,0.0010409338,0.09025904,0.007418394,-0.001529932,0.7961186,0.0,0.0,4.0,-0.08902185,0.48133236
281658715,-4.266885,0.40342477,1.2998533,-0.00248054,0.0007097124,0.32921153,0.008306026,-0.0017629266,1.5954386,0.0,0.0,4.0,-0.035461623,0.30256337
281858798,-4.267207,0.4035297,1.3946805,-0.0007322686,0.00033133876,0.5931529,0.009059697,-0.0019956827,0.9245417,0.0,0.0,-4.0,-0.035461623,0.11662848
282058690,-4.267172,0.40355465,1.5245131,0.0010909415,-8.388491e-05,0.69769657,0.009283721,-0.002169259,0.1357485,0.0,0.0,-4.0,-0.035461623,0.04499729
282258433,-4.2669225,0.40352637,1.6610649,0.0012192229,-0.00014125872,0.7,0.0,0.0,0.0,0.0,0.0,0.0,-0.035461623,0.01736217
282458485,-4.2667017,0.40350077,1.7967421,0.0010681333,-0.00012366186,0.7,0.0,0.0,0.0,0.0,0.0,0.0,-0.035461623,0.0066922377
282658192,-4.26651,0.40347886,1.9310397,0.0009369074,-0.00010862896,0.7,0.0,0.0,0.0,0.0,0.0,0.0,-0.035461623,0.0025836132
282858041,-4.30725,0.31131974,1.3317182,0.0006915732,0.0007916866,0.7,0.051282942,0.07958324,0.0,0.0,4.0,0.0,-0.04262793,0.0
283058033,-4.30879,0.29332408,1.3363227,0.00060876936,0.0007977915,0.7,0.04100278,0.0798895,0.0,0.0,4.0,0.0,-0.042335138,0.0
283257826,-4.310485,0.2744374,1.345086,0.00054492994,0.00080418267,0.7,0.034667432,0.08020886,0.0,0.0,4.0,0.0,-0.04230247,0.0
283457653,-4.3109345,0.25458956,1.3536977,0.00044388403,0.00079885137,0.7,0.02665335,0.07994255,0.0,0.0,4.0,0.0,-0.04229159,0.0
283657787,-4.310858,0.23647484,1.3598725,0.0003316068,0.0008160999,0.7,0.018543899,0.08080099,0.0,0.0,4.0,0.0,-0.042112973,0.0
283857619,-4.311615,0.21954653,1.3661464,0.00027495206,0.00080705044,0.7,0.015107691,0.08035175,0.0,0.0,4.0,0.0,-0.042245336,0.0
284057397,-4.3118486,0.20339642,1.3727041,0.00020968782,0.00080494944,0.7,0.011239171,0.08024709,0.0,0.0,4.0,0.0,-0.04219586,0.0
284257305,-4.311652,0.18939747,1.3770524,0.00013018456,0.00079456955,0.7,0.0068234205,0.079728015,0.0,0.0,4.0,0.0,-0.04236278,0.0
284457163,-4.3110557,0.17584611,1.3804294,4.65794e-05,0.00079426024,0.7,0.002372682,0.079712495,0.0,0.0,4.0,0.0,-0.04243668,0.0
284657076,-4.3088264,0.16355722,1.3820181,0.0,0.0008041232,0.7,0.0,0.080205895,0.0,0.0,4.0,0.0,-0.04222004,0.0
284697395,-4.3081865,0.16132551,1.3822654,0.0,0.00081503234,0.7,0.0,0.08074812,0.0,0.0,4.0,0.0,-0.04212115,0.0
