timestamp,timestamp_sample,ref_timestamp,ref_lat,ref_lon,x,y,z,delta_xy[0],delta_xy[1],delta_z,vx,vy,vz,z_deriv,delta_vxy[0],delta_vxy[1],delta_vz,ax,ay,az,heading,delta_heading,ref_alt,dist_bottom,eph,epv,evh,evv,vxy_max,vz_max,hagl_min,hagl_max,xy_valid,z_valid,v_xy_valid,v_z_valid,xy_reset_counter,z_reset_counter,vxy_reset_counter,vz_reset_counter,heading_reset_counter,heading_good_for_control,xy_global,z_global,dist_bottom_valid,dist_bottom_sensor_bitfield,dead_reckoning
783515647,783514689,40177334,41.1790555,-8.6035789,-4.4479065,-2.8851905,17.461742,0.008950949,-0.038369656,-1.5162039,0.01328789,-0.0065484997,-0.031309143,-0.041945733,0.035676077,-0.046197742,-0.010773117,-0.02825741,-0.026956124,-0.0048212428,0.19825213,-0.004077792,129.98909,0.10508919,0.31659886,0.28861308,0.13450535,0.0978805,inf,inf,inf,inf,1,1,1,1,3,5,3,3,3,0,1,1,0,0,0
783524689,783523711,40177334,41.1790555,-8.6035789,-4.447528,-2.8853908,17.461414,0.008950949,-0.038369656,-1.5162039,0.013368388,-0.0068244687,-0.031377546,-0.041968368,0.035676077,-0.046197742,-0.010773117,-0.010759877,-0.016594216,-0.014638753,0.19825236,-0.004077792,129.98909,0.105148315,0.31735167,0.2892236,0.13488872,0.09806075,inf,inf,inf,inf,1,1,1,1,3,5,3,3,3,0,1,1,0,0,0
783624093,783622879,40177334,41.1790555,-8.6035789,-4.4437623,-2.8874385,17.457642,0.008950949,-0.038369656,-1.5162039,0.008851671,-0.006850738,-0.03237709,-0.042652663,0.035676077,-0.046197742,-0.010773117,-0.0023096497,-0.09557958,0.03220133,0.1980296,-0.004077792,129.98909,0.09948349,0.30909592,0.28436816,0.13064863,0.096356235,inf,inf,inf,inf,1,1,1,1,3,5,3,3,3,0,1,1,0,0,0
783723102,783722053,40177334,41.1790555,-8.6035789,-4.4394627,-2.8893075,17.452002,0.008950949,-0.038369656,-1.5162039,0.00012501028,-0.009357767,-0.03341671,-0.045054678,0.035676077,-0.046197742,-0.010773117,-0.05555302,0.18903346,-0.5120154,0.19895236,-0.004077792,129.98909,0.101867676,0.3171611,0.28908357,0.13486072,0.09802661,inf,inf,inf,inf,1,1,1,1,3,5,3,3,3,0,1,1,0,0,0
783822962,783821272,40177334,41.1790555,-8.6035789,-4.4368863,-2.8908813,17.44698,0.008950949,-0.038369656,-1.5162039,-0.007825678,-0.008366143,-0.03581392,-0.04792898,0.035676077,-0.046197742,-0.010773117,-0.18074182,0.41530618,0.2756324,0.19913882,-0.004077792,129.98909,0.100782394,0.30890432,0.28424916,0.13062847,0.096327886,inf,inf,inf,inf,1,1,1,1,3,5,3,3,3,0,1,1,0,0,0
783921310,783920400,40177334,41.1790555,-8.6035789,-4.434208,-2.8921673,17.44204,0.008950949,-0.038369656,-1.5162039,-0.018748133,-0.009128575,-0.03669042,-0.049108613,0.035676077,-0.046197742,-0.010773117,-0.16439706,1.0716927,-1.1202419,0.19933836,-0.004077792,129.98909,0.105363846,0.3169657,0.28896037,0.13481727,0.097997785,inf,inf,inf,inf,1,1,1,1,3,5,3,3,3,0,1,1,0,0,0
784020937,784019574,40177334,41.1790555,-8.6035789,-4.433507,-2.8936965,17.438162,0.008950949,-0.038369656,-1.5162039,-0.02878393,-0.018069042,-0.0375165,-0.049008954,0.035676077,-0.046197742,-0.010773117,-0.44382098,-0.45556757,0.28796676,0.19947588,-0.004077792,129.98909,0.10404968,0.3087325,0.28413346,0.13059993,0.09630237,inf,inf,inf,inf,1,1,1,1,3,5,3,3,3,0,1,1,0,0,0
784124096,784118747,40177334,41.1790555,-8.6035789,-4.4312553,-2.8956165,17.434023,0.008950949,-0.038369656,-1.5162039,-0.039959837,-0.011442158,-0.035539992,-0.04637071,0.035676077,-0.046197742,-0.010773117,-0.7073044,2.229786,-0.030117072,0.19961788,-0.004077792,129.98909,0.107328415,0.31678987,0.28884354,0.13478154,0.09797308,inf,inf,inf,inf,1,1,1,1,3,5,3,3,3,0,1,1,0,0,0
784219222,784217921,40177334,41.1790555,-8.6035789,-4.431229,-2.8977292,17.430458,0.008950949,-0.038369656,-1.5162039,-0.045904092,-0.01697043,-0.040372323,-0.050000817,0.035676077,-0.046197742,-0.010773117,-0.05838139,0.4649022,0.062961206,0.19986461,-0.004077792,129.98909,0.10439873,0.30857974,0.28402495,0.13058524,0.096281,inf,inf,inf,inf,1,1,1,1,3,5,3,3,3,0,1,1,0,0,0
784318132,784317140,40177334,41.1790555,-8.6035789,-4.43068,-2.900502,17.426052,0.008950949,-0.038369656,-1.5162039,-0.05229774,-0.015962154,-0.03898928,-0.04824429,0.035676077,-0.046197742,-0.010773117,0.9178863,1.9055115,-0.3508216,0.20007695,-0.004077792,129.98909,0.105688095,0.31663412,0.28872988,0.1347681,0.097951114,inf,inf,inf,inf,1,1,1,1,3,5,3,3,3,0,1,1,0,0,0
784426636,784425283,40177334,41.1790555,-8.6035789,-4.432082,-2.9032884,17.42121,0.008950949,-0.038369656,-1.5162039,-0.06976674,-0.01920511,-0.04151188,-0.0502608,0.035676077,-0.046197742,-0.010773117,-0.38915443,1.2435795,0.16321181,0.20018946,-0.004077792,129.98909,0.10369301,0.30915365,0.2845227,0.13093662,0.09644273,inf,inf,inf,inf,1,1,1,1,3,5,3,3,3,0,1,1,0,0,0
784520864,784515441,40177334,41.1790555,-8.6035789,-4.431102,-2.9045625,17.41687,0.008950949,-0.038369656,-1.5162039,-0.07481845,-0.02577495,-0.04279829,-0.051389087,0.035676077,-0.046197742,-0.010773117,0.11251115,0.042011097,-0.3935692,0.20042123,-0.004077792,129.98909,0.10689163,0.3164932,0.28863338,0.13476487,0.09793512,inf,inf,inf,inf,1,1,1,1,3,5,3,3,3,0,1,1,0,0,0
784624966,784623631,40177334,41.1790555,-8.6035789,-4.432606,-2.9063432,17.412603,0.008950949,-0.038369656,-1.5162039,-0.08488654,-0.027105607,-0.041923575,-0.049406342,0.035676077,-0.046197742,-0.010773117,-0.20946743,0.39281633,0.059324045,0.20071234,-0.004077792,129.98909,0.10385132,0.30897066,0.28440082,0.13086954,0.09640976,inf,inf,inf,inf,1,1,1,1,3,5,3,3,3,0,1,1,0,0,0
784714776,784713789,40177334,41.1790555,-8.6035789,-4.431341,-2.9072163,17.40823,0.008950949,-0.038369656,-1.5162039,-0.08744003,-0.025911601,-0.046812624,-0.054099344,0.035676077,-0.046197742,-0.010773117,-0.18895702,0.5890066,-1.0962106,0.20101166,-0.004077792,129.98909,0.10849762,0.31630328,0.2885059,0.13468812,0.09790076,inf,inf,inf,inf,1,1,1,1,3,5,3,3,3,0,1,1,0,0,0
784823421,784821978,40177334,41.1790555,-8.6035789,-4.433118,-2.9087212,17.404285,0.008950949,-0.038369656,-1.5162039,-0.09757475,-0.03304251,-0.043810908,-0.04949562,0.035676077,-0.046197742,-0.010773117,0.51776284,-1.9898515,0.60288084,0.20112643,-0.004077792,129.98909,0.106744766,0.308803,0.28428906,0.13082163,0.09638013,inf,inf,inf,inf,1,1,1,1,3,5,3,3,3,0,1,1,0,0,0
784922013,784921152,40177334,41.1790555,-8.6035789,-4.430649,-2.909662,17.400162,0.008950949,-0.038369656,-1.5162039,-0.10379714,-0.030003782,-0.047021355,-0.051948965,0.035676077,-0.046197742,-0.010773117,0.08613628,0.28458327,-0.3748495,0.20143585,-0.004077792,129.98909,0.108127594,0.31688565,0.28900027,0.13503215,0.09805169,inf,inf,inf,inf,1,1,1,1,3,5,3,3,3,0,1,1,0,0,0
785021443,785020326,40177334,41.1790555,-8.6035789,-4.4311023,-2.9112673,17.396393,0.008950949,-0.038369656,-1.5162039,-0.10883501,-0.030382963,-0.045201324,-0.048978124,0.035676077,-0.046197742,-0.010773117,1.1983469,0.76502085,0.66316676,0.2015845,-0.004077792,129.98909,0.10569954,0.30871463,0.2842151,0.13080204,0.096375324,inf,inf,inf,inf,1,1,1,1,3,5,3,3,3,0,1,1,0,0,0
785120381,785119499,40177334,41.1790555,-8.6035789,-4.429767,-2.9131203,17.391916,0.008950949,-0.038369656,-1.5162039,-0.11812955,-0.03738561,-0.044665698,-0.048061315,0.035676077,-0.046197742,-0.010773117,-0.45427498,-1.2498573,0.23678212,0.20185733,-0.004077792,129.98909,0.10897446,0.31679583,0.2889243,0.13505264,0.098045744,inf,inf,inf,inf,1,1,1,1,3,5,3,3,3,0,1,1,0,0,0
785220119,785218718,40177334,41.1790555,-8.6035789,-4.4320517,-2.9153798,17.388374,0.008950949,-0.038369656,-1.5162039,-0.12453689,-0.03614762,-0.0480472,-0.050048225,0.035676077,-0.046197742,-0.010773117,-0.6435233,-0.7819393,0.4864153,0.20212562,-0.004077792,129.98909,0.10721588,0.30857533,0.28412038,0.13075203,0.096352145,inf,inf,inf,inf,1,1,1,1,3,5,3,3,3,0,1,1,0,0,0
785318778,785317846,40177334,41.1790555,-8.6035789,-4.4305377,-2.916796,17.384117,0.008950949,-0.038369656,-1.5162039,-0.12680782,-0.029768385,-0.047849968,-0.04927755,0.035676077,-0.046197742,-0.010773117,-0.27958995,2.360345,0.37542903,0.20238759,-0.004077792,129.98909,0.10785866,0.31665128,0.28882372,0.13501221,0.09802286,inf,inf,inf,inf,1,1,1,1,3,5,3,3,3,0,1,1,0,0,0
785418315,785417020,40177334,41.1790555,-8.6035789,-4.432644,-2.9187806,17.379936,0.008950949,-0.038369656,-1.5162039,-0.13238233,-0.041473538,-0.04728307,-0.048030905,0.035676077,-0.046197742,-0.010773117,0.11102586,-0.92832565,0.2980067,0.20257065,-0.004077792,129.98909,0.106897354,0.30844906,0.28402898,0.13070722,0.09633261,inf,inf,inf,inf,1,1,1,1,3,5,3,3,3,0,1,1,0,0,0
785517224,785516194,40177334,41.1790555,-8.6035789,-4.429092,-2.9202344,17.375767,0.008950949,-0.038369656,-1.5162039,-0.14070491,-0.039046522,-0.04959188,-0.04978312,0.035676077,-0.046197742,-0.010773117,-2.1094506,1.1551917,-0.5750572,0.20274709,-0.004077792,129.98909,0.108760834,0.31652498,0.2887295,0.13495855,0.098001115,inf,inf,inf,inf,1,1,1,1,3,5,3,3,3,0,1,1,0,0,0
785625222,785624430,40177334,41.1790555,-8.6035789,-4.4290333,-2.9224393,17.37126,0.008950949,-0.038369656,-1.5162039,-0.1387922,-0.040036324,-0.04819759,-0.047787745,0.035676077,-0.046197742,-0.010773117,0.94379234,1.9898214,0.017035386,0.20298567,-0.004077792,129.98909,0.10253906,0.30905175,0.2845416,0.13104872,0.09649442,inf,inf,inf,inf,1,1,1,1,3,5,3,3,3,0,1,1,0,0,0
785724666,785723557,40177334,41.1790555,-8.6035789,-4.425089,-2.9236631,17.365324,0.008950949,-0.038369656,-1.5162039,-0.14418763,-0.047255818,-0.04769448,-0.04850548,0.035676077,-0.046197742,-0.010773117,-1.3773642,-0.9870165,0.60064036,0.20339695,-0.004077792,129.98909,0.10335922,0.3171648,0.289257,0.13531905,0.09816526,inf,inf,inf,inf,1,1,1,1,3,5,3,3,3,0,1,1,0,0,0
785823551,785822730,40177334,41.1790555,-8.6035789,-4.424745,-2.9256124,17.359253,0.008950949,-0.038369656,-1.5162039,-0.14056566,-0.040523555,-0.05149633,-0.05338839,0.035676077,-0.046197742,-0.010773117,0.024341581,-0.023227017,-0.51336545,0.20347863,-0.004077792,129.98909,0.09850311,0.30894858,0.28446522,0.13103524,0.096478485,inf,inf,inf,inf,1,1,1,1,3,5,3,3,3,0,1,1,0,0,0
785922744,785921904,40177334,41.1790555,-8.6035789,-4.421153,-2.927543,17.351913,0.008950949,-0.038369656,-1.5162039,-0.14010426,-0.043970402,-0.052289482,-0.056318935,0.035676077,-0.046197742,-0.010773117,0.6303251,0.62324566,0.42327982,0.2037543,-0.004077792,129.98909,0.10326004,0.3170596,0.28917587,0.13529718,0.0981502,inf,inf,inf,inf,1,1,1,1,3,5,3,3,3,0,1,1,0,0,0
786023581,786021078,40177334,41.1790555,-8.6035789,-4.4207706,-2.9296374,17.3456,0.008950949,-0.038369656,-1.5162039,-0.14563401,-0.048293766,-0.05733344,-0.062028527,0.035676077,-0.046197742,-0.010773117,0.44116917,-0.66060567,-1.020066,0.20413437,-0.004077792,129.98909,0.10149002,0.3088329,0.2843878,0.13101783,0.09646522,inf,inf,inf,inf,1,1,1,1,3,5,3,3,3,0,1,1,0,0,0
786121241,786120297,40177334,41.1790555,-8.6035789,-4.4151983,-2.9302504,17.338867,0.008950949,-0.038369656,-1.5162039,-0.14613935,-0.04276475,-0.052359134,-0.05802442,0.035676077,-0.046197742,-0.010773117,-0.71820444,0.2659331,-0.08297489,0.20427091,-0.004077792,129.98909,0.106645584,0.31694317,0.28909868,0.13528441,0.09813337,inf,inf,inf,inf,1,1,1,1,3,5,3,3,3,0,1,1,0,0,0
786221147,786219425,40177334,41.1790555,-8.6035789,-4.4143767,-2.931706,17.333532,0.008950949,-0.038369656,-1.5162039,-0.14133471,-0.04476271,-0.05627251,-0.061324663,0.035676077,-0.046197742,-0.010773117,0.35797906,-0.8602298,0.52259326,0.20450175,-0.004077792,129.98909,0.103479385,0.3086727,0.2842934,0.13094349,0.096432336,inf,inf,inf,inf,1,1,1,1,3,5,3,3,3,0,1,1,0,0,0
786319681,786318599,40177334,41.1790555,-8.6035789,-4.4106793,-2.932631,17.326889,0.008950949,-0.038369656,-1.5162039,-0.14304054,-0.046303082,-0.060322,-0.065894864,0.035676077,-0.046197742,-0.010773117,-0.0031002238,0.4417353,-0.59851414,0.20477208,-0.004077792,129.98909,0.106033325,0.31677067,0.2889955,0.13519575,0.09810007,inf,inf,inf,inf,1,1,1,1,3,5,3,3,3,0,1,1,0,0,0
786423315,786417772,40177334,41.1790555,-8.6035789,-4.4101124,-2.9341555,17.321379,0.008950949,-0.038369656,-1.5162039,-0.14808278,-0.04870169,-0.05861338,-0.06359675,0.035676077,-0.046197742,-0.010773117,-0.33376536,-0.69816995,-1.0763186,0.20482937,-0.004077792,129.98909,0.10663223,0.30858144,0.28423032,0.13092469,0.09642118,inf,inf,inf,inf,1,1,1,1,3,5,3,3,3,0,1,1,0,0,0
786517834,786516946,40177334,41.1790555,-8.6035789,-4.405221,-2.9348137,17.315966,0.008950949,-0.038369656,-1.5162039,-0.14483339,-0.04948107,-0.056740683,-0.06107697,0.035676077,-0.046197742,-0.010773117,-0.74293476,-1.0487784,-0.12883435,0.20499475,-0.004077792,129.98909,0.10966873,0.31668136,0.28892964,0.13518126,0.09808745,inf,inf,inf,inf,1,1,1,1,3,5,3,3,3,0,1,1,0,0,0
786618073,786616165,40177334,41.1790555,-8.6035789,-4.404999,-2.9363763,17.311543,0.008950949,-0.038369656,-1.5162039,-0.14440136,-0.04590972,-0.05778004,-0.0605703,0.035676077,-0.046197742,-0.010773117,-0.93867564,-0.016645389,0.590265,0.20484425,-0.004077792,129.98909,0.106472015,0.30844325,0.28413594,0.13086307,0.09638956,inf,inf,inf,inf,1,1,1,1,3,5,3,3,3,0,1,1,0,0,0
786725090,786724309,40177334,41.1790555,-8.6035789,-4.401348,-2.9373345,17.305653,0.008950949,-0.038369656,-1.5162039,-0.14273065,-0.046639074,-0.056621052,-0.058783032,0.035676077,-0.046197742,-0.010773117,-0.04996341,0.35620606,0.17846754,0.20484035,-0.004077792,129.98909,0.10972214,0.31729358,0.28944412,0.13550422,0.09823764,inf,inf,inf,inf,1,1,1,1,3,5,3,3,3,0,1,1,0,0,0
786820460,786814467,40177334,41.1790555,-8.6035789,-4.402075,-2.9390988,17.301645,0.008950949,-0.038369656,-1.5162039,-0.14512749,-0.050700516,-0.06034123,-0.06115364,0.035676077,-0.046197742,-0.010773117,0.5060139,0.2365504,-0.08382192,0.20481959,-0.004077792,129.98909,0.10523987,0.3083157,0.28497934,0.13079278,0.096510775,inf,inf,inf,inf,1,1,1,1,3,5,3,3,3,0,1,1,0,0,0
786923650,786922659,40177334,41.1790555,-8.6035789,-4.396136,-2.9407482,17.296522,0.008950949,-0.038369656,-1.5162039,-0.14149407,-0.053475376,-0.060235906,-0.06001681,0.035676077,-0.046197742,-0.010773117,-0.052220125,-1.439884,-1.0575993,0.2046973,-0.004077792,129.98909,0.11176109,0.31716147,0.28934643,0.13542986,0.09820896,inf,inf,inf,inf,1,1,1,1,3,5,3,3,3,0,1,1,0,0,0
787023365,787021876,40177334,41.1790555,-8.6035789,-4.395757,-2.943253,17.292742,0.008950949,-0.038369656,-1.5162039,-0.14445011,-0.05246377,-0.060029507,-0.058082536,0.035676077,-0.046197742,-0.010773117,-0.8203011,0.31802386,-0.80830187,0.204761,-0.004077792,129.98909,0.10692215,0.30883434,0.28451782,0.1310525,0.09649769,inf,inf,inf,inf,1,1,1,1,3,5,3,3,3,0,1,1,0,0,0
787122004,787121004,40177334,41.1790555,-8.6035789,-4.390932,-2.944477,17.287766,0.008950949,-0.038369656,-1.5162039,-0.14291027,-0.04831385,-0.052441146,-0.050143972,0.035676077,-0.046197742,-0.010773117,-0.8890789,0.3081162,0.32815626,0.20478909,-0.004077792,129.98909,0.10964012,0.31695184,0.28922355,0.13531129,0.09816261,inf,inf,inf,inf,1,1,1,1,3,5,3,3,3,0,1,1,0,0,0
787221708,787220178,40177334,41.1790555,-8.6035789,-4.3904757,-2.9464142,17.283928,0.008950949,-0.038369656,-1.5162039,-0.1391165,-0.051935323,-0.05670974,-0.053181373,0.035676077,-0.046197742,-0.010773117,-0.13241814,-1.149846,0.02882992,0.20472772,-0.004077792,129.98909,0.1056118,0.3086525,0.28440297,0.13097195,0.09645405,inf,inf,inf,inf,1,1,1,1,3,5,3,3,3,0,1,1,0,0,0
787320365,787319351,40177334,41.1790555,-8.6035789,-4.3846793,-2.9475572,17.278963,0.008950949,-0.038369656,-1.5162039,-0.13855939,-0.046945363,-0.060415056,-0.056746926,0.035676077,-0.046197742,-0.010773117,-0.31535256,2.0414724,-0.1621191,0.20485176,-0.004077792,129.98909,0.11069107,0.31676072,0.2891028,0.13521451,0.098119885,inf,inf,inf,inf,1,1,1,1,3,5,3,3,3,0,1,1,0,0,0
787420397,787418525,40177334,41.1790555,-8.6035789,-4.3832974,-2.949522,17.275492,0.008950949,-0.038369656,-1.5162039,-0.1375098,-0.050522808,-0.054365892,-0.04922063,0.035676077,-0.046197742,-0.010773117,0.28380975,0.007490923,-0.12574132,0.20481202,-0.004077792,129.98909,0.10586357,0.30848977,0.2842943,0.13086535,0.09641543,inf,inf,inf,inf,1,1,1,1,3,5,3,3,3,0,1,1,0,0,0
787518652,787517744,40177334,41.1790555,-8.6035789,-4.378622,-2.9503872,17.270243,0.008950949,-0.038369656,-1.5162039,-0.13423435,-0.051840693,-0.054188773,-0.049280595,0.035676077,-0.046197742,-0.010773117,-0.48289093,-1.4589705,0.14487511,0.20473033,-0.004077792,129.98909,0.106487274,0.31658933,0.28997362,0.13509154,0.09823756,inf,inf,inf,inf,1,1,1,1,3,5,3,3,3,0,1,1,0,0,0
787618236,787616872,40177334,41.1790555,-8.6035789,-4.3780727,-2.9520175,17.265812,0.008950949,-0.038369656,-1.5162039,-0.12896347,-0.042905215,-0.057497244,-0.052060388,0.035676077,-0.046197742,-0.010773117,0.5237471,2.9633722,1.0501308,0.20468462,-0.004077792,129.98909,0.103401184,0.30833602,0.2851297,0.13082184,0.09653013,inf,inf,inf,inf,1,1,1,1,3,5,3,3,3,0,1,1,0,0,0
787726245,787725062,40177334,41.1790555,-8.6035789,-4.371575,-2.9516373,17.259876,0.008950949,-0.038369656,-1.5162039,-0.12558918,-0.04781005,-0.053505987,-0.04853844,0.035676077,-0.046197742,-0.010773117,-0.42088595,-0.98495865,1.4380145,0.20476733,-0.004077792,129.98909,0.10769844,0.31718713,0.2894952,0.13545178,0.0982216,inf,inf,inf,inf,1,1,1,1,3,5,3,3,3,0,1,1,0,0,0
787816297,787815220,40177334,41.1790555,-8.6035789,-4.3710537,-2.9523563,17.255596,0.008950949,-0.038369656,-1.5162039,-0.12567085,-0.045927286,-0.058203455,-0.053032205,0.035676077,-0.046197742,-0.010773117,0.96807396,-0.47755092,-1.2024575,0.20480658,-0.004077792,129.98909,0.10673714,0.32499978,0.29470223,0.13930877,0.09986264,inf,inf,inf,inf,1,1,1,1,3,5,3,3,3,0,1,1,0,0,0
787924258,787923455,40177334,41.1790555,-8.6035789,-4.362931,-2.95228,17.24659,0.008950949,-0.038369656,-1.5162039,-0.12560996,-0.043264285,-0.061454497,-0.059584104,0.035676077,-0.046197742,-0.010773117,-1.0884689,0.30951437,-1.0769587,0.2046875,-0.004077792,129.98909,0.10241318,0.3169778,0.28935993,0.13525012,0.09816698,inf,inf,inf,inf,1,1,1,1,3,5,3,3,3,0,1,1,0,0,0
788017250,788013612,40177334,41.1790555,-8.6035789,-4.360609,-2.9531937,17.240059,0.008950949,-0.038369656,-1.5162039,-0.11510897,-0.037451446,-0.057336815,-0.056815673,0.035676077,-0.046197742,-0.010773117,0.6983177,1.4109563,0.70842314,0.20456962,-0.004077792,129.98909,0.09623337,0.30801687,0.28490704,0.13065341,0.0964464,inf,inf,inf,inf,1,1,1,1,3,5,3,3,3,0,1,1,0,0,0
788122619,788121757,40177334,41.1790555,-8.6035789,-4.3549547,-2.9542942,17.230593,0.008950949,-0.038369656,-1.5162039,-0.11702594,-0.044935614,-0.05698243,-0.059508227,0.035676077,-0.046197742,-0.010773117,-0.69454366,-1.6698679,1.0403622,0.20467648,-0.004077792,129.98909,0.10161018,0.3168519,0.29025114,0.1352758,0.09829444,inf,inf,inf,inf,1,1,1,1,3,5,3,3,3,0,1,1,0,0,0
788222208,788220930,40177334,41.1790555,-8.6035789,-4.353904,-2.9561384,17.224073,0.008950949,-0.038369656,-1.5162039,-0.11541219,-0.03609336,-0.06438251,-0.067321725,0.035676077,-0.046197742,-0.010773117,0.3784704,1.8996106,-0.118022874,0.2045915,-0.004077792,129.98909,0.097242355,0.30856478,0.28538337,0.13092613,0.09657524,inf,inf,inf,inf,1,1,1,1,3,5,3,3,3,0,1,1,0,0,0
788321178,788320104,40177334,41.1790555,-8.6035789,-4.347942,-2.9579988,17.215893,0.008950949,-0.038369656,-1.5162039,-0.10977421,-0.042421285,-0.065883,-0.07050376,0.035676077,-0.046197742,-0.010773117,0.6311299,1.0632594,-0.23230955,0.2047573,-0.004077792,129.98909,0.10306549,0.31667235,0.29012328,0.13511835,0.09824821,inf,inf,inf,inf,1,1,1,1,3,5,3,3,3,0,1,1,0,0,0
788421215,788419323,40177334,41.1790555,-8.6035789,-4.34586,-2.9601984,17.209856,0.008950949,-0.038369656,-1.5162039,-0.10832651,-0.039199825,-0.060351167,-0.06441775,0.035676077,-0.046197742,-0.010773117,1.0100574,1.2241824,0.13449359,0.20462595,-0.004077792,129.98909,0.099472046,0.30840984,0.2852677,0.13084935,0.09653161,inf,inf,inf,inf,1,1,1,1,3,5,3,3,3,0,1,1,0,0,0
788519277,788518451,40177334,41.1790555,-8.6035789,-4.3389854,-2.960473,17.202229,0.008950949,-0.038369656,-1.5162039,-0.100809686,-0.04254,-0.062293787,-0.06713141,0.035676077,-0.046197742,-0.010773117,0.21555915,-0.02405103,1.5856605,0.20460549,-0.004077792,129.98909,0.10519791,0.3165116,0.29000258,0.13507013,0.098202065,inf,inf,inf,inf,1,1,1,1,3,5,3,3,3,0,1,1,0,0,0
788618993,788617625,40177334,41.1790555,-8.6035789,-4.3362036,-2.9616752,17.196346,0.008950949,-0.038369656,-1.5162039,-0.1064764,-0.041916747,-0.06615456,-0.07002016,0.035676077,-0.046197742,-0.010773117,-1.1941109,0.30703428,0.0761974,0.20472486,-0.004077792,129.98909,0.10197067,0.308269,0.2851447,0.1307897,0.09648771,inf,inf,inf,inf,1,1,1,1,3,5,3,3,3,0,1,1,0,0,0
788717702,788716799,40177334,41.1790555,-8.6035789,-4.329759,-2.9620159,17.18845,0.008950949,-0.038369656,-1.5162039,-0.10043357,-0.040261578,-0.066011995,-0.07074862,0.035676077,-0.046197742,-0.010773117,-0.77058125,0.36284974,1.0404516,0.20482868,-0.004077792,129.98909,0.104213715,0.31636342,0.28987703,0.13499697,0.0981571,inf,inf,inf,inf,1,1,1,1,3,5,3,3,3,0,1,1,0,0,0
788826145,788825034,40177334,41.1790555,-8.6035789,-4.326374,-2.9634454,17.179941,0.008950949,-0.038369656,-1.5162039,-0.09572036,-0.04632924,-0.06862883,-0.07408224,0.035676077,-0.046197742,-0.010773117,0.54907596,-0.7761327,0.4961134,0.20479129,-0.004077792,129.98909,0.09997177,0.30883047,0.28561586,0.13111171,0.0966249,inf,inf,inf,inf,1,1,1,1,3,5,3,3,3,0,1,1,0,0,0
788920440,788915192,40177334,41.1790555,-8.6035789,-4.321324,-2.9649873,17.171764,0.008950949,-0.038369656,-1.5162039,-0.0985885,-0.042070296,-0.067647696,-0.07453417,0.035676077,-0.046197742,-0.010773117,-1.1245942,-1.7762469,1.3812292,0.2048083,-0.004077792,129.98909,0.102716446,0.3162021,0.2897463,0.13493337,0.09811436,inf,inf,inf,inf,1,1,1,1,3,5,3,3,3,0,1,1,0,0,0
789024246,789023336,40177334,41.1790555,-8.6035789,-4.318314,-2.9671912,17.162365,0.008950949,-0.038369656,-1.5162039,-0.086271234,-0.044614024,-0.073637545,-0.08173622,0.035676077,-0.046197742,-0.010773117,1.2969347,-0.10866015,-0.3346465,0.20500991,-0.004077792,129.98909,0.09725952,0.30869102,0.28548524,0.13108331,0.09658203,inf,inf,inf,inf,1,1,1,1,3,5,3,3,3,0,1,1,0,0,0
789123529,789122509,40177334,41.1790555,-8.6035789,-4.3124247,-2.9680893,17.15196,0.008950949,-0.038369656,-1.5162039,-0.09333785,-0.052147757,-0.069259815,-0.0797518,0.035676077,-0.046197742,-0.010773117,-1.0215386,-3.3557198,-0.020543583,0.2049245,-0.004077792,129.98909,0.10127258,0.31681573,0.29022285,0.1352808,0.09824977,inf,inf,inf,inf,1,1,1,1,3,5,3,3,3,0,1,1,0,0,0
789223098,789221683,40177334,41.1790555,-8.6035789,-4.310171,-2.9698517,17.142887,0.008950949,-0.038369656,-1.5162039,-0.10005702,-0.037736237,-0.07086332,-0.08225929,0.035676077,-0.046197742,-0.010773117,-3.4473703,3.0180278,-0.49645716,0.20513226,-0.004077792,129.98909,0.105457306,0.3084809,0.28531656,0.13095723,0.096522115,inf,inf,inf,inf,1,1,1,1,3,5,3,3,3,0,1,1,0,0,0
789323209,789320902,40177334,41.1790555,-8.6035789,-4.304364,-2.9711432,17.131514,0.008950949,-0.038369656,-1.5162039,-0.09093464,-0.042610284,-0.07972485,-0.093715474,0.035676077,-0.046197742,-0.010773117,-2.7460449,0.25558984,-0.90306216,0.2052163,-0.004077792,129.98909,0.116830826,0.31659406,0.29005092,0.1351402,0.09819091,inf,inf,inf,inf,1,1,1,1,3,5,3,3,3,0,1,1,0,0,0
789420978,789420031,40177334,41.1790555,-8.6035789,-4.3017073,-2.9729073,17.119839,0.008950949,-0.038369656,-1.5162039,-0.0775876,-0.051689368,-0.078738794,-0.09518973,0.035676077,-0.046197742,-0.010773117,2.560359,-3.7535486,3.1037605,0.20526128,-0.004077792,129.98909,0.1285057,0.30835104,0.28518477,0.13092265,0.09649175,inf,inf,inf,inf,1,1,1,1,3,5,3,3,3,0,1,1,0,0,0
789519948,789519204,40177334,41.1790555,-8.6035789,-4.297621,-2.9729261,17.107006,0.008950949,-0.038369656,-1.5162039,-0.09334588,-0.039468203,-0.10228065,-0.12076986,0.035676077,-0.046197742,-0.010773117,-2.811776,-2.2101405,-3.5487943,0.20608369,-0.004077792,129.98909,0.14133835,0.31646043,0.2899135,0.13511729,0.09815091,inf,inf,inf,inf,1,1,1,1,3,5,3,3,3,0,1,1,0,0,0
789623783,789618378,40177334,41.1790555,-8.6035789,-4.2963157,-2.9740932,17.09469,0.008950949,-0.038369656,-1.5162039,-0.09192276,-0.024337856,-0.09399123,-0.11319453,0.035676077,-0.046197742,-0.010773117,1.2284117,7.6264176,4.542595,0.20803224,-0.004077792,129.98909,0.1536541,0.3082079,0.28503704,0.1309415,0.096448325,inf,inf,inf,inf,1,1,1,1,3,5,3,3,3,0,1,1,0,0,0
789718477,789717552,40177334,41.1790555,-8.6035789,-4.29326,-2.9765825,17.08139,0.008950949,-0.038369656,-1.5162039,-0.10723343,-0.051579747,-0.10061358,-0.120461255,0.035676077,-0.046197742,-0.010773117,-0.745356,-0.689437,6.4563923,0.21289659,-0.004077792,129.98909,0.16695404,0.31631482,0.28976327,0.1352063,0.09811274,inf,inf,inf,inf,1,1,1,1,3,5,3,3,3,0,1,1,0,0,0
789826620,789825741,40177334,41.1790555,-8.6035789,-4.294414,-2.980754,17.063171,0.008950949,-0.038369656,-1.5162039,-0.12477173,-0.06556122,-0.12849146,-0.15040456,0.035676077,-0.046197742,-0.010773117,-5.2474303,-1.3049473,4.994062,0.2261237,-0.004077792,129.98909,0.18517303,0.30871397,0.28544414,0.13131809,0.0965674,inf,inf,inf,inf,1,1,1,1,3,5,3,3,3,0,1,1,0,0,0
789916731,789915899,40177334,41.1790555,-8.6035789,-4.2923484,-2.9839215,17.046175,0.008950949,-0.038369656,-1.5162039,-0.11857675,-0.08458587,-0.14400354,-0.16773772,0.035676077,-0.046197742,-0.010773117,0.63008654,-1.5861185,-1.0895807,0.24786332,-0.004077792,129.98909,0.20216942,0.31609952,0.2895695,0.13520509,0.098054364,inf,inf,inf,inf,1,1,1,1,3,5,3,3,3,0,1,1,0,0,0
790025200,790024088,40177334,41.1790555,-8.6035789,-4.2946467,-2.9903278,17.0232,0.008950949,-0.038369656,-1.5162039,-0.13428731,-0.0894121,-0.18152472,-0.20786847,0.035676077,-0.046197742,-0.010773117,-0.6289281,2.8540862,-2.7585263,0.2705315,-0.004077792,129.98909,0.22514534,0.30850273,0.28525892,0.13127291,0.09650423,inf,inf,inf,inf,1,1,1,1,3,5,3,3,3,0,1,1,0,0,0
790124589,790123262,40177334,41.1790555,-8.6035789,-4.2948394,-2.9952023,17.002428,0.008950949,-0.038369656,-1.5162039,-0.13549589,-0.08694866,-0.18671991,-0.21394888,0.035676077,-0.046197742,-0.010773117,-0.97310823,1.35512,-0.741049,0.28639394,-0.004077792,129.98909,0.24591637,0.31664285,0.28999358,0.13569748,0.098169625,inf,inf,inf,inf,1,1,1,1,3,5,3,3,3,0,1,1,0,0,0
790223337,790222482,40177334,41.1790555,-8.6035789,-4.299009,-3.0028274,16.981157,0.008950949,-0.038369656,-1.5162039,-0.15588564,-0.13376029,-0.22659196,-0.25296485,0.035676077,-0.046197742,-0.010773117,2.3766918,-2.196666,-1.536113,0.3051796,-0.004077792,129.98909,0.26718712,0.3082881,0.28507528,0.13137566,0.09645295,inf,inf,inf,inf,1,1,1,1,3,5,3,3,3,0,1,1,0,0,0
790322487,790321610,40177334,41.1790555,-8.6035789,-4.3037934,-3.0171413,16.955147,0.008950949,-0.038369656,-1.5162039,-0.18627037,-0.19459303,-0.3376283,-0.36062387,0.035676077,-0.046197742,-0.010773117,-0.21651085,-0.13970341,-1.7308668,0.32960147,-0.004077792,129.98909,0.29319763,0.31642509,0.28980294,0.1359305,0.09812194,inf,inf,inf,inf,1,1,1,1,3,5,3,3,3,0,1,1,0,0,0
790412759,790411768,40177334,41.1790555,-8.6035789,-4.3141603,-3.0350726,16.917389,0.008950949,-0.038369656,-1.5162039,-0.21002369,-0.22785595,-0.51591814,-0.53624755,0.035676077,-0.046197742,-0.010773117,-3.1953223,-0.7197213,0.3092442,0.35487127,-0.004077792,129.98909,0.3309555,0.32425198,0.29399398,0.14035158,0.099596605,inf,inf,inf,inf,1,1,1,1,3,5,3,3,3,0,1,1,0,0,0
790520856,790519957,40177334,41.1790555,-8.6035789,-4.318973,-3.0506847,16.85972,0.008950949,-0.038369656,-1.5162039,-0.2060045,-0.21882044,-0.6979233,-0.70782197,0.035676077,-0.046197742,-0.010773117,0.07716989,2.7501101,-2.2673419,0.38820723,-0.004077792,129.98909,0.3886242,0.3161532,0.2895695,0.13737938,0.09807446,inf,inf,inf,inf,1,1,1,1,3,5,3,3,3,0,1,1,0,0,0
790622123,790619131,40177334,41.1790555,-8.6035789,-4.3275685,-3.0659015,16.792053,0.008950949,-0.038369656,-1.5162039,-0.19795865,-0.199693,-0.76275843,-0.7649503,0.035676077,-0.046197742,-0.010773117,2.1064866,-2.0045035,1.6053114,0.42035362,-0.004077792,129.98909,0.4562912,0.30774263,0.28462818,0.13366944,0.096369185,inf,inf,inf,inf,1,1,1,1,3,5,3,3,3,0,1,1,0,0,0
790719466,790718350,40177334,41.1790555,-8.6035789,-4.330342,-3.0778077,16.729689,0.008950949,-0.038369656,-1.5162039,-0.17439555,-0.18002972,-0.81779104,-0.8042461,0.035676077,-0.046197742,-0.010773117,1.3602183,-2.9953606,1.1475235,0.45394158,-0.004077792,129.98909,0.5186558,0.31592184,0.28934568,0.13870732,0.09804749,inf,inf,inf,inf,1,1,1,1,3,5,3,3,3,0,1,1,0,0,0
790818978,790817479,40177334,41.1790555,-8.6035789,-4.335592,-3.0889974,16.66038,0.008950949,-0.038369656,-1.5162039,-0.1623598,-0.14970462,-0.83870363,-0.8145373,0.035676077,-0.046197742,-0.010773117,1.1049644,-3.156189,1.1019183,0.4880245,-0.004077792,129.98909,0.587965,0.30752057,0.28441396,0.13456853,0.09635318,inf,inf,inf,inf,1,1,1,1,3,5,3,3,3,0,1,1,0,0,0
790917491,790916655,40177334,41.1790555,-8.6035789,-4.3338757,-3.096251,16.592957,0.008950949,-0.038369656,-1.5162039,-0.13968307,-0.11451846,-0.84671825,-0.8088192,0.035676077,-0.046197742,-0.010773117,0.04336685,-2.4203107,3.387922,0.5189635,-0.004077792,129.98909,0.6553879,0.3157039,0.2891267,0.13963409,0.09806044,inf,inf,inf,inf,1,1,1,1,3,5,3,3,3,0,1,1,0,0,0
791017509,791015826,40177334,41.1790555,-8.6035789,-4.3336773,-3.1024363,16.520731,0.008950949,-0.038369656,-1.5162039,-0.1204537,-0.07715192,-0.88955295,-0.8434416,0.035676077,-0.046197742,-0.010773117,-2.4419613,1.8416824,0.31548426,0.5512141,-0.004077792,129.98909,0.72761345,0.3073286,0.28420487,0.13561982,0.09639095,inf,inf,inf,inf,1,1,1,1,3,5,3,3,3,0,1,1,0,0,0
791124947,791124061,40177334,41.1790555,-8.6035789,-4.3303075,-3.1100466,16.439812,0.008950949,-0.038369656,-1.5162039,-0.07035348,-0.06342128,-0.893241,-0.83791584,0.035676077,-0.046197742,-0.010773117,-2.1610851,2.5002367,-2.4133859,0.5852828,-0.004077792,129.98909,0.8085327,0.3162867,0.2895244,0.14191769,0.09829503,inf,inf,inf,inf,1,1,1,1,3,5,3,3,3,0,1,1,0,0,0
791226034,791223189,40177334,41.1790555,-8.6035789,-4.3274083,-3.1149871,16.363907,0.008950949,-0.038369656,-1.5162039,-0.042914923,-0.048511025,-0.81848735,-0.7604319,0.035676077,-0.046197742,-0.010773117,2.8418202,-2.78366,1.2604668,0.6094328,-0.004077792,129.98909,0.88443756,0.30781746,0.28455025,0.1380211,0.09659749,inf,inf,inf,inf,1,1,1,1,3,5,3,3,3,0,1,1,0,0,0
791323134,791322363,40177334,41.1790555,-8.6035789,-4.3188496,-3.1164305,16.303463,0.008950949,-0.038369656,-1.5162039,-0.054380655,-0.016110592,-0.5936351,-0.5313521,0.035676077,-0.046197742,-0.010773117,-1.8235534,-4.6652827,7.3307614,0.63050157,-0.004077792,129.98909,0.94488144,0.31605235,0.2892754,0.14373884,0.09832452,inf,inf,inf,inf,1,1,1,1,3,5,3,3,3,0,1,1,0,0,0
791423270,791421537,40177334,41.1790555,-8.6035789,-4.3141828,-3.115574,16.269249,0.008950949,-0.038369656,-1.5162039,-0.050889798,0.01779371,-0.23576401,-0.17493932,0.035676077,-0.046197742,-0.010773117,-2.9415357,-0.89819396,3.4668376,0.64676446,-0.004077792,129.98909,0.97909546,0.30764598,0.28431377,0.13904028,0.09663329,inf,inf,inf,inf,1,1,1,1,3,5,3,3,3,0,1,1,0,0,0
791521535,791520713,40177334,41.1790555,-8.6035789,-4.3117595,-3.1112726,16.259937,0.008950949,-0.038369656,-1.5162039,-0.070234604,0.045714617,-0.0013746084,0.053638827,0.035676077,-0.046197742,-0.010773117,-0.7283137,-1.1102197,6.3942842,0.6614044,-0.004077792,129.98909,0.98840714,0.31583712,0.28903484,0.14415894,0.09837148,inf,inf,inf,inf,1,1,1,1,3,5,3,3,3,0,1,1,0,0,0
791621416,791619930,40177334,41.1790555,-8.6035789,-4.31226,-3.1058524,16.26082,0.008950949,-0.038369656,-1.5162039,-0.06853771,0.05761814,0.068181306,0.113695726,0.035676077,-0.046197742,-0.010773117,-1.683272,1.4762026,-0.7095468,0.67521685,-0.004077792,129.98909,0.98752403,0.30746576,0.28408498,0.14023481,0.09669995,inf,inf,inf,inf,1,1,1,1,3,5,3,3,3,0,1,1,0,0,0
791719956,791719060,40177334,41.1790555,-8.6035789,-4.3092937,-3.1012328,16.252287,0.008950949,-0.038369656,-1.5162039,-0.07095558,0.061633408,-0.06494401,-0.035714414,0.035676077,-0.046197742,-0.010773117,-3.2300918,2.5858872,-2.9831123,0.69205445,-0.004077792,129.98909,0.9960575,0.31563756,0.28880358,0.14709198,0.098434374,inf,inf,inf,inf,1,1,1,1,3,5,3,3,3,0,1,1,0,0,0
791819584,791818232,40177334,41.1790555,-8.6035789,-4.307527,-3.0964932,16.226398,0.008950949,-0.038369656,-1.5162039,-0.040191717,0.059182767,-0.25497556,-0.23968779,0.035676077,-0.046197742,-0.010773117,1.0394536,-1.703115,-0.71399075,0.7105098,-0.004077792,129.98909,1.021946,0.30720806,0.2838526,0.14412947,0.09674031,inf,inf,inf,inf,1,1,1,1,3,5,3,3,3,0,1,1,0,0,0
791922744,791917405,40177334,41.1790555,-8.6035789,-4.300347,-3.0923824,16.186644,0.008950949,-0.038369656,-1.5162039,-0.048882086,0.06013015,-0.44967577,-0.4400719,0.035676077,-0.046197742,-0.010773117,1.1978699,-0.71895504,-2.2659676,0.73131937,-0.004077792,129.98909,1.0617008,0.3154622,0.28857362,0.15240979,0.09846975,inf,inf,inf,inf,1,1,1,1,3,5,3,3,3,0,1,1,0,0,0
792018366,792016579,40177334,41.1790555,-8.6035789,-4.2971544,-3.0877748,16.136074,0.008950949,-0.038369656,-1.5162039,-0.05094664,0.061619155,-0.52154285,-0.5154215,0.035676077,-0.046197742,-0.010773117,-1.9709202,1.5690039,0.18013881,0.7495811,-0.004077792,129.98909,1.1122704,0.30697277,0.2836333,0.14927217,0.09677583,inf,inf,inf,inf,1,1,1,1,3,5,3,3,3,0,1,1,0,0,0
792116629,792115799,40177334,41.1790555,-8.6035789,-4.292962,-3.0822337,16.097565,0.008950949,-0.038369656,-1.5162039,-0.055323135,0.058700774,-0.4804439,-0.4648857,0.035676077,-0.046197742,-0.010773117,-1.4807255,3.2543097,-2.5891023,0.76858807,-0.004077792,129.98909,1.1507797,0.31533858,0.28835413,0.15755895,0.09850309,inf,inf,inf,inf,1,1,1,1,3,5,3,3,3,0,1,1,0,0,0
792216333,792214927,40177334,41.1790555,-8.6035789,-4.2905207,-3.0760405,16.060204,0.008950949,-0.038369656,-1.5162039,-0.03557639,0.06527855,-0.43953905,-0.41773596,0.035676077,-0.046197742,-0.010773117,0.05094977,2.1263816,0.758107,0.78606564,-0.004077792,129.98909,1.1881409,0.30681014,0.2834115,0.15301913,0.09678343,inf,inf,inf,inf,1,1,1,1,3,5,3,3,3,0,1,1,0,0,0
792324176,792323117,40177334,41.1790555,-8.6035789,-4.278927,-3.0661862,16.030752,0.008950949,-0.038369656,-1.5162039,-0.025895728,0.0789995,-0.44289336,-0.40684485,0.035676077,-0.046197742,-0.010773117,-2.169906,1.1336617,-2.6041405,0.80301607,-0.004077792,129.98909,1.2175922,0.31605613,0.28874657,0.16198745,0.09872446,inf,inf,inf,inf,1,1,1,1,3,5,3,3,3,0,1,1,0,0,0
792424798,792422290,40177334,41.1790555,-8.6035789,-4.2686443,-3.0571787,15.998801,0.008950949,-0.038369656,-1.5162039,0.027404318,0.08093954,-0.4620053,-0.41799915,0.035676077,-0.046197742,-0.010773117,-0.15249959,0.6438347,-1.043684,0.8168064,-0.004077792,129.98909,1.2495432,0.3073626,0.28376102,0.15699969,0.096993126,inf,inf,inf,inf,1,1,1,1,3,5,3,3,3,0,1,1,0,0,0
792522550,792521509,40177334,41.1790555,-8.6035789,-4.2503324,-3.0494144,15.967424,0.008950949,-0.038369656,-1.5162039,0.08502441,0.06019837,-0.50903475,-0.45356658,0.035676077,-0.046197742,-0.010773117,3.7875361,-1.816548,-0.89127976,0.82967234,-0.004077792,129.98909,1.28092,0.3159545,0.28849995,0.16577888,0.098755755,inf,inf,inf,inf,1,1,1,1,3,5,3,3,3,0,1,1,0,0,0
792621892,792620637,40177334,41.1790555,-8.6035789,-4.231974,-3.0428383,15.929178,0.008950949,-0.038369656,-1.5162039,0.10722134,0.056429856,-0.5242745,-0.46186122,0.035676077,-0.046197742,-0.010773117,3.0345519,-0.8288866,-1.647992,0.84182924,-0.004077792,129.98909,1.3191662,0.30721706,0.28352734,0.16024129,0.09700396,inf,inf,inf,inf,1,1,1,1,3,5,3,3,3,0,1,1,0,0,0
792722276,792719811,40177334,41.1790555,-8.6035789,-4.2120256,-3.036106,15.896889,0.008950949,-0.038369656,-1.5162039,0.11863687,0.056525696,-0.550708,-0.47489518,0.035676077,-0.046197742,-0.010773117,0.6689939,1.2145846,-2.9600272,0.8570347,-0.004077792,129.98909,1.3514557,0.3159073,0.28826287,0.16909012,0.098748155,inf,inf,inf,inf,1,1,1,1,3,5,3,3,3,0,1,1,0,0,0
792820356,792818985,40177334,41.1790555,-8.6035789,-4.1935577,-3.0301013,15.857079,0.008950949,-0.038369656,-1.5162039,0.11414501,0.05310147,-0.5775269,-0.49447924,0.035676077,-0.046197742,-0.010773117,-2.3463318,2.377199,0.11019102,0.8683235,-0.004077792,129.98909,1.3912659,0.3071184,0.2833003,0.16291358,0.09699024,inf,inf,inf,inf,1,1,1,1,3,5,3,3,3,0,1,1,0,0,0
792919101,792918159,40177334,41.1790555,-8.6035789,-4.1740065,-3.0218873,15.823349,0.008950949,-0.038369656,-1.5162039,0.10743894,0.059063192,-0.5722037,-0.476741,0.035676077,-0.046197742,-0.010773117,-0.65585065,0.50316036,-0.43437338,0.87727815,-0.004077792,129.98909,1.4249954,0.31590927,0.28803778,0.17171973,0.098710336,inf,inf,inf,inf,1,1,1,1,3,5,3,3,3,0,1,1,0,0,0
793019431,793017378,40177334,41.1790555,-8.6035789,-4.158191,-3.01474,15.78184,0.008950949,-0.038369656,-1.5162039,0.1008091,0.0454516,-0.5909123,-0.48959082,0.035676077,-0.046197742,-0.010773117,-0.91449213,0.3445067,-1.1479272,0.8861206,-0.004077792,129.98909,1.4665041,0.30706254,0.28308022,0.16482148,0.096941255,inf,inf,inf,inf,1,1,1,1,3,5,3,3,3,0,1,1,0,0,0
793117440,793116506,40177334,41.1790555,-8.6035789,-4.1389556,-3.0095868,15.744401,0.008950949,-0.038369656,-1.5162039,0.09440923,0.048027564,-0.6403881,-0.5278603,0.035676077,-0.046197742,-0.010773117,1.4433302,-2.3481333,-0.6627354,0.8929187,-0.004077792,129.98909,1.5039434,0.31594616,0.2878155,0.173591,0.09865465,inf,inf,inf,inf,1,1,1,1,3,5,3,3,3,0,1,1,0,0,0
793216781,793215680,40177334,41.1790555,-8.6035789,-4.124608,-3.0042207,15.697609,0.008950949,-0.038369656,-1.5162039,0.072449505,0.06389426,-0.6286632,-0.51279354,0.035676077,-0.046197742,-0.010773117,-2.3801231,2.579525,-1.8456995,0.90023583,-0.004077792,129.98909,1.5507355,0.32570034,0.29265016,0.1826311,0.10036826,inf,inf,inf,inf,1,1,1,1,3,5,3,3,3,0,1,1,0,0,0
793315676,793314854,40177334,41.1790555,-8.6035789,-4.1072607,-2.9959033,15.661843,0.008950949,-0.038369656,-1.5162039,0.05130981,0.05663955,-0.62427205,-0.49632174,0.035676077,-0.046197742,-0.010773117,-3.1919782,-0.503199,2.6130705,0.9049644,-0.004077792,129.98909,1.5865011,0.31592008,0.28757858,0.1744787,0.09862726,inf,inf,inf,inf,1,1,1,1,3,5,3,3,3,0,1,1,0,0,0
793425023,793423089,40177334,41.1790555,-8.6035789,-4.0943813,-2.9874358,15.614291,0.008950949,-0.038369656,-1.5162039,0.026142163,0.054457624,-0.64058965,-0.50768924,0.035676077,-0.046197742,-0.010773117,-1.3924036,-0.819408,0.46841586,0.91354257,-0.004077792,129.98909,1.6340532,0.30769655,0.28323135,0.1671312,0.09703706,inf,inf,inf,inf,1,1,1,1,3,5,3,3,3,0,1,1,0,0,0
793523939,793522217,40177334,41.1790555,-8.6035789,-4.0854335,-2.9817536,15.5763,0.008950949,-0.038369656,-1.5162039,-0.007657942,0.04448206,-0.6503028,-0.5076775,0.035676077,-0.046197742,-0.010773117,-3.3925316,-0.44641623,0.02731077,0.9238685,-0.004077792,129.98909,1.6720448,0.31678614,0.28797844,0.17548268,0.09876719,inf,inf,inf,inf,1,1,1,1,3,5,3,3,3,0,1,1,0,0,0
793622277,793621391,40177334,41.1790555,-8.6035789,-4.081308,-2.9766421,15.530556,0.008950949,-0.038369656,-1.5162039,-0.04445864,0.04619441,-0.6759192,-0.5291901,0.035676077,-0.046197742,-0.010773117,-4.318222,1.9366709,-1.9055948,0.80927163,-0.12480616,129.98909,1.7177887,0.30784917,0.28306586,0.16530097,0.097038865,inf,inf,inf,inf,1,1,1,1,3,5,3,3,4,0,1,1,0,0,0
793721938,793720566,40177334,41.1790555,-8.6035789,-4.078201,-2.9707506,15.488567,0.008950949,-0.038369656,-1.5162039,-0.06547153,0.04024559,-0.67943454,-0.524393,0.035676077,-0.046197742,-0.010773117,-3.3770247,0.75606906,1.2434087,0.8213708,-0.12480616,129.98909,1.7597771,0.3168622,0.2878099,0.1711373,0.09880294,inf,inf,inf,inf,1,1,1,1,3,5,3,3,4,0,1,1,0,0,0
793821176,793819739,40177334,41.1790555,-8.6035789,-4.0800533,-2.9656968,15.43861,0.008950949,-0.038369656,-1.5162039,-0.0864523,0.032026067,-0.68471026,-0.5280035,0.035676077,-0.046197742,-0.010773117,-3.590694,2.1948326,1.2591424,0.83123976,-0.12480616,129.98909,1.8097343,0.3080011,0.28287274,0.1636417,0.09708091,inf,inf,inf,inf,1,1,1,1,3,5,3,3,4,0,1,1,0,0,0
793920065,793918958,40177334,41.1790555,-8.6035789,-4.0827794,-2.961853,15.39643,0.008950949,-0.038369656,-1.5162039,-0.091515675,0.01469421,-0.69225085,-0.52798206,0.035676077,-0.046197742,-0.010773117,-1.7560713,2.7309728,-0.58186287,0.841154,-0.12480616,129.98909,1.8519144,0.31681144,0.28762132,0.17348994,0.09885988,inf,inf,inf,inf,1,1,1,1,3,5,3,3,4,0,1,1,0,0,0
794024799,794018086,40177334,41.1790555,-8.6035789,-4.088733,-2.9608107,15.346491,0.008950949,-0.038369656,-1.5162039,-0.10300637,-0.0052170046,-0.67955726,-0.5142795,0.035676077,-0.046197742,-0.010773117,0.8562422,1.1947381,-0.65870756,0.85386,-0.12480616,129.98909,1.9018536,0.3080352,0.28269795,0.16828144,0.097146824,inf,inf,inf,inf,1,1,1,1,3,5,3,3,4,0,1,1,0,0,0
794118080,794117260,40177334,41.1790555,-8.6035789,-4.091451,-2.963013,15.305981,0.008950949,-0.038369656,-1.5162039,-0.104739144,-0.027092561,-0.6784142,-0.505465,0.035676077,-0.046197742,-0.010773117,1.15095,2.0273604,-2.3638139,0.8664945,-0.12480616,129.98909,1.9423637,0.31669924,0.28744444,0.18065833,0.098932706,inf,inf,inf,inf,1,1,1,1,3,5,3,3,4,0,1,1,0,0,0
794218168,794216434,40177334,41.1790555,-8.6035789,-4.097186,-2.966988,15.259015,0.008950949,-0.038369656,-1.5162039,-0.10883324,-0.043653384,-0.6824544,-0.50890994,0.035676077,-0.046197742,-0.010773117,2.5071363,0.970583,-2.2172318,0.8771801,-0.12480616,129.98909,1.9893293,0.30796006,0.2825376,0.17539173,0.09721578,inf,inf,inf,inf,1,1,1,1,3,5,3,3,4,0,1,1,0,0,0
794317644,794315607,40177334,41.1790555,-8.6035789,-4.10477,-2.9727936,15.216584,0.008950949,-0.038369656,-1.5162039,-0.1252827,-0.05080987,-0.6506605,-0.47113493,0.035676077,-0.046197742,-0.010773117,0.3190246,1.2839649,-0.11740813,0.8843757,-0.12480616,129.98909,2.0317602,0.3165654,0.2872832,0.18914148,0.09899292,inf,inf,inf,inf,1,1,1,1,3,5,3,3,4,0,1,1,0,0,0
794425130,794423797,40177334,41.1790555,-8.6035789,-4.115586,-2.9804916,15.167862,0.008950949,-0.038369656,-1.5162039,-0.1463411,-0.06255383,-0.6326533,-0.45441392,0.035676077,-0.046197742,-0.010773117,-2.676526,2.9650605,-1.4574751,0.8901647,-0.12480616,129.98909,2.0804825,0.3085064,0.282952,0.18319084,0.09742987,inf,inf,inf,inf,1,1,1,1,3,5,3,3,4,0,1,1,0,0,0
794523851,794522971,40177334,41.1790555,-8.6035789,-4.1283255,-2.98966,15.128025,0.008950949,-0.038369656,-1.5162039,-0.16452418,-0.07963797,-0.63756925,-0.45528048,0.035676077,-0.046197742,-0.010773117,1.42449,0.309743,-0.746092,0.89520884,-0.12480616,129.98909,2.1203194,0.31720844,0.28771815,0.19717,0.099208765,inf,inf,inf,inf,1,1,1,1,3,5,3,3,4,0,1,1,0,0,0
794625046,794622145,40177334,41.1790555,-8.6035789,-4.144209,-2.9996846,15.080184,0.008950949,-0.038369656,-1.5162039,-0.17132816,-0.09678252,-0.6639636,-0.48377085,0.035676077,-0.046197742,-0.010773117,2.6540759,-1.5235063,-0.84729457,0.8997676,-0.12480616,129.98909,2.1681604,0.30831861,0.2827871,0.1883777,0.09746007,inf,inf,inf,inf,1,1,1,1,3,5,3,3,4,1,1,1,0,0,0
794723165,794721318,40177334,41.1790555,-8.6035789,-4.1601543,-3.0118558,15.041736,0.008950949,-0.038369656,-1.5162039,-0.1920727,-0.08816114,-0.58428544,-0.40007192,0.035676077,-0.046197742,-0.010773117,-2.0404308,2.529496,-1.0669429,0.90320706,-0.12480616,129.98909,2.2066088,0.31709522,0.2875523,0.20234786,0.09923755,inf,inf,inf,inf,1,1,1,1,3,5,3,3,4,1,1,1,0,0,0
794823264,794820538,40177334,41.1790555,-8.6035789,-4.1772895,-3.0237267,15.01007,0.008950949,-0.038369656,-1.5162039,-0.18586661,-0.088374235,-0.42413804,-0.24243642,0.035676077,-0.046197742,-0.010773117,-3.0380504,1.6113408,-0.49362972,0.90288836,-0.12480616,129.98909,2.2382746,0.30815494,0.28262833,0.19105022,0.09749556,inf,inf,inf,inf,1,1,1,1,3,5,3,3,4,1,1,1,0,0,0
794920683,794919666,40177334,41.1790555,-8.6035789,-4.196374,-3.0364702,14.995816,0.008950949,-0.038369656,-1.5162039,-0.18229017,-0.08124554,-0.29414645,-0.11152922,0.035676077,-0.046197742,-0.010773117,1.92493,0.86181086,0.19877692,0.9002413,-0.12480616,129.98909,2.2525282,0.3170292,0.2873917,0.20285685,0.099259906,inf,inf,inf,inf,1,1,1,1,3,5,3,3,4,1,1,1,0,0,0
795020371,795018840,40177334,41.1790555,-8.6035789,-4.2143536,-3.0480704,14.980919,0.008950949,-0.038369656,-1.5162039,-0.16467072,-0.07315529,-0.2956565,-0.11796303,0.035676077,-0.046197742,-0.010773117,-0.027581153,0.5307361,-0.081906356,0.8988124,-0.12480616,129.98909,2.2674255,0.30803055,0.28246915,0.1908003,0.097504474,inf,inf,inf,inf,1,1,1,1,3,5,3,3,4,1,1,1,0,0,0
795118926,795118016,40177334,41.1790555,-8.6035789,-4.23252,-3.0603993,14.96344,0.008950949,-0.038369656,-1.5162039,-0.1387951,-0.06906334,-0.3404799,-0.1670245,0.035676077,-0.046197742,-0.010773117,0.8126747,-2.0434117,1.7925607,0.89788646,-0.12480616,129.98909,2.2849045,0.3170082,0.2872356,0.20303036,0.09927056,inf,inf,inf,inf,1,1,1,1,3,5,3,3,4,1,1,1,0,0,0
795218332,795217187,40177334,41.1790555,-8.6035789,-4.248768,-3.0710325,14.937969,0.008950949,-0.038369656,-1.5162039,-0.12344434,-0.059683725,-0.35943514,-0.19473737,0.035676077,-0.046197742,-0.010773117,1.4393189,-0.21585472,-0.6377514,0.8970286,-0.12480616,129.98909,2.3103752,0.3271724,0.29210705,0.2158511,0.10102318,inf,inf,inf,inf,1,1,1,1,3,5,3,3,4,1,1,1,0,0,0
795322359,795316406,40177334,41.1790555,-8.6035789,-4.2671537,-3.0830433,14.917998,0.008950949,-0.038369656,-1.5162039,-0.10111146,-0.0523501,-0.36587283,-0.20207873,0.035676077,-0.046197742,-0.010773117,-0.1256056,0.72444594,-1.5145124,0.89624184,-0.12480616,129.98909,2.330346,0.31693345,0.28706005,0.20259699,0.09927303,inf,inf,inf,inf,1,1,1,1,3,5,3,3,4,1,1,1,0,0,0
795425389,795424555,40177334,41.1790555,-8.6035789,-4.2846255,-3.0940912,14.897588,0.008950949,-0.038369656,-1.5162039,-0.08992097,-0.045689676,-0.27999443,-0.12076094,0.035676077,-0.046197742,-0.010773117,2.982248,-1.3619058,-0.08172994,0.895154,-0.12480616,129.98909,2.3507566,0.3086194,0.28275612,0.19075839,0.097738415,inf,inf,inf,inf,1,1,1,1,3,5,3,3,4,1,1,1,0,0,0
795524762,795523724,40177334,41.1790555,-8.6035789,-4.3007894,-3.1039536,14.889293,0.008950949,-0.038369656,-1.5162039,-0.08471166,-0.030452011,-0.26765174,-0.10706994,0.035676077,-0.046197742,-0.010773117,-2.432988,2.590765,-0.71556616,0.89467275,-0.12480616,129.98909,2.3590517,0.31787336,0.2875441,0.20114037,0.09951315,inf,inf,inf,inf,1,1,1,1,3,5,3,3,4,1,1,1,0,0,0
795624388,795622898,40177334,41.1790555,-8.6035789,-4.314528,-3.1112456,14.875532,0.008950949,-0.038369656,-1.5162039,-0.058484424,-0.019578453,-0.26561376,-0.108603165,0.035676077,-0.046197742,-0.010773117,-0.1978645,-1.4898691,-0.16914566,0.8948315,-0.12480616,129.98909,2.3728123,0.3085686,0.28258857,0.18826415,0.09777424,inf,inf,inf,inf,1,1,1,1,3,5,3,3,4,1,1,1,0,0,0
795718565,795713060,40177334,41.1790555,-8.6035789,-4.326211,-3.116323,14.867937,0.008950949,-0.038369656,-1.5162039,-0.045068596,-0.004515468,-0.26708385,-0.10828129,0.035676077,-0.046197742,-0.010773117,1.9626776,-1.4179341,-0.08006667,0.8936263,-0.12480616,129.98909,2.3804073,0.31698474,0.28772363,0.197435,0.099518694,inf,inf,inf,inf,1,1,1,1,3,5,3,3,4,1,1,1,0,0,0
795824069,795821246,40177334,41.1790555,-8.6035789,-4.3361235,-3.1189032,14.852815,0.008950949,-0.038369656,-1.5162039,-0.024236724,0.027912758,-0.27722433,-0.121550664,0.035676077,-0.046197742,-0.010773117,-0.39215684,0.95144403,-1.0140249,0.89365005,-0.12480616,129.98909,2.3955297,0.30854666,0.28243938,0.18586679,0.09781772,inf,inf,inf,inf,1,1,1,1,3,5,3,3,4,1,1,1,0,0,0
795922939,795920420,40177334,41.1790555,-8.6035789,-4.34562,-3.1173935,14.844848,0.008950949,-0.038369656,-1.5162039,-0.010435697,0.037386514,-0.27013722,-0.11077356,0.035676077,-0.046197742,-0.010773117,2.4485266,-2.7502062,0.8223856,0.8939532,-0.12480616,129.98909,2.4034967,0.3178933,0.28723028,0.1952686,0.09960991,inf,inf,inf,inf,1,1,1,1,3,5,3,3,4,1,1,1,0,0,0
796021002,796019594,40177334,41.1790555,-8.6035789,-4.353036,-3.113785,14.833028,0.008950949,-0.038369656,-1.5162039,-0.011508397,0.0646893,-0.26588342,-0.10822768,0.035676077,-0.046197742,-0.010773117,-2.6526558,2.9546733,-0.42776543,0.8930511,-0.12480616,129.98909,2.4153166,0.3085689,0.28229436,0.18290704,0.09787762,inf,inf,inf,inf,1,1,1,1,3,5,3,3,4,1,1,1,0,0,0
796119806,796118771,40177334,41.1790555,-8.6035789,-4.3639803,-3.1099901,14.826759,0.008950949,-0.038369656,-1.5162039,0.0030520558,0.050573584,-0.26567984,-0.10426444,0.035676077,-0.046197742,-0.010773117,0.91808844,-2.861784,2.1215873,0.8932732,-0.12480616,129.98909,2.421585,0.3179409,0.287086,0.19165027,0.099681064,inf,inf,inf,inf,1,1,1,1,3,5,3,3,4,1,1,1,0,0,0
796219621,796217987,40177334,41.1790555,-8.6035789,-4.372977,-3.1048496,14.813449,0.008950949,-0.038369656,-1.5162039,0.009848279,0.06024338,-0.3119759,-0.15229283,0.035676077,-0.046197742,-0.010773117,2.7964013,-0.42307496,-0.037246935,0.89806896,-0.12480616,129.98909,2.4348955,0.30859935,0.28307673,0.17977339,0.09809447,inf,inf,inf,inf,1,1,1,1,3,5,3,3,4,1,1,1,0,0,0
796319527,796317115,40177334,41.1790555,-8.6035789,-4.382063,-3.0977383,14.797097,0.008950949,-0.038369656,-1.5162039,0.025167689,0.0640073,-0.46394664,-0.29972732,0.035676077,-0.046197742,-0.010773117,2.6618671,-1.7864406,-2.9108503,0.9045667,-0.12480616,129.98909,2.4512472,0.31798437,0.28791732,0.18824762,0.099901326,inf,inf,inf,inf,1,1,1,1,3,5,3,3,4,1,1,1,0,0,0
796417680,796416291,40177334,41.1790555,-8.6035789,-4.387097,-3.090077,14.761365,0.008950949,-0.038369656,-1.5162039,0.03908198,0.07125189,-0.56863743,-0.40566802,0.035676077,-0.046197742,-0.010773117,1.0545279,-1.4861714,0.85585016,0.90695095,-0.12480616,129.98909,2.4869795,0.30864897,0.28293896,0.17739475,0.09815829,inf,inf,inf,inf,1,1,1,1,3,5,3,3,4,1,1,1,0,0,0
796525728,796524478,40177334,41.1790555,-8.6035789,-4.3914156,-3.0805843,14.727153,0.008950949,-0.038369656,-1.5162039,0.051945843,0.07419851,-0.5671422,-0.3943823,0.035676077,-0.046197742,-0.010773117,2.290882,0.16122696,-0.48779395,0.9070767,-0.12480616,129.98909,2.5211916,0.31895095,0.2874393,0.18627107,0.10000481,inf,inf,inf,inf,1,1,1,1,3,5,3,3,4,1,1,1,0,0,0
796620102,796614636,40177334,41.1790555,-8.6035789,-4.392061,-3.0723233,14.69546,0.008950949,-0.038369656,-1.5162039,0.073933974,0.074710235,-0.4703281,-0.29765326,0.035676077,-0.046197742,-0.010773117,3.0851092,-1.6940295,0.9522775,0.9054047,-0.12480616,129.98909,2.552884,0.32841057,0.29273462,0.19335176,0.10177036,inf,inf,inf,inf,1,1,1,1,3,5,3,3,4,1,1,1,0,0,0
796723864,796722826,40177334,41.1790555,-8.6035789,-4.3926086,-3.0568652,14.683127,0.008950949,-0.038369656,-1.5162039,0.071977265,0.09034153,-0.32120705,-0.13937522,0.035676077,-0.046197742,-0.010773117,2.267625,0.6799774,0.34329855,0.90367293,-0.12480616,129.98909,2.565217,0.3189084,0.28727198,0.18158224,0.10004816,inf,inf,inf,inf,1,1,1,1,3,5,3,3,4,1,1,1,0,0,0
796814354,796812984,40177334,41.1790555,-8.6035789,-4.391092,-3.0449219,14.673802,0.008950949,-0.038369656,-1.5162039,0.08892851,0.07628449,-0.2892269,-0.10750511,0.035676077,-0.046197742,-0.010773117,0.5815034,-3.374417,1.0765865,0.9044812,-0.12480616,129.98909,2.574542,0.30872852,0.28265297,0.16998963,0.09827056,inf,inf,inf,inf,1,1,1,1,3,5,3,3,4,1,1,1,0,0,0
796922443,796921174,40177334,41.1790555,-8.6035789,-4.3922544,-3.0312374,14.6633415,0.008950949,-0.038369656,-1.5162039,0.07482147,0.08921216,-0.2728589,-0.091986455,0.035676077,-0.046197742,-0.010773117,-3.385436,2.2694094,0.6524447,0.9045253,-0.12480616,129.98909,2.585003,0.31895667,0.28812727,0.17734554,0.10027278,inf,inf,inf,inf,1,1,1,1,3,5,3,3,4,1,1,1,0,0,0
797023098,797020347,40177334,41.1790555,-8.6035789,-4.389763,-3.0195796,14.650938,0.008950949,-0.038369656,-1.5162039,0.10129349,0.08906261,-0.22291236,-0.04842787,0.035676077,-0.046197742,-0.010773117,-0.3338925,2.0610533,-1.9581833,0.9047154,-0.12480616,129.98909,2.5974064,0.3095327,0.2831106,0.16717252,0.098505065,inf,inf,inf,inf,1,1,1,1,3,5,3,3,4,1,1,1,0,0,0
797120425,797119567,40177334,41.1790555,-8.6035789,-4.387761,-3.0084558,14.646902,0.008950949,-0.038369656,-1.5162039,0.11814576,0.068063654,-0.20744656,-0.03527226,0.035676077,-0.046197742,-0.010773117,1.2873942,-2.22205,0.81952477,0.9077375,-0.12480616,129.98909,2.6014423,0.31889588,0.2879817,0.17349042,0.10032767,inf,inf,inf,inf,1,1,1,1,3,5,3,3,4,1,1,1,0,0,0
797220073,797218695,40177334,41.1790555,-8.6035789,-4.3819785,-2.9980361,14.635641,0.008950949,-0.038369656,-1.5162039,0.1328578,0.077508934,-0.22393394,-0.059547417,0.035676077,-0.046197742,-0.010773117,-0.6902813,1.7859426,-0.7800559,0.9131508,-0.12480616,129.98909,2.6127033,0.30953914,0.28296992,0.16398254,0.09855004,inf,inf,inf,inf,1,1,1,1,3,5,3,3,4,1,1,1,0,0,0
797318742,797317869,40177334,41.1790555,-8.6035789,-4.3747196,-2.9873264,14.627583,0.008950949,-0.038369656,-1.5162039,0.15120706,0.082349144,-0.22897203,-0.06706981,0.035676077,-0.046197742,-0.010773117,0.8054249,-0.92503995,-0.027702233,0.91927767,-0.12480616,129.98909,2.6207619,0.3188511,0.2878417,0.17033476,0.10037368,inf,inf,inf,inf,1,1,1,1,3,5,3,3,4,1,1,1,0,0,0
797417893,797417042,40177334,41.1790555,-8.6035789,-4.3638706,-2.9767935,14.613329,0.008950949,-0.038369656,-1.5162039,0.16070117,0.08158963,-0.19427986,-0.04191936,0.035676077,-0.046197742,-0.010773117,-3.8672187,-0.8444779,2.229406,0.9223891,-0.12480616,129.98909,2.6350155,0.32894883,0.29282492,0.17646384,0.1021887,inf,inf,inf,inf,1,1,1,1,3,5,3,3,4,1,1,1,0,0,0
797526335,797525277,40177334,41.1790555,-8.6035789,-4.3521595,-2.9615538,14.609886,0.008950949,-0.038369656,-1.5162039,0.16912064,0.09164302,-0.18065378,-0.029674413,0.035676077,-0.046197742,-0.010773117,0.43763056,1.2435032,-1.1230575,0.9242448,-0.12480616,129.98909,2.6384583,0.31958756,0.28829643,0.16741975,0.100592904,inf,inf,inf,inf,1,1,1,1,3,5,3,3,4,1,1,1,0,0,0
797622694,797615435,40177334,41.1790555,-8.6035789,-4.340392,-2.9493833,14.601969,0.008950949,-0.038369656,-1.5162039,0.17722787,0.0930573,-0.17796613,-0.032408208,0.035676077,-0.046197742,-0.010773117,-0.6292717,-1.2030123,0.13800262,0.9259158,-0.12480616,129.98909,2.6463757,0.3094578,0.28267384,0.15826496,0.09862716,inf,inf,inf,inf,1,1,1,1,3,5,3,3,4,1,1,1,0,0,0
797724484,797723579,40177334,41.1790555,-8.6035789,-4.3266807,-2.9322698,14.598771,0.008950949,-0.038369656,-1.5162039,0.15722221,0.11045124,-0.19169755,-0.046404816,0.035676077,-0.046197742,-0.010773117,-2.756282,2.6558022,-3.5915844,0.9279542,-0.12480616,129.98909,2.6495733,0.31952015,0.28817347,0.16439734,0.10064799,inf,inf,inf,inf,1,1,1,1,3,5,3,3,4,1,1,1,0,0,0
797824295,797822753,40177334,41.1790555,-8.6035789,-4.313042,-2.9186065,14.586786,0.008950949,-0.038369656,-1.5162039,0.17357855,0.08439536,-0.21533117,-0.077427015,0.035676077,-0.046197742,-0.010773117,1.1982877,-3.05986,-0.6418747,0.92914146,-0.12480616,129.98909,2.6615582,0.3101735,0.28312635,0.15606537,0.09884997,inf,inf,inf,inf,1,1,1,1,3,5,3,3,4,1,1,1,0,0,0
797922786,797921927,40177334,41.1790555,-8.6035789,-4.2998796,-2.9031048,14.58038,0.008950949,-0.038369656,-1.5162039,0.16371416,0.09473407,-0.19832374,-0.06138163,0.035676077,-0.046197742,-0.010773117,-0.30894634,3.238112,-2.4232252,0.92972624,-0.12480616,129.98909,2.667964,0.31936306,0.28802183,0.16150984,0.10067381,inf,inf,inf,inf,1,1,1,1,3,5,3,3,4,1,1,1,0,0,0
798022923,798021146,40177334,41.1790555,-8.6035789,-4.285873,-2.890672,14.567335,0.008950949,-0.038369656,-1.5162039,0.15837324,0.069153816,-0.21109165,-0.081303164,0.035676077,-0.046197742,-0.010773117,0.3547129,-2.095239,1.3189502,0.930637,-0.12480616,129.98909,2.6810093,0.31005928,0.28297615,0.15355015,0.098873496,inf,inf,inf,inf,1,1,1,1,3,5,3,3,4,1,1,1,0,0,0
798121231,798120274,40177334,41.1790555,-8.6035789,-4.269959,-2.8792996,14.558024,0.008950949,-0.038369656,-1.5162039,0.15553932,0.055470876,-0.21551125,-0.08692496,0.035676077,-0.046197742,-0.010773117,-1.5989853,1.4748771,-2.930296,0.9309386,-0.12480616,129.98909,2.69032,0.3191794,0.28787574,0.1587705,0.100694194,inf,inf,inf,inf,1,1,1,1,3,5,3,3,4,1,1,1,0,0,0
798220464,798219448,40177334,41.1790555,-8.6035789,-4.2553782,-2.870774,14.541184,0.008950949,-0.038369656,-1.5162039,0.13383701,0.036645286,-0.2026086,-0.082982175,0.035676077,-0.046197742,-0.010773117,2.3349562,-2.6608567,2.3339045,0.9304471,-0.12480616,129.98909,2.70716,0.32896578,0.2928882,0.16405827,0.102515936,inf,inf,inf,inf,1,1,1,1,3,5,3,3,4,1,1,1,0,0,0
798319535,798318622,40177334,41.1790555,-8.6035789,-4.2385125,-2.8597548,14.530832,0.008950949,-0.038369656,-1.5162039,0.13744381,0.054089203,-0.2338151,-0.11388166,0.035676077,-0.046197742,-0.010773117,-1.1875448,0.19281502,-1.5582886,0.92871755,-0.12480616,129.98909,2.7175121,0.31891218,0.28770775,0.15619324,0.10070151,inf,inf,inf,inf,1,1,1,1,3,5,3,3,4,1,1,1,0,0,0
798418762,798417795,40177334,41.1790555,-8.6035789,-4.223741,-2.8498693,14.513655,0.008950949,-0.038369656,-1.5162039,0.12397649,0.05463881,-0.22510801,-0.112526655,0.035676077,-0.046197742,-0.010773117,1.1635412,-2.1478393,0.7219588,0.9270657,-0.12480616,129.98909,2.7346897,0.328599,0.29272008,0.161342,0.10251882,inf,inf,inf,inf,1,1,1,1,3,5,3,3,4,1,1,1,0,0,0
798517896,798517015,40177334,41.1790555,-8.6035789,-4.209057,-2.8396606,14.504815,0.008950949,-0.038369656,-1.5162039,0.09692893,0.06737341,-0.21244593,-0.09813831,0.035676077,-0.046197742,-0.010773117,-2.956342,2.689205,-2.693246,0.92588377,-0.12480616,129.98909,2.7435293,0.31857833,0.28751224,0.15375473,0.10069215,inf,inf,inf,inf,1,1,1,1,3,5,3,3,4,1,1,1,0,0,0
798617118,798616143,40177334,41.1790555,-8.6035789,-4.197093,-2.831217,14.49188,0.008950949,-0.038369656,-1.5162039,0.07731275,0.06211322,-0.21429595,-0.10405344,0.035676077,-0.046197742,-0.010773117,-0.2361797,0.38994786,-0.30328858,0.9227177,-0.12480616,129.98909,2.756464,0.32815564,0.2925223,0.15859646,0.10251609,inf,inf,inf,inf,1,1,1,1,3,5,3,3,4,1,1,1,0,0,0
798716446,798715319,40177334,41.1790555,-8.6035789,-4.184982,-2.8244584,14.484557,0.008950949,-0.038369656,-1.5162039,0.07729084,0.04004477,-0.2142942,-0.10107172,0.035676077,-0.046197742,-0.010773117,4.5251966,-0.45865795,-0.7549896,0.9208616,-0.12480616,129.98909,2.7637873,0.3182326,0.28731984,0.1514469,0.100694396,inf,inf,inf,inf,1,1,1,1,3,5,3,3,4,1,1,1,0,0,0
798821690,798814490,40177334,41.1790555,-8.6035789,-4.174461,-2.820291,14.47253,0.008950949,-0.038369656,-1.5162039,0.059319746,0.023502756,-0.17895819,-0.06882716,0.035676077,-0.046197742,-0.010773117,0.57087487,-1.3552575,-1.1997116,0.9197269,-0.12480616,129.98909,2.775814,0.30923536,0.28231317,0.14489713,0.098897144,inf,inf,inf,inf,1,1,1,1,3,5,3,3,4,1,1,1,0,0,0
798919095,798913664,40177334,41.1790555,-8.6035789,-4.167989,-2.8178859,14.473179,0.008950949,-0.038369656,-1.5162039,0.0017270144,0.022541573,-0.1514192,-0.03657074,0.035676077,-0.046197742,-0.010773117,-4.473887,2.2217944,-0.7087309,0.9188881,-0.12480616,129.98909,2.7751656,0.31804863,0.2872125,0.149444,0.1007224,inf,inf,inf,inf,1,1,1,1,3,5,3,3,4,1,1,1,0,0,0
799023246,799021856,40177334,41.1790555,-8.6035789,-4.16424,-2.8173792,14.467982,0.008950949,-0.038369656,-1.5162039,-0.010087745,-0.012491818,-0.13556089,-0.023940133,0.035676077,-0.046197742,-0.010773117,2.4885173,-1.7945383,0.9445252,0.9145423,-0.12480616,129.98909,2.7803621,0.3098249,0.2827899,0.14344329,0.09910604,inf,inf,inf,inf,1,1,1,1,3,5,3,3,4,1,1,1,0,0,0
799121987,799121027,40177334,41.1790555,-8.6035789,-4.159808,-2.8176682,14.467465,0.008950949,-0.038369656,-1.5162039,-0.022913676,-0.037280947,-0.18915859,-0.07369274,0.035676077,-0.046197742,-0.010773117,2.56535,-1.8009946,0.1903707,0.9058985,-0.12480616,129.98909,2.780879,0.3186159,0.28771275,0.14806496,0.1009379,inf,inf,inf,inf,1,1,1,1,3,5,3,3,4,1,1,1,0,0,0
799221505,799220201,40177334,41.1790555,-8.6035789,-4.1579747,-2.820275,14.457129,0.008950949,-0.038369656,-1.5162039,-0.05032161,-0.05036444,-0.18244474,-0.07029546,0.035676077,-0.046197742,-0.010773117,-0.6796676,-3.179947,2.7025957,0.89056253,-0.12480616,129.98909,2.791216,0.32797092,0.29274094,0.15286237,0.10275875,inf,inf,inf,inf,1,1,1,1,3,5,3,3,4,1,1,1,0,0,0
799324711,799319375,40177334,41.1790555,-8.6035789,-4.156612,-2.826293,14.457888,0.008950949,-0.038369656,-1.5162039,-0.045157548,-0.045271497,-0.18150993,-0.061504938,0.035676077,-0.046197742,-0.010773117,5.785437,-0.33491677,1.8055711,0.87160313,-0.12480616,129.98909,2.7904568,0.3182762,0.28755373,0.14656791,0.100923814,inf,inf,inf,inf,1,1,1,1,3,5,3,3,4,1,1,1,0,0,0
799419575,799418594,40177334,41.1790555,-8.6035789,-4.1570883,-2.83352,14.449866,0.008950949,-0.038369656,-1.5162039,-0.06377012,-0.056715358,-0.21603282,-0.09658493,0.035676077,-0.046197742,-0.010773117,-3.3745158,1.4824909,-1.5330068,0.84969395,-0.12480616,129.98909,2.7984781,0.32754707,0.2925845,0.15124774,0.10274345,inf,inf,inf,inf,1,1,1,1,3,5,3,3,4,1,1,1,0,0,0
